,Unnamed: 0,상가업소번호,상권업종대분류명,상권업종중분류명,상권업종소분류명,지번주소,도로명주소,위도,경도
0,34,20537010,소매,종합소매점,편의점,서울특별시 강북구 수유동 57-80,서울특별시 강북구 삼양로 306,37.63068406,127.0179445
1,41,28516285,소매,종합소매점,편의점,서울특별시 성북구 길음동 20-1,서울특별시 성북구 동소문로 315,37.60839154,127.0287256
2,81,28518797,소매,종합소매점,편의점,서울특별시 성북구 길음동 20-1,서울특별시 성북구 동소문로 315,37.60839154,127.0287256
3,88,22516616,소매,종합소매점,편의점,서울특별시 관악구 신림동 518-18,서울특별시 관악구 신사로 86,37.4862054,126.9124409
4,95,3156793,소매,종합소매점,편의점,서울특별시 구로구 구로동 744-51,서울특별시 구로구 구로동로18길 27,37.48788825,126.8861036
5,103,28522306,소매,종합소매점,편의점,서울특별시 서초구 신원동 285,서울특별시 서초구 청계산로9길 1-12,37.449678,127.0562222
6,121,24335208,소매,종합소매점,편의점,서울특별시 금천구 가산동 327-29,서울특별시 금천구 가산디지털2로 30,37.4712679,126.8836597
7,148,20698098,소매,종합소매점,편의점,서울특별시 강서구 화곡동 161-2,서울특별시 강서구 강서로18길 146,37.53512526,126.853607
8,156,28519978,소매,종합소매점,편의점,서울특별시 마포구 아현동 692,서울특별시 마포구 마포대로 262,37.55651142,126.9591593
9,171,22557902,소매,종합소매점,편의점,서울특별시 서대문구 남가좌동 338-6,서울특별시 서대문구 증가로 117,37.57695968,126.9243906
10,201,22554676,소매,종합소매점,편의점,서울특별시 용산구 후암동 105-124,서울특별시 용산구 후암로 23-1,37.54801459,126.9777238
11,325,28521745,소매,종합소매점,편의점,서울특별시 광진구 광장동 313-3,서울특별시 광진구 구천면로 2,37.54628015,127.105987
12,334,20865279,소매,종합소매점,편의점,서울특별시 광진구 광장동 244-6,서울특별시 광진구 아차산로 591,37.54613669,127.104891
13,338,26003692,소매,종합소매점,편의점,서울특별시 영등포구 신길동 1795,서울특별시 영등포구 가마산로 543,37.50489285,126.917316
14,374,22557751,소매,종합소매점,편의점,서울특별시 서초구 서초동 1697-14,서울특별시 서초구 서초대로53길 20-4,37.4959962,127.0147351
15,380,24103373,소매,종합소매점,편의점,서울특별시 중랑구 면목동 103-4,서울특별시 중랑구 겸재로 207,37.58924141,127.0905495
16,392,23839895,소매,종합소매점,편의점,서울특별시 관악구 신림동 725-12,서울특별시 관악구 난곡로35길 10,37.47286854,126.9181851
17,433,25274110,소매,종합소매점,편의점,서울특별시 금천구 시흥동 909-24,서울특별시 금천구 은행나무로 51,37.45114194,126.9081454
18,438,22515990,소매,종합소매점,편의점,서울특별시 금천구 가산동 149-27,서울특별시 금천구 시흥대로153길 89,37.47611155,126.8937742
19,479,24128333,소매,종합소매점,편의점,서울특별시 송파구 가락동 189-21,서울특별시 송파구 동남로18길 43,37.492971,127.1346794
20,574,24093799,소매,종합소매점,편의점,서울특별시 마포구 성산동 515,서울특별시 마포구 월드컵로 240,37.56827565,126.8972574
21,589,23935124,소매,종합소매점,편의점,서울특별시 관악구 봉천동 850,서울특별시 관악구 서림1길 77,37.47610427,126.9421748
22,597,24021796,소매,종합소매점,편의점,서울특별시 용산구 갈월동 98-31,서울특별시 용산구 한강대로77길 21,37.54163538,126.9715193
23,599,23910441,소매,종합소매점,편의점,서울특별시 강남구 역삼동 840,서울특별시 강남구 도곡로7길 6,37.49106384,127.0350416
24,621,9243878,소매,종합소매점,편의점,서울특별시 종로구 종로6가 18-2,서울특별시 종로구 율곡로 280,37.57249916,127.0076716
25,635,23256530,소매,종합소매점,편의점,서울특별시 송파구 가락동 8-1,서울특별시 송파구 중대로23길 20,37.50262802,127.1257913
26,677,22780747,소매,종합소매점,편의점,서울특별시 강동구 명일동 48-7,서울특별시 강동구 동남로 881,37.5522871,127.1557577
27,700,24139697,소매,종합소매점,편의점,서울특별시 노원구 상계동 716,서울특별시 노원구 노해로 485,37.65486515,127.0619043
28,745,22557422,소매,종합소매점,편의점,서울특별시 강동구 천호동 169-13,서울특별시 강동구 성안로25길 21,37.5382469,127.1343601
29,751,24090764,소매,종합소매점,편의점,서울특별시 마포구 상암동 1687,서울특별시 마포구 상암산로1길 69,37.58012951,126.8834402
30,850,24015547,소매,종합소매점,편의점,서울특별시 성북구 정릉동 260-117,서울특별시 성북구 보국문로16길 75,37.61311177,127.010145
31,871,24218680,소매,종합소매점,편의점,서울특별시 강서구 내발산동 716-24,서울특별시 강서구 강서로45라길 35,37.54938668,126.834082
32,879,23460674,소매,종합소매점,편의점,서울특별시 성북구 안암동5가 43,서울특별시 성북구 인촌로 113,37.58655882,127.0319532
33,918,24439659,소매,종합소매점,편의점,서울특별시 종로구 안국동 148,서울특별시 종로구 율곡로 53,37.5765873,126.9851109
34,934,22522572,소매,종합소매점,편의점,서울특별시 송파구 삼전동 34-13,서울특별시 송파구 삼전로4길 17-1,37.50183195,127.0884214
35,938,24031380,소매,종합소매점,편의점,서울특별시 중구 저동2가 69-1,서울특별시 중구 수표로 35-1,37.56441912,126.989883
36,969,24112077,소매,종합소매점,편의점,서울특별시 서대문구 북가좌동 371-12,서울특별시 서대문구 수색로 144,37.5753058,126.9052255
37,972,22533372,소매,종합소매점,편의점,서울특별시 강남구 역삼동 708-16,서울특별시 강남구 선릉로89길 16,37.50342172,127.0477987
38,1031,24260741,소매,종합소매점,편의점,서울특별시 종로구 인의동 31,서울특별시 종로구 종로31길 27,37.57206079,126.999504
39,1062,22559243,소매,종합소매점,편의점,서울특별시 양천구 신정동 311,서울특별시 양천구 목동서로 400,37.51499597,126.8582474
40,1069,24176177,소매,종합소매점,편의점,서울특별시 영등포구 영등포동8가 56-1,서울특별시 영등포구 국회대로53길 25,37.5276684,126.9062502
41,1091,24373003,소매,종합소매점,편의점,서울특별시 서초구 방배동 875-21,서울특별시 서초구 서초대로25길 27,37.48903283,126.9935677
42,1110,24278913,소매,종합소매점,편의점,서울특별시 마포구 토정동 3-17,서울특별시 마포구 토정로32길 12,37.54033616,126.9407474
43,1150,20906462,소매,종합소매점,편의점,서울특별시 노원구 공릉동 172,서울특별시 노원구 공릉로 232,37.63306923,127.0767711
44,1153,24251164,소매,종합소매점,편의점,서울특별시 강남구 대치동 898-16,서울특별시 강남구 선릉로82길 10,37.50247316,127.0508531
45,1170,22515318,소매,종합소매점,편의점,서울특별시 도봉구 창동 804,서울특별시 도봉구 덕릉로59아길 17,37.64191391,127.0379887
46,1174,22514613,소매,종합소매점,편의점,서울특별시 서초구 신원동 270-25,서울특별시 서초구 청계산로 179,37.44849463,127.0547226
47,1258,5217679,소매,종합소매점,편의점,서울특별시 서초구 우면동 712,서울특별시 서초구 형촌길 15,37.46328956,127.0214494
48,1268,22716901,소매,종합소매점,편의점,서울특별시 강남구 도곡동 422-4,서울특별시 강남구 논현로28길 56,37.48460509,127.0463641
49,1303,23959458,소매,종합소매점,편의점,서울특별시 강서구 화곡동 18-3,서울특별시 강서구 화곡로49길 5-10,37.5491945,126.8466241
50,1340,24049555,소매,종합소매점,편의점,서울특별시 광진구 군자동 102-1,서울특별시 광진구 군자로 109,37.55286575,127.0719781
51,1376,24301920,소매,종합소매점,편의점,서울특별시 서대문구 홍제동 279-52,서울특별시 서대문구 세검정로 89,37.59575749,126.9486365
52,1385,23916811,소매,종합소매점,편의점,서울특별시 관악구 봉천동 921-6,서울특별시 관악구 청룡4길 32,37.48114232,126.9443199
53,1394,24556035,소매,종합소매점,편의점,서울특별시 마포구 상암동 1641,서울특별시 마포구 월드컵북로47길 37,37.5735172,126.8902633
54,1430,24247062,소매,종합소매점,편의점,서울특별시 관악구 신림동 1734,서울특별시 관악구 미성3길 16,37.47293905,126.9160474
55,1456,24294361,소매,종합소매점,편의점,서울특별시 동작구 흑석동 1-3,서울특별시 동작구 현충로 75,37.50993145,126.9637201
56,1463,23163970,소매,종합소매점,편의점,서울특별시 관악구 신림동 407-11,서울특별시 관악구 신림로 195,37.47519245,126.9359582
57,1467,22565096,소매,종합소매점,편의점,서울특별시 서초구 양재동 9-9,서울특별시 서초구 남부순환로356길 61,37.48217269,127.0386384
58,1734,23899143,소매,종합소매점,편의점,서울특별시 금천구 시흥동 827,서울특별시 금천구 금하로23길 20,37.45203132,126.9088332
59,1741,20373104,소매,종합소매점,편의점,서울특별시 강남구 논현동 175-1,서울특별시 강남구 논현로 639,37.51056507,127.0320306
60,1743,24605136,소매,종합소매점,편의점,서울특별시 강남구 신사동 524-13,서울특별시 강남구 강남대로162길 45,37.52113265,127.0219728
61,1746,23924081,소매,종합소매점,편의점,서울특별시 강남구 도곡동 959-26,서울특별시 강남구 남부순환로359길 6,37.48551157,127.0370352
62,1753,20601815,소매,종합소매점,편의점,서울특별시 동작구 대방동 393-65,서울특별시 동작구 상도로 69,37.49994767,126.9283576
63,1761,20554151,소매,종합소매점,편의점,서울특별시 양천구 목동 912,서울특별시 양천구 목동동로 350,37.53514387,126.8818596
64,1769,20368780,소매,종합소매점,편의점,서울특별시 서초구 서초동 1303-22,서울특별시 서초구 강남대로 465,37.50375083,127.0240884
65,1878,24148880,소매,종합소매점,편의점,서울특별시 성북구 동소문동5가 120,서울특별시 성북구 보문로38길 11,37.59165194,127.0148002
66,1893,25938091,소매,종합소매점,편의점,서울특별시 성동구 도선동 58-1,서울특별시 성동구 왕십리로 326,37.56274199,127.0338801
67,1898,20420289,소매,종합소매점,편의점,서울특별시 영등포구 여의도동 2-6,서울특별시 영등포구 의사당대로 101,37.52189311,126.9239486
68,1952,15486373,소매,종합소매점,편의점,서울특별시 도봉구 쌍문동 59-5,서울특별시 도봉구 시루봉로 58,37.65580948,127.0293889
69,1999,28523952,소매,종합소매점,편의점,서울특별시 영등포구 여의도동 23,서울특별시 영등포구 국제금융로 10,37.52517222,126.9248631
70,2010,23456500,소매,종합소매점,편의점,서울특별시 구로구 오류동 138-27,서울특별시 구로구 서해안로 2356,37.49389043,126.8458693
71,2020,24025661,소매,종합소매점,편의점,서울특별시 영등포구 여의도동 2,서울특별시 영등포구 여의공원로 68,37.52679751,126.9222716
72,2131,15484204,소매,종합소매점,편의점,서울특별시 광진구 구의동 546-1,서울특별시 광진구 강변역로 50,37.53453044,127.0941674
73,2137,24841911,소매,종합소매점,편의점,서울특별시 마포구 공덕동 475,서울특별시 마포구 마포대로 156,37.5479271,126.9543559
74,2286,23312118,소매,종합소매점,편의점,서울특별시 중랑구 면목동 96-25,서울특별시 중랑구 면목로78길 51,37.59075985,127.0899875
75,2397,24667805,소매,종합소매점,편의점,서울특별시 강동구 강일동 675,서울특별시 강동구 아리수로93길 33,37.56589257,127.1735232
76,2409,15479708,소매,종합소매점,편의점,서울특별시 마포구 아현동 85-17,서울특별시 마포구 마포대로 246,37.55534462,126.9586549
77,2413,25887258,소매,종합소매점,편의점,서울특별시 동대문구 전농동 103-19,서울특별시 동대문구 전농로38길 42,37.58635887,127.053967
78,2421,23268973,소매,종합소매점,편의점,서울특별시 동작구 상도동 211-225,서울특별시 동작구 양녕로28길 4,37.49904616,126.9443167
79,2487,24095106,소매,종합소매점,편의점,서울특별시 영등포구 문래동4가 32-19,서울특별시 영등포구 도림로141다길 7,37.51432024,126.8913554
80,2613,28524506,소매,종합소매점,편의점,서울특별시 종로구 숭인동 316-2,서울특별시 종로구 지봉로 18,37.57173064,127.0159683
81,2619,24648395,소매,종합소매점,편의점,서울특별시 서대문구 대현동 60-8,서울특별시 서대문구 이화여대길 48,37.55904247,126.9458589
82,2636,28520276,소매,종합소매점,편의점,서울특별시 송파구 신천동 29,서울특별시 송파구 올림픽로 300,37.51363101,127.1042839
83,2637,20375295,소매,종합소매점,편의점,서울특별시 성북구 동선동3가 11,서울특별시 성북구 동소문로26다길 27,37.59511156,127.0201674
84,2645,24854248,소매,종합소매점,편의점,서울특별시 강남구 대치동 890-8,서울특별시 강남구 테헤란로 416,37.50498647,127.0518958
85,2652,15479422,소매,종합소매점,편의점,서울특별시 서대문구 남가좌동 379-2,서울특별시 서대문구 수색로6길 45,37.57231789,126.9134086
86,2677,23373554,소매,종합소매점,편의점,서울특별시 강남구 삼성동 118-3,서울특별시 강남구 봉은사로74길 15,37.5115564,127.0520502
87,2714,20291621,소매,종합소매점,편의점,서울특별시 강남구 대치동 62-8,서울특별시 강남구 영동대로50길 10,37.4985528,127.0700156
88,2801,20801056,소매,종합소매점,편의점,서울특별시 동대문구 전농동 493-71,서울특별시 동대문구 답십리로 55,37.57638558,127.0474024
89,2807,23198193,소매,종합소매점,편의점,서울특별시 강남구 청담동 100-31,서울특별시 강남구 압구정로75길 5,37.52634563,127.0468172
90,2883,7569429,소매,종합소매점,편의점,서울특별시 동대문구 용두동 233-14,서울특별시 동대문구 무학로37길 42,37.57779459,127.0279231
91,2910,24758410,소매,종합소매점,편의점,서울특별시 광진구 능동 234-35,서울특별시 광진구 능동로32길 65,37.55419691,127.0820458
92,2968,22716615,소매,종합소매점,편의점,서울특별시 서초구 서초동 1330-6,서울특별시 서초구 서초대로74길 51,37.49305471,127.0283892
93,2994,28521662,소매,종합소매점,편의점,서울특별시 서초구 양재동 215,서울특별시 서초구 매헌로 16,37.46246166,127.0369353
94,3027,24948737,소매,종합소매점,편의점,서울특별시 동대문구 장안동 192-75,서울특별시 동대문구 한천로 60,37.56696471,127.0625437
95,3199,11717998,소매,종합소매점,편의점,서울특별시 송파구 잠실동 40-1,서울특별시 송파구 올림픽로 240,37.51130447,127.0981244
96,3349,23187481,소매,종합소매점,편의점,서울특별시 양천구 신정동 899-5,서울특별시 양천구 목동로 219,37.52793446,126.8638088
97,3379,28520999,소매,종합소매점,편의점,서울특별시 양천구 목동 916,서울특별시 양천구 목동동로 257,37.52714654,126.8746818
98,3431,10332399,소매,종합소매점,편의점,서울특별시 마포구 상암동 1655,서울특별시 마포구 상암산로1길 24,37.57765307,126.8893189
99,3441,23515708,소매,종합소매점,편의점,서울특별시 송파구 문정동 76-1,서울특별시 송파구 새말로8길 27,37.48025407,127.126934
100,3535,23469951,소매,종합소매점,편의점,서울특별시 양천구 목동 719-27,서울특별시 양천구 목동중앙남로11길 26,37.53934831,126.8645069
101,3552,20022144,소매,종합소매점,편의점,서울특별시 은평구 역촌동 8-15,서울특별시 은평구 연서로 110,37.6088163,126.9160831
102,3558,28518666,소매,종합소매점,편의점,서울특별시 영등포구 영등포동4가 434-5,서울특별시 영등포구 영중로 9,37.51718283,126.9055549
103,3577,28524735,소매,종합소매점,편의점,서울특별시 영등포구 양평동5가 76,서울특별시 영등포구 양평로24길 9,37.54027372,126.8917293
104,3598,20027620,소매,종합소매점,편의점,서울특별시 강남구 대치동 889-52,서울특별시 강남구 선릉로90길 16,37.50411119,127.0506175
105,3668,24775570,소매,종합소매점,편의점,서울특별시 노원구 월계동 447-1,서울특별시 노원구 광운로 20,37.619317,127.0582279
106,3686,28524811,소매,종합소매점,편의점,서울특별시 송파구 마천동 178-85,서울특별시 송파구 마천로51길 22,37.49663856,127.1521097
107,3707,28507486,소매,종합소매점,편의점,서울특별시 동작구 신대방동 395,서울특별시 동작구 보라매로5길 28,37.49386768,126.9226432
108,3746,20618127,소매,종합소매점,편의점,서울특별시 관악구 신림동 515-1,서울특별시 관악구 난곡로74길 22,37.48592247,126.9149892
109,3775,20602883,소매,종합소매점,편의점,서울특별시 관악구 봉천동 911-1,서울특별시 관악구 양녕로1길 19,37.48346631,126.9452483
110,3855,28524865,소매,종합소매점,편의점,서울특별시 양천구 목동 916,서울특별시 양천구 목동동로 257,37.52714654,126.8746818
111,3860,24583764,소매,종합소매점,편의점,서울특별시 마포구 아현동 798,서울특별시 마포구 마포대로24길 5,37.55438584,126.9582382
112,3871,26281042,소매,종합소매점,편의점,서울특별시 강남구 도곡동 467,서울특별시 강남구 언주로30길 56,37.48805919,127.0534667
113,3914,28519830,소매,종합소매점,편의점,서울특별시 영등포구 영등포동4가 434-5,서울특별시 영등포구 영중로 9,37.51718283,126.9055549
114,3969,28523020,소매,종합소매점,편의점,서울특별시 강북구 우이동 16-6,서울특별시 강북구 삼양로 675,37.66296592,127.0122943
115,3988,28519442,소매,종합소매점,편의점,서울특별시 성북구 길음동 20-1,서울특별시 성북구 동소문로 315,37.60839154,127.0287256
116,3998,28522000,소매,종합소매점,편의점,서울특별시 영등포구 여의도동 26-1,서울특별시 영등포구 국제금융로2길 37,37.52293226,126.924273
117,4021,28522896,소매,종합소매점,편의점,서울특별시 동작구 신대방동 691-36,서울특별시 동작구 신대방길 19,37.48786368,126.9115009
118,4043,28518599,소매,종합소매점,편의점,서울특별시 성북구 길음동 1286-10,서울특별시 성북구 길음로7길 6,37.60432042,127.0223683
119,4050,24599098,소매,종합소매점,편의점,서울특별시 구로구 신도림동 338,서울특별시 구로구 경인로67길 23,37.5106508,126.889204
120,4064,24770084,소매,종합소매점,편의점,서울특별시 구로구 천왕동 174,서울특별시 구로구 천왕로1길 60,37.48262978,126.8341818
121,4065,24781709,소매,종합소매점,편의점,서울특별시 마포구 상암동 115-11,서울특별시 마포구 월드컵북로 347,37.57633796,126.8931989
122,4068,28519368,소매,종합소매점,편의점,서울특별시 성북구 길음동 20-1,서울특별시 성북구 동소문로 315,37.60839154,127.0287256
123,4129,24472857,소매,종합소매점,편의점,서울특별시 종로구 안국동 148,서울특별시 종로구 율곡로 53,37.5765873,126.9851109
124,4186,25828686,소매,종합소매점,편의점,서울특별시 영등포구 영등포동4가 442,서울특별시 영등포구 영중로 15,37.51721267,126.9039142
125,4228,28521593,소매,종합소매점,편의점,서울특별시 서초구 양재동 215,서울특별시 서초구 매헌로 16,37.46246166,127.0369353
126,4252,28518524,소매,종합소매점,편의점,서울특별시 성북구 안암동5가 1-2,서울특별시 성북구 인촌로 105,37.58648758,127.0309577
127,4313,28518881,소매,종합소매점,편의점,서울특별시 양천구 신월동 428-3,서울특별시 양천구 월정로 47,37.52400836,126.8417967
128,4327,25868414,소매,종합소매점,편의점,서울특별시 광진구 자양동 216-26,서울특별시 광진구 아차산로 370,37.53644365,127.0840399
129,4329,26281317,소매,종합소매점,편의점,서울특별시 강남구 청담동 5,서울특별시 강남구 도산대로 446,37.52358308,127.0450423
130,4358,9174838,소매,종합소매점,편의점,서울특별시 마포구 연남동 567-11,서울특별시 마포구 월드컵북로6길 69,37.5597257,126.9217409
131,4435,4964645,소매,종합소매점,편의점,서울특별시 중랑구 면목동 185-9,서울특별시 중랑구 중랑천로10길 66,37.59234997,127.0766176
132,4451,24612010,소매,종합소매점,편의점,서울특별시 성동구 행당동 322-127,서울특별시 성동구 행당로 104-1,37.55750545,127.0304051
133,4507,28515411,소매,종합소매점,편의점,서울특별시 강남구 역삼동 674-28,서울특별시 강남구 테헤란로39길 27,37.50427616,127.0409225
134,4533,25829805,소매,종합소매점,편의점,서울특별시 구로구 구로동 235-2,서울특별시 구로구 디지털로26길 5,37.48160507,126.8934671
135,4536,28524181,소매,종합소매점,편의점,서울특별시 강서구 내발산동 751,서울특별시 강서구 수명로1길 110,37.55185198,126.824639
136,4614,28511498,소매,종합소매점,편의점,서울특별시 마포구 서교동 490,서울특별시 마포구 양화로 45,37.55149077,126.9139374
137,4630,28518568,소매,종합소매점,편의점,서울특별시 영등포구 영등포동4가 434-5,서울특별시 영등포구 영중로 9,37.51718283,126.9055549
138,4656,7596780,소매,종합소매점,편의점,서울특별시 서초구 반포동 20-45,서울특별시 서초구 잠원로 24,37.50711049,127.0098611
139,4663,26003560,소매,종합소매점,편의점,서울특별시 송파구 가락동 144-20,서울특별시 송파구 송이로23길 18,37.49582882,127.1250903
140,4664,26001088,소매,종합소매점,편의점,서울특별시 용산구 동자동 12,서울특별시 용산구 후암로 107,37.55348367,126.9735408
141,4678,28520935,소매,종합소매점,편의점,서울특별시 양천구 목동 905-33,서울특별시 양천구 목동서로 133-4,37.53181804,126.8760598
142,4683,26281182,소매,종합소매점,편의점,서울특별시 관악구 신림동 566-8,서울특별시 관악구 남부순환로 1403,37.48060886,126.906473
143,4710,25886800,소매,종합소매점,편의점,서울특별시 노원구 상계동 1068,서울특별시 노원구 동일로231길 72,37.67223673,127.0517216
144,4718,28522498,소매,종합소매점,편의점,서울특별시 광진구 구의동 235-11,서울특별시 광진구 광나루로36길 28,37.54370566,127.0863048
145,4791,28524388,소매,종합소매점,편의점,서울특별시 중구 소공동 1,서울특별시 중구 을지로 30,37.56533379,126.9809849
146,4900,25805290,소매,종합소매점,편의점,서울특별시 강동구 암사동 452,서울특별시 강동구 고덕로 96,37.55450332,127.1357793
147,4911,24344033,소매,종합소매점,편의점,서울특별시 노원구 중계동 506,서울특별시 노원구 동일로203가길 29,37.63991755,127.0642452
148,4937,20864547,소매,종합소매점,편의점,서울특별시 광진구 중곡동 58-27,서울특별시 광진구 긴고랑로 115,37.55929728,127.0879141
149,4946,22605244,소매,종합소매점,편의점,서울특별시 강남구 역삼동 828-23,서울특별시 강남구 논현로85길 57,37.49771838,127.0334179
150,5078,24404575,소매,종합소매점,편의점,서울특별시 중랑구 묵동 235-100,서울특별시 중랑구 중랑역로 235-1,37.61451247,127.0750637
151,5085,6130339,소매,종합소매점,편의점,서울특별시 성북구 장위동 231-221,서울특별시 성북구 장위로 12,37.6130925,127.0383261
152,5121,26286664,소매,종합소매점,편의점,서울특별시 마포구 아현동 733,서울특별시 마포구 마포대로 208,37.55250823,126.956827
153,5142,28520804,소매,종합소매점,편의점,서울특별시 양천구 목동 916,서울특별시 양천구 목동동로 257,37.52714654,126.8746818
154,5173,28522262,소매,종합소매점,편의점,서울특별시 노원구 공릉동 421-16,서울특별시 노원구 공릉로48길 20,37.62755042,127.0796603
155,5211,24483116,소매,종합소매점,편의점,서울특별시 서초구 서초동 1303-16,서울특별시 서초구 서초대로77길 62,37.50272196,127.0238869
156,5236,7089397,소매,종합소매점,편의점,서울특별시 노원구 공릉동 172,서울특별시 노원구 공릉로 232,37.63306923,127.0767711
157,5253,28524774,소매,종합소매점,편의점,서울특별시 동대문구 전농동 621-2,서울특별시 동대문구 답십리로 3,37.57893642,127.0430564
158,5272,9174347,소매,종합소매점,편의점,서울특별시 중랑구 면목동 527-35,서울특별시 중랑구 용마산로 308,37.57957893,127.0924672
159,5438,28521068,소매,종합소매점,편의점,서울특별시 영등포구 영등포동 618-496,서울특별시 영등포구 경인로 846,37.51566141,126.9076472
160,5454,28520233,소매,종합소매점,편의점,서울특별시 성북구 길음동 20-1,서울특별시 성북구 동소문로 315,37.60839154,127.0287256
161,5515,6336749,소매,종합소매점,편의점,서울특별시 강남구 역삼동 800,서울특별시 강남구 봉은사로 102,37.5046235,127.0250158
162,5519,24414439,소매,종합소매점,편의점,서울특별시 강동구 둔촌동 6-2,서울특별시 강동구 진황도로61길 53,37.52846088,127.1479142
163,5560,25878536,소매,종합소매점,편의점,서울특별시 금천구 독산동 1116,서울특별시 금천구 금하로1마길 16,37.45298756,126.890566
164,5561,25888954,소매,종합소매점,편의점,서울특별시 영등포구 여의도동 48-1,서울특별시 영등포구 의사당대로 154,37.51767211,126.9274594
165,5582,6860578,소매,종합소매점,편의점,서울특별시 강서구 마곡동 784,서울특별시 강서구 강서로 455,37.56623319,126.8402037
166,5616,28518271,소매,종합소매점,편의점,서울특별시 중구 남대문로5가 395,서울특별시 중구 소월로 50,37.5554468,126.9754832
167,5618,15479838,소매,종합소매점,편의점,서울특별시 성동구 도선동 285-1,서울특별시 성동구 왕십리로26길 1,37.56336097,127.0324459
168,5635,6350331,소매,종합소매점,편의점,서울특별시 송파구 잠실동 1-2,서울특별시 송파구 백제고분로 2,37.51920175,127.0764903
169,5711,28517026,소매,종합소매점,편의점,서울특별시 관악구 봉천동 1527-20,서울특별시 관악구 남부순환로206길 33-5,37.48102289,126.9420489
170,5733,20740983,소매,종합소매점,편의점,서울특별시 중구 남대문로5가 84-11,서울특별시 중구 통일로 10,37.5570885,126.9736159
171,5747,16095788,소매,종합소매점,편의점,서울특별시 동작구 사당동 175-25,서울특별시 동작구 사당로23길 181,37.49016945,126.9707102
172,5806,24903880,소매,종합소매점,편의점,서울특별시 강남구 청담동 132-19,서울특별시 강남구 영동대로 708,37.52104907,127.0571227
173,5860,28520106,소매,종합소매점,편의점,서울특별시 중랑구 상봉동 500,서울특별시 중랑구 망우로 353,37.59832307,127.0916054
174,5874,22635465,소매,종합소매점,편의점,서울특별시 강남구 삼성동 152-55,서울특별시 강남구 삼성로104길 18,37.51099519,127.0562312
175,5893,26280001,소매,종합소매점,편의점,서울특별시 성동구 용답동 238-2,서울특별시 성동구 자동차시장1길 94-15,37.55961111,127.0681027
176,6012,25525490,소매,종합소매점,편의점,서울특별시 서초구 양재동 274-1,서울특별시 서초구 마방로10길 22,37.47633113,127.0438575
177,6088,6885400,소매,종합소매점,편의점,서울특별시 마포구 서교동 459-1,서울특별시 마포구 잔다리로 96,37.55578355,126.9153351
178,6095,11719625,소매,종합소매점,편의점,서울특별시 강서구 마곡동 784-13,서울특별시 강서구 강서로 423,37.56349459,126.8393406
179,6112,9174834,소매,종합소매점,편의점,서울특별시 강남구 역삼동 608-12,서울특별시 강남구 봉은사로26길 26,37.50543328,127.0336464
180,6285,26001125,소매,종합소매점,편의점,서울특별시 은평구 대조동 89-280,서울특별시 은평구 서오릉로 100,37.60892337,126.9208838
181,6286,9174885,소매,종합소매점,편의점,서울특별시 구로구 온수동 5-1,서울특별시 구로구 부일로9길 87,37.49611845,126.82419
182,6287,26002167,소매,종합소매점,편의점,서울특별시 동대문구 용두동 112-8,서울특별시 동대문구 왕산로 72,37.57773279,127.0313656
183,6342,28520688,소매,종합소매점,편의점,서울특별시 강남구 삼성동 140-3,서울특별시 강남구 선릉로 524,37.50664308,127.0483685
184,6355,16099383,소매,종합소매점,편의점,서울특별시 강동구 상일동 500,서울특별시 강동구 상일로6길 26,37.54881202,127.1753075
185,6405,25881676,소매,종합소매점,편의점,서울특별시 동대문구 장안동 306-3,서울특별시 동대문구 장한로 147,37.57346796,127.0713716
186,6437,24300058,소매,종합소매점,편의점,서울특별시 중랑구 망우동 183,서울특별시 중랑구 양원역로 25,37.60266216,127.107623
187,6458,24039019,소매,종합소매점,편의점,서울특별시 서초구 반포동 722-38,서울특별시 서초구 강남대로 521-4,37.50851957,127.0221714
188,6483,16106468,소매,종합소매점,편의점,서울특별시 양천구 신월동 491-8,서울특별시 양천구 오목로 71,37.52301799,126.8455565
189,6544,22648127,소매,종합소매점,편의점,서울특별시 관악구 봉천동 1679-10,서울특별시 관악구 남부순환로237길 3,37.47884824,126.9599662
190,6565,16168261,소매,종합소매점,편의점,서울특별시 마포구 상암동 1648,서울특별시 마포구 매봉산로 31,37.57571286,126.889959
191,6658,28516218,소매,종합소매점,편의점,서울특별시 강남구 압구정동 494,서울특별시 강남구 압구정로 343,37.52849864,127.0400807
192,6705,24373385,소매,종합소매점,편의점,서울특별시 동작구 신대방동 395-69,서울특별시 동작구 보라매로5가길 16,37.49132182,126.924082
193,6836,24511079,소매,종합소매점,편의점,서울특별시 양천구 신정동 1014-5,서울특별시 양천구 은행정로4길 25,37.52150726,126.8625827
194,6875,20524658,소매,종합소매점,편의점,서울특별시 용산구 이태원동 20-5,서울특별시 용산구 우사단로4길 1,37.53149915,126.9967197
195,6881,14974657,소매,종합소매점,편의점,서울특별시 강서구 내발산동 697-6,서울특별시 강서구 강서로47다길 20,37.55197291,126.8341097
196,6904,9174198,소매,종합소매점,편의점,서울특별시 관악구 남현동 1053-39,서울특별시 관악구 남부순환로260길 84,37.47298446,126.9725625
197,6905,26002547,소매,종합소매점,편의점,서울특별시 영등포구 당산동 376,서울특별시 영등포구 버드나루로 130,37.53055887,126.9079957
198,6906,26003806,소매,종합소매점,편의점,서울특별시 강서구 등촌동 512-7,서울특별시 강서구 등촌로39길 6,37.54557739,126.8620021
199,6907,9174463,소매,종합소매점,편의점,서울특별시 은평구 불광동 422-4,서울특별시 은평구 연서로 289,37.62163957,126.9261147
200,6908,26003686,소매,종합소매점,편의점,서울특별시 마포구 상수동 396,서울특별시 마포구 독막로 98,37.54746762,126.9242713
201,6942,20786660,소매,종합소매점,편의점,서울특별시 양천구 신정동 945-1,서울특별시 양천구 오목로 136,37.52425641,126.8524384
202,7063,26003131,소매,종합소매점,편의점,서울특별시 동대문구 휘경동 312-11,서울특별시 동대문구 전농로38길 89,37.58789961,127.0562121
203,7101,28523000,소매,종합소매점,편의점,서울특별시 강북구 미아동 83-1,서울특별시 강북구 오패산로30길 21-4,37.61437708,127.0345377
204,7109,24469979,소매,종합소매점,편의점,서울특별시 용산구 청파동1가 89-152,서울특별시 용산구 효창원로94길 27,37.54821882,126.964967
205,7153,28522261,소매,종합소매점,편의점,서울특별시 마포구 상암동 1748,서울특별시 마포구 월드컵북로 481,37.58336687,126.880867
206,7155,24506709,소매,종합소매점,편의점,서울특별시 용산구 서빙고동 293,서울특별시 용산구 서빙고로51길 64,37.52320664,126.9910951
207,7210,22724520,소매,종합소매점,편의점,서울특별시 강서구 화곡동 348-30,서울특별시 강서구 강서로 57,37.53281399,126.8457337
208,7245,9181553,소매,종합소매점,편의점,서울특별시 종로구 명륜3가 53,서울특별시 종로구 성균관로 25-1,37.5858274,126.9951078
209,7256,9174099,소매,종합소매점,편의점,서울특별시 광진구 화양동 19-38,서울특별시 광진구 동일로30길 28,37.54747972,127.0688309
210,7277,28523990,소매,종합소매점,편의점,서울특별시 강남구 압구정동 429,서울특별시 강남구 압구정로 165,37.52735907,127.0274466
211,7286,24584351,소매,종합소매점,편의점,서울특별시 관악구 봉천동 1633-21,서울특별시 관악구 남부순환로246길 30,37.47529794,126.9640515
212,7492,28524416,소매,종합소매점,편의점,서울특별시 성북구 동소문동2가 43,서울특별시 성북구 동소문로6길 8,37.58877539,127.0080783
213,7496,28521530,소매,종합소매점,편의점,서울특별시 양천구 목동 916,서울특별시 양천구 목동동로 257,37.52714654,126.8746818
214,7516,23954907,소매,종합소매점,편의점,서울특별시 용산구 한강로2가 2-196,서울특별시 용산구 새창로 213,37.53046119,126.967249
215,7549,14974496,소매,종합소매점,편의점,서울특별시 금천구 독산동 1075-23,서울특별시 금천구 시흥대로80길 17,37.45909138,126.9006035
216,7555,20762263,소매,종합소매점,편의점,서울특별시 강서구 화곡동 1095,서울특별시 강서구 화곡로 347,37.55482629,126.8512794
217,7589,28509074,소매,종합소매점,편의점,서울특별시 마포구 상암동 1603,서울특별시 마포구 성암로 267,37.5811105,126.8909658
218,7618,28520323,소매,종합소매점,편의점,서울특별시 성북구 길음동 20-1,서울특별시 성북구 동소문로 315,37.60839154,127.0287256
219,7641,25139084,소매,종합소매점,편의점,서울특별시 동대문구 장안동 414-4,서울특별시 동대문구 천호대로 377,37.56232984,127.0609718
220,7644,25879131,소매,종합소매점,편의점,서울특별시 양천구 신정동 872-5,서울특별시 양천구 국회대로 170,37.52810096,126.8539974
221,7663,9174284,소매,종합소매점,편의점,서울특별시 중구 장충동2가 193-239,서울특별시 중구 동호로25길 3,37.55891421,127.0026566
222,7671,28520538,소매,종합소매점,편의점,서울특별시 강남구 압구정동 429,서울특별시 강남구 압구정로 165,37.52735907,127.0274466
223,7750,21948149,소매,종합소매점,편의점,서울특별시 마포구 서교동 369-5,서울특별시 마포구 잔다리로6길 39,37.55243282,126.9213593
224,7753,24645626,소매,종합소매점,편의점,서울특별시 광진구 중곡동 30-1,서울특별시 광진구 능동로 398,37.56531388,127.0864372
225,7772,26002956,소매,종합소매점,편의점,서울특별시 송파구 거여동 554-1,서울특별시 송파구 오금로 476,37.49409514,127.1417909
226,7773,26002315,소매,종합소매점,편의점,서울특별시 관악구 신림동 612-40,서울특별시 관악구 법원단지길 48,37.47412992,126.9201454
227,7774,9174744,소매,종합소매점,편의점,서울특별시 서대문구 창천동 29-74,서울특별시 서대문구 연세로2길 30,37.55614756,126.9385317
228,7945,28522038,소매,종합소매점,편의점,서울특별시 은평구 갈현동 506-43,서울특별시 은평구 갈현로 207,37.61588344,126.9134773
229,7959,5211609,소매,종합소매점,편의점,서울특별시 용산구 원효로2가 61-7,서울특별시 용산구 원효로58길 28,37.53496821,126.9633398
230,8119,28521499,소매,종합소매점,편의점,서울특별시 양천구 목동 916,서울특별시 양천구 목동동로 257,37.52714654,126.8746818
231,8138,16098924,소매,종합소매점,편의점,서울특별시 강동구 길동 371-19,서울특별시 강동구 천중로 168,37.54096368,127.1386853
232,8215,14974733,소매,종합소매점,편의점,서울특별시 영등포구 영등포동5가 18-1,서울특별시 영등포구 영등포로 225,37.51991398,126.906635
233,8220,24528231,소매,종합소매점,편의점,서울특별시 강동구 천호동 155-7,서울특별시 강동구 성안로 163,37.5377489,127.1352598
234,8427,2906679,소매,종합소매점,편의점,서울특별시 강동구 길동 144-7,서울특별시 강동구 천호대로193길 40,37.53684841,127.1452389
235,8499,28522479,소매,종합소매점,편의점,서울특별시 종로구 숭인동 53-21,서울특별시 종로구 지봉로 92,37.57823243,127.0155205
236,8582,28516783,소매,종합소매점,편의점,서울특별시 성동구 행당동 346,서울특별시 성동구 행당로 82,37.55477747,127.0273846
237,8666,15479511,소매,종합소매점,편의점,서울특별시 금천구 독산동 1071,서울특별시 금천구 시흥대로84마길 21,37.46223941,126.9009644
238,8747,24600042,소매,종합소매점,편의점,서울특별시 관악구 봉천동 945-1,서울특별시 관악구 남부순환로 1702,37.4831684,126.9391467
239,8774,5623636,소매,종합소매점,편의점,서울특별시 동대문구 신설동 98-15,서울특별시 동대문구 왕산로2길 19,37.57548528,127.0254172
240,8775,25885523,소매,종합소매점,편의점,서울특별시 영등포구 신길동 4937,서울특별시 영등포구 신길로 119,37.50349817,126.9096906
241,8782,26002481,소매,종합소매점,편의점,서울특별시 양천구 신월동 457-13,서울특별시 양천구 중앙로55길 28,37.52640444,126.8463302
242,8800,23370224,소매,종합소매점,편의점,서울특별시 양천구 신월동 136-8,서울특별시 양천구 남부순환로59길 3,37.53206198,126.8315685
243,8808,24529040,소매,종합소매점,편의점,서울특별시 광진구 화양동 7-5,서울특별시 광진구 아차산로29길 8,37.54124033,127.0683088
244,8866,22561272,소매,종합소매점,편의점,서울특별시 영등포구 문래동3가 83-3,서울특별시 영등포구 문래로 77,37.51989912,126.8905489
245,8871,25842271,소매,종합소매점,편의점,서울특별시 노원구 공릉동 617-7,서울특별시 노원구 동일로 992,37.61879608,127.0755317
246,8887,24331100,소매,종합소매점,편의점,서울특별시 중랑구 면목동 618-1,서울특별시 중랑구 면목로42길 14,37.57982963,127.0887506
247,8900,23501075,소매,종합소매점,편의점,서울특별시 서초구 반포동 90-1,서울특별시 서초구 서래로6길 4,37.49768859,126.9984728
248,8922,5896447,소매,종합소매점,편의점,서울특별시 마포구 상암동 1590,서울특별시 마포구 월드컵북로 434,37.58161368,126.8860333
249,8924,24799519,소매,종합소매점,편의점,서울특별시 영등포구 영등포동3가 17-6,서울특별시 영등포구 영중로8길 17,37.51837246,126.9075285
250,8962,22566492,소매,종합소매점,편의점,서울특별시 은평구 불광동 638-1,서울특별시 은평구 진흥로 267-16,37.61160793,126.9377099
251,8974,28521638,소매,종합소매점,편의점,서울특별시 영등포구 영등포동4가 434-5,서울특별시 영등포구 영중로 9,37.51718283,126.9055549
252,8978,5925159,소매,종합소매점,편의점,서울특별시 금천구 독산동 149-51,서울특별시 금천구 시흥대로139길 14,37.47299033,126.8972458
253,9006,5694825,소매,종합소매점,편의점,서울특별시 강북구 수유동 518-91,서울특별시 강북구 인수봉로55길 30,37.6368353,127.0111334
254,9008,26284935,소매,종합소매점,편의점,서울특별시 강남구 역삼동 722,서울특별시 강남구 언주로85길 13,37.50053862,127.0422596
255,9046,16106676,소매,종합소매점,편의점,서울특별시 서초구 우면동 766,서울특별시 서초구 양재대로2길 116-6,37.45647264,127.0154346
256,9057,6097603,소매,종합소매점,편의점,서울특별시 동작구 상도동 531,서울특별시 동작구 상도로 346-1,37.49677779,126.9516542
257,9068,9181573,소매,종합소매점,편의점,서울특별시 서대문구 창천동 119,서울특별시 서대문구 신촌로1길 111,37.56098088,126.9309588
258,9076,5193269,소매,종합소매점,편의점,서울특별시 송파구 잠실동 199,서울특별시 송파구 백제고분로9길 14,37.50932294,127.0806953
259,9088,22547924,소매,종합소매점,편의점,서울특별시 강북구 미아동 125-40,서울특별시 강북구 도봉로46길 9,37.6246807,127.0274374
260,9099,28521868,소매,종합소매점,편의점,서울특별시 성북구 하월곡동 46-73,서울특별시 성북구 화랑로 76,37.60181969,127.0404418
261,9112,4912420,소매,종합소매점,편의점,서울특별시 금천구 시흥동 879-21,서울특별시 금천구 금하로 633,37.45493718,126.9015347
262,9140,5029157,소매,종합소매점,편의점,서울특별시 강북구 미아동 328-22,서울특별시 강북구 솔샘로 297,37.61823117,127.0254825
263,9168,16098527,소매,종합소매점,편의점,서울특별시 강서구 내발산동 723-9,서울특별시 강서구 강서로 251,37.54811715,126.836003
264,9178,22552276,소매,종합소매점,편의점,서울특별시 동작구 노량진동 72-3,서울특별시 동작구 노량진로 148-3,37.51340048,126.9423725
265,9188,28523545,소매,종합소매점,편의점,서울특별시 동대문구 전농동 648-118,서울특별시 동대문구 서울시립대로4길 27,37.57428365,127.0482103
266,9192,4864716,소매,종합소매점,편의점,서울특별시 영등포구 영등포동7가 75-3,서울특별시 영등포구 영중로 98-7,37.52486287,126.9058952
267,9210,21571915,소매,종합소매점,편의점,서울특별시 송파구 삼전동 131-5,서울특별시 송파구 삼학사로 81,37.50442,127.0968952
268,9231,22800022,소매,종합소매점,편의점,서울특별시 강동구 명일동 329-10,서울특별시 강동구 구천면로 456,37.54911973,127.1488335
269,9236,16095516,소매,종합소매점,편의점,서울특별시 중랑구 신내동 657,서울특별시 중랑구 신내로 127,37.61086048,127.0956323
270,9307,9160435,소매,종합소매점,편의점,서울특별시 종로구 명륜1가 31-3,서울특별시 종로구 혜화로 47,37.58966196,126.9988948
271,9348,9159954,소매,종합소매점,편의점,서울특별시 서대문구 현저동 201,서울특별시 서대문구 독립문공원길 95,37.572941,126.9544704
272,9358,4818788,소매,종합소매점,편의점,서울특별시 강남구 수서동 726,서울특별시 강남구 광평로56길 10,37.48706374,127.1037531
273,9376,26279766,소매,종합소매점,편의점,서울특별시 강남구 논현동 272-31,서울특별시 강남구 봉은사로43길 14,37.51020596,127.0399191
274,9377,26283264,소매,종합소매점,편의점,서울특별시 강서구 방화동 585-4,서울특별시 강서구 초원로 30,37.56757466,126.8084314
275,9402,16173297,소매,종합소매점,편의점,서울특별시 강서구 등촌동 75-1,서울특별시 강서구 양천로 482,37.56124918,126.8539086
276,9445,28507760,소매,종합소매점,편의점,서울특별시 종로구 안국동 155-2,서울특별시 종로구 율곡로 62,37.57671036,126.9857999
277,9452,5446921,소매,종합소매점,편의점,서울특별시 서대문구 북가좌동 342-14,서울특별시 서대문구 증가로 264,37.58406484,126.9111773
278,9461,16099438,소매,종합소매점,편의점,서울특별시 성동구 송정동 66-49,서울특별시 성동구 광나루로11길 4,37.54862558,127.0656026
279,9505,28519765,소매,종합소매점,편의점,서울특별시 양천구 목동 916,서울특별시 양천구 목동동로 257,37.52714654,126.8746818
280,9529,25800872,소매,종합소매점,편의점,서울특별시 중구 필동3가 19-1,서울특별시 중구 서애로1길 20,37.56079433,126.9991001
281,9535,26001231,소매,종합소매점,편의점,서울특별시 동대문구 장안동 443-13,서울특별시 동대문구 천호대로93길 41,37.56327544,127.0700153
282,9572,25627492,소매,종합소매점,편의점,서울특별시 영등포구 문래동6가 54,서울특별시 영등포구 문래로8길 5,37.51986907,126.8863976
283,9575,4934672,소매,종합소매점,편의점,서울특별시 광진구 구의동 246-14,서울특별시 광진구 아차산로 375,37.53704083,127.0843607
284,9631,25848812,소매,종합소매점,편의점,서울특별시 서초구 방배동 767-26,서울특별시 서초구 동광로3길 70,37.49405567,126.9845551
285,9693,16166925,소매,종합소매점,편의점,서울특별시 용산구 한남동 96-3,서울특별시 용산구 독서당로 39,37.53154216,127.0071396
286,9694,16166195,소매,종합소매점,편의점,서울특별시 구로구 구로동 1130-1,서울특별시 구로구 시흥대로163길 15,37.48150514,126.8991672
287,9840,28520981,소매,종합소매점,편의점,서울특별시 서초구 반포동 549-26,서울특별시 서초구 반포대로39길 56-14,37.49842867,127.0018105
288,9945,20415712,소매,종합소매점,편의점,서울특별시 성동구 금호동2가 464,서울특별시 성동구 무수막길 89,37.55367211,127.0201104
289,9946,20747625,소매,종합소매점,편의점,서울특별시 동대문구 장안동 192-75,서울특별시 동대문구 한천로 60,37.56696471,127.0625437
290,9960,16163856,소매,종합소매점,편의점,서울특별시 동대문구 휘경동 43-184,서울특별시 동대문구 한천로 279,37.58582443,127.0671986
291,10039,24414442,소매,종합소매점,편의점,서울특별시 성동구 성수동1가 685-697,서울특별시 성동구 왕십리로 89,37.5458307,127.0440117
292,10051,16130228,소매,종합소매점,편의점,서울특별시 양천구 신월동 109-1,서울특별시 양천구 월정로31길 27,37.53341617,126.8327467
293,10163,28519656,소매,종합소매점,편의점,서울특별시 은평구 갈현동 456-6,서울특별시 은평구 연서로29길 7,37.61865868,126.9193724
294,10167,23912344,소매,종합소매점,편의점,서울특별시 금천구 가산동 345-4,서울특별시 금천구 가산디지털1로 84,37.47343012,126.8855382
295,10174,11709891,소매,종합소매점,편의점,서울특별시 성동구 금호동2가 1217,서울특별시 성동구 금호로 107,37.55222003,127.0242942
296,10190,20438818,소매,종합소매점,편의점,서울특별시 영등포구 대림동 784,서울특별시 영등포구 대림로 251,37.50301972,126.8960125
297,10238,24039025,소매,종합소매점,편의점,서울특별시 성동구 행당동 317-63,서울특별시 성동구 행당로 121,37.55833246,127.0323638
298,10389,24445731,소매,종합소매점,편의점,서울특별시 노원구 상계동 617,서울특별시 노원구 상계로 64,37.655787,127.0622554
299,10473,24034487,소매,종합소매점,편의점,서울특별시 서초구 양재동 249-4,서울특별시 서초구 마방로 12,37.47386027,127.0402825
300,10550,20914642,소매,종합소매점,편의점,서울특별시 노원구 중계동 27-17,서울특별시 노원구 중계로4길 30,37.64364882,127.0850481
301,10554,24253993,소매,종합소매점,편의점,서울특별시 강북구 번동 433-53,서울특별시 강북구 덕릉로44길 14,37.63464344,127.0325874
302,10736,23413687,소매,종합소매점,편의점,서울특별시 양천구 신월동 62-4,서울특별시 양천구 월정로 227,37.53851804,126.8329501
303,10754,16119261,소매,종합소매점,편의점,서울특별시 강남구 도곡동 412-7,서울특별시 강남구 논현로38길 22,37.48521108,127.0433034
304,10784,16118516,소매,종합소매점,편의점,서울특별시 동작구 상도동 361-109,서울특별시 동작구 상도로15마길 10,37.50319887,126.9341584
305,10808,28518130,소매,종합소매점,편의점,서울특별시 송파구 신천동 29,서울특별시 송파구 올림픽로 300,37.51363101,127.1042839
306,10816,28522643,소매,종합소매점,편의점,서울특별시 종로구 관훈동 198-20,서울특별시 종로구 인사동7길 37,37.5726281,126.9846892
307,10819,22543858,소매,종합소매점,편의점,서울특별시 송파구 잠실동 189,서울특별시 송파구 백제고분로7길 30,37.51066798,127.0821719
308,10832,25736605,소매,종합소매점,편의점,서울특별시 강남구 역삼동 836-1,서울특별시 강남구 도곡로3길 22,37.4916044,127.0328295
309,10890,22055967,소매,종합소매점,편의점,서울특별시 도봉구 창동 658-48,서울특별시 도봉구 도봉로110나길 48,37.64816538,127.0355736
310,10937,28508909,소매,종합소매점,편의점,서울특별시 강남구 대치동 891-10,서울특별시 강남구 테헤란로 432,37.50576621,127.0547475
311,10988,28523238,소매,종합소매점,편의점,서울특별시 강남구 삼성동 168-12,서울특별시 강남구 테헤란로 607,37.50950708,127.0639866
312,11017,28523532,소매,종합소매점,편의점,서울특별시 도봉구 방학동 646-44,서울특별시 도봉구 도당로27길 43,37.66930114,127.0407978
313,11070,22517967,소매,종합소매점,편의점,서울특별시 관악구 신림동 531-11,서울특별시 관악구 조원로22길 36,37.48307943,126.9134925
314,11138,16115907,소매,종합소매점,편의점,서울특별시 동대문구 장안동 327-11,서울특별시 동대문구 답십리로69길 111,37.57738108,127.0739948
315,11153,5066356,소매,종합소매점,편의점,서울특별시 관악구 봉천동 1566-24,서울특별시 관악구 쑥고개로 99,37.47929822,126.9476925
316,11328,25860100,소매,종합소매점,편의점,서울특별시 서초구 서초동 1580-1,서울특별시 서초구 사임당로1길 10,37.48788506,127.0113023
317,11355,20497905,소매,종합소매점,편의점,서울특별시 동대문구 이문동 335-11,서울특별시 동대문구 이문로13길 12,37.59389441,127.0576991
318,11401,28510936,소매,종합소매점,편의점,서울특별시 강남구 세곡동 579,서울특별시 강남구 헌릉로571길 20,37.46709249,127.1020811
319,11487,28521878,소매,종합소매점,편의점,서울특별시 서대문구 창천동 30-33,서울특별시 서대문구 신촌로 83,37.55606915,126.9358278
320,11489,22559545,소매,종합소매점,편의점,서울특별시 서초구 우면동 720,서울특별시 서초구 태봉로2길 65,37.46411818,127.0257681
321,11525,25874779,소매,종합소매점,편의점,서울특별시 중구 신당동 340-128,서울특별시 중구 다산로20길 5,37.55740249,127.0125462
322,11629,24083110,소매,종합소매점,편의점,서울특별시 서초구 방배동 817-37,서울특별시 서초구 방배로31길 46,37.49020236,126.9891305
323,11632,16115774,소매,종합소매점,편의점,서울특별시 마포구 망원동 404-7,서울특별시 마포구 망원로6길 49,37.55475917,126.9039304
324,11672,20754733,소매,종합소매점,편의점,서울특별시 강남구 청담동 131-2,서울특별시 강남구 영동대로142길 8,37.52397744,127.0559884
325,11699,22730150,소매,종합소매점,편의점,서울특별시 노원구 상계동 1132-9,서울특별시 노원구 동일로 1662,37.67761805,127.0553601
326,11822,25625414,소매,종합소매점,편의점,서울특별시 강북구 미아동 55-19,서울특별시 강북구 도봉로10가길 11,37.6131155,127.031224
327,11825,28523721,소매,종합소매점,편의점,서울특별시 강남구 역삼동 678-19,서울특별시 강남구 테헤란로29길 10,37.50234884,127.0388209
328,11837,23349621,소매,종합소매점,편의점,서울특별시 도봉구 방학동 658-5,서울특별시 도봉구 도당로 115,37.66720678,127.0392038
329,11883,20700767,소매,종합소매점,편의점,서울특별시 강북구 수유동 554-96,서울특별시 강북구 인수봉로 272,37.64291707,127.0111094
330,11995,25078659,소매,종합소매점,편의점,서울특별시 강북구 미아동 160-3,서울특별시 강북구 도봉로 290,37.63421967,127.0238009
331,11997,22528105,소매,종합소매점,편의점,서울특별시 강동구 길동 412-8,서울특별시 강동구 양재대로 1465,37.5368323,127.1392986
332,12011,25899335,소매,종합소매점,편의점,서울특별시 송파구 문정동 150-1,서울특별시 송파구 중대로 24,37.48811901,127.1110454
333,12012,25900526,소매,종합소매점,편의점,서울특별시 마포구 합정동 376-27,서울특별시 마포구 토정로 13-1,37.54581821,126.9124128
334,12042,28522212,소매,종합소매점,편의점,서울특별시 양천구 신정동 996-1,서울특별시 양천구 목동로19길 11,37.52483728,126.8631204
335,12059,25878310,소매,종합소매점,편의점,서울특별시 영등포구 양평동4가 28,서울특별시 영등포구 선유로 260,37.53551132,126.8979438
336,12101,11597616,소매,종합소매점,편의점,서울특별시 영등포구 당산동4가 92,서울특별시 영등포구 국회대로29길 5,37.52894359,126.8961058
337,12108,28516552,소매,종합소매점,편의점,서울특별시 강남구 압구정동 494,서울특별시 강남구 압구정로 343,37.52849864,127.0400807
338,12157,16103846,소매,종합소매점,편의점,서울특별시 동작구 상도동 347-1,서울특별시 동작구 상도로 117,37.50135906,126.9329744
339,12300,25624344,소매,종합소매점,편의점,서울특별시 금천구 독산동 145-8,서울특별시 금천구 시흥대로 473,37.47592646,126.8980732
340,12366,16201523,소매,종합소매점,편의점,서울특별시 강남구 논현동 65-4,서울특별시 강남구 논현로150길 20,37.51934385,127.0301412
341,12401,26001442,소매,종합소매점,편의점,서울특별시 강동구 성내동 543,서울특별시 강동구 성내로13길 14,37.52865441,127.1275242
342,12424,15669168,소매,종합소매점,편의점,서울특별시 마포구 상암동 1535,서울특별시 마포구 증산로 32,37.56424043,126.8925968
343,12546,28524499,소매,종합소매점,편의점,서울특별시 동대문구 용두동 38-2,서울특별시 동대문구 천호대로 127-1,37.57429768,127.0377158
344,12606,26001448,소매,종합소매점,편의점,서울특별시 중구 중림동 500,서울특별시 중구 서소문로 38,37.56039371,126.9662021
345,12632,28518991,소매,종합소매점,편의점,서울특별시 강북구 미아동 70-6,서울특별시 강북구 도봉로 62,37.61458728,127.0305026
346,12705,26001644,소매,종합소매점,편의점,서울특별시 광진구 중곡동 341-7,서울특별시 광진구 천호대로 573,37.55655585,127.0818131
347,12748,25877272,소매,종합소매점,편의점,서울특별시 강북구 미아동 211-56,서울특별시 강북구 솔매로 115-1,37.62603041,127.0250295
348,12763,22498907,소매,종합소매점,편의점,서울특별시 강남구 대치동 950,서울특별시 강남구 영동대로85길 17,37.50687137,127.0622664
349,12796,22531626,소매,종합소매점,편의점,서울특별시 중구 수표동 99,서울특별시 중구 청계천로 100,37.56761415,126.9884022
350,12960,23451914,소매,종합소매점,편의점,서울특별시 강서구 화곡동 373-5,서울특별시 강서구 가로공원로76길 38,37.53533535,126.8373106
351,13037,22582195,소매,종합소매점,편의점,서울특별시 서초구 반포동 93-6,서울특별시 서초구 서래로10길 1,37.4994187,126.9984836
352,13061,28513810,소매,종합소매점,편의점,서울특별시 강서구 공항동 20-2,서울특별시 강서구 방화동로 30,37.56354066,126.8104765
353,13200,28497764,소매,종합소매점,편의점,서울특별시 강남구 대치동 937,서울특별시 강남구 도곡로 401,37.49695993,127.0532526
354,13204,16119790,소매,종합소매점,편의점,서울특별시 노원구 월계동 672,서울특별시 노원구 마들로5길 25,37.64103923,127.0523789
355,13234,28515593,소매,종합소매점,편의점,서울특별시 성동구 사근동 110,서울특별시 성동구 왕십리로 222,37.55449264,127.0465947
356,13276,28520851,소매,종합소매점,편의점,서울특별시 송파구 신천동 29,서울특별시 송파구 올림픽로 300,37.51363101,127.1042839
357,13297,20346874,소매,종합소매점,편의점,서울특별시 서초구 서초동 1600-7,서울특별시 서초구 서초중앙로 49,37.48615973,127.0151017
358,13445,28522424,소매,종합소매점,편의점,서울특별시 강북구 번동 106-2,서울특별시 강북구 월계로 187,37.62090638,127.0452147
359,13451,16120606,소매,종합소매점,편의점,서울특별시 관악구 신림동 1474-10,서울특별시 관악구 남부순환로 1456,37.48115192,126.9125933
360,13457,25732941,소매,종합소매점,편의점,서울특별시 강남구 율현동 298-10,서울특별시 강남구 밤고개로24길 42,37.47191572,127.1059803
361,13546,28515979,소매,종합소매점,편의점,서울특별시 서초구 우면동 787,서울특별시 서초구 양재대로2길 8,37.45971911,127.0244462
362,13583,5135409,소매,종합소매점,편의점,서울특별시 양천구 목동 911-1,서울특별시 양천구 안양천로 1071,37.53697396,126.8867317
363,13678,25720875,소매,종합소매점,편의점,서울특별시 동작구 상도동 489-1,서울특별시 동작구 상도로 362-1,37.49625126,126.9532448
364,13780,15642414,소매,종합소매점,편의점,서울특별시 영등포구 양평동3가 96-1,서울특별시 영등포구 선유로43길 27,37.53395556,126.8924904
365,13790,15642416,소매,종합소매점,편의점,서울특별시 영등포구 양평동2가 43-14,서울특별시 영등포구 영등포로3길 23,37.52571226,126.8830525
366,13799,22694427,소매,종합소매점,편의점,서울특별시 광진구 중곡동 81-8,서울특별시 광진구 용마산로4길 27,37.55661588,127.0895653
367,13916,25321105,소매,종합소매점,편의점,서울특별시 금천구 독산동 1133,서울특별시 금천구 두산로 36,37.46997818,126.8921463
368,13939,20505942,소매,종합소매점,편의점,서울특별시 강남구 역삼동 784-13,서울특별시 강남구 도곡로37길 14,37.4948493,127.0451482
369,13971,24242231,소매,종합소매점,편의점,서울특별시 금천구 시흥동 866,서울특별시 금천구 독산로35길 67,37.45931131,126.901968
370,14021,16118556,소매,종합소매점,편의점,서울특별시 동대문구 제기동 1131,서울특별시 동대문구 약령중앙로2길 10,37.57864733,127.037422
371,14089,28522483,소매,종합소매점,편의점,서울특별시 영등포구 영등포동4가 428-13,서울특별시 영등포구 영신로24길 18-1,37.51622711,126.9045169
372,14254,23492747,소매,종합소매점,편의점,서울특별시 용산구 이촌동 301-160,서울특별시 용산구 이촌로 303,37.51890428,126.9811415
373,14444,28514832,소매,종합소매점,편의점,서울특별시 노원구 공릉동 126,서울특별시 노원구 화랑로 621,37.62877599,127.088969
374,14458,28521972,소매,종합소매점,편의점,서울특별시 성북구 동선동3가 212-1,서울특별시 성북구 보문로34다길 31,37.59262159,127.0208795
375,14469,15647927,소매,종합소매점,편의점,서울특별시 영등포구 문래동5가 23-4,서울특별시 영등포구 선유서로 15,37.51719518,126.8837677
376,14526,6603743,소매,종합소매점,편의점,서울특별시 서초구 서초동 1621-27,서울특별시 서초구 서초중앙로 46,37.48607595,127.0158604
377,14539,23488578,소매,종합소매점,편의점,서울특별시 강남구 자곡동 621,서울특별시 강남구 자곡로3길 22,37.46997272,127.0910581
378,14654,24721437,소매,종합소매점,편의점,서울특별시 종로구 중학동 19,서울특별시 종로구 종로1길 50,37.57471451,126.9790005
379,14688,24315539,소매,종합소매점,편의점,서울특별시 송파구 잠실동 22-6,서울특별시 송파구 올림픽로 145,37.51197604,127.0870198
380,14753,20530853,소매,종합소매점,편의점,서울특별시 종로구 종로6가 247-1,서울특별시 종로구 종로41길 3,37.57143525,127.0065197
381,14767,24704540,소매,종합소매점,편의점,서울특별시 금천구 시흥동 889-2,서울특별시 금천구 시흥대로52길 51,37.45358747,126.9017352
382,14776,24642695,소매,종합소매점,편의점,서울특별시 강남구 역삼동 735-11,서울특별시 강남구 논현로87길 41,37.49882739,127.0335054
383,14943,25732884,소매,종합소매점,편의점,서울특별시 마포구 신공덕동 167,서울특별시 마포구 백범로 199,37.54348098,126.9528904
384,14948,23519959,소매,종합소매점,편의점,서울특별시 강남구 도곡동 547,서울특별시 강남구 도곡로14길 7,37.49055899,127.0372192
385,14966,28519644,소매,종합소매점,편의점,서울특별시 노원구 상계동 713,서울특별시 노원구 동일로 1414,37.65526643,127.0613779
386,15031,16100380,소매,종합소매점,편의점,서울특별시 도봉구 쌍문동 721,서울특별시 도봉구 노해로45길 26,37.65091394,127.0268461
387,15034,25847789,소매,종합소매점,편의점,서울특별시 강남구 대치동 966,서울특별시 강남구 역삼로 534,37.50378314,127.0614341
388,15107,15642041,소매,종합소매점,편의점,서울특별시 마포구 노고산동 106-5,서울특별시 마포구 서강로 136,37.55403235,126.9357776
389,15235,24713677,소매,종합소매점,편의점,서울특별시 동대문구 전농동 1-205,서울특별시 동대문구 한천로 242,37.58249252,127.0685875
390,15260,24312595,소매,종합소매점,편의점,서울특별시 강동구 암사동 503-23,서울특별시 강동구 올림픽로 787,37.55154259,127.1277102
391,15287,25829988,소매,종합소매점,편의점,서울특별시 서대문구 현저동 101,서울특별시 서대문구 통일로 247,37.5744025,126.957733
392,15348,16120728,소매,종합소매점,편의점,서울특별시 서초구 내곡동 1-175,서울특별시 서초구 샘마을길 3-2,37.45766171,127.0710421
393,15516,25877932,소매,종합소매점,편의점,서울특별시 구로구 신도림동 432-1,서울특별시 구로구 경인로 638,37.50667613,126.8862204
394,15557,15642413,소매,종합소매점,편의점,서울특별시 구로구 가리봉동 137-5,서울특별시 구로구 남부순환로 1291,37.47888278,126.89431
395,15602,24944953,소매,종합소매점,편의점,서울특별시 성동구 금호동4가 1081,서울특별시 성동구 독서당로 281-1,37.54769206,127.0204603
396,15625,23034406,소매,종합소매점,편의점,서울특별시 관악구 신림동 1641-82,서울특별시 관악구 신림로 274,37.47929082,126.9318071
397,15702,23476453,소매,종합소매점,편의점,서울특별시 은평구 응암동 105-23,서울특별시 은평구 응암로32길 11,37.59726939,126.9214711
398,15823,16219584,소매,종합소매점,편의점,서울특별시 송파구 마천동 7,서울특별시 송파구 성내천로23길 2,37.50124202,127.1469682
399,15860,16219539,소매,종합소매점,편의점,서울특별시 은평구 녹번동 276,서울특별시 은평구 통일로 590,37.60061923,126.9371414
400,15861,16218420,소매,종합소매점,편의점,서울특별시 관악구 봉천동 968-36,서울특별시 관악구 봉천로 281,37.48772161,126.9324673
401,15891,16412310,소매,종합소매점,편의점,서울특별시 송파구 가락동 479,서울특별시 송파구 송파대로 345,37.49743873,127.1030637
402,15953,24518431,소매,종합소매점,편의점,서울특별시 성북구 성북동 43-2,서울특별시 성북구 선잠로 16,37.59464654,126.9991111
403,16004,28520834,소매,종합소매점,편의점,서울특별시 노원구 상계동 713,서울특별시 노원구 동일로 1414,37.65526643,127.0613779
404,16006,15648314,소매,종합소매점,편의점,서울특별시 금천구 시흥동 940-30,서울특별시 금천구 시흥대로36길 8,37.44360193,126.9044465
405,16063,28521635,소매,종합소매점,편의점,서울특별시 강북구 미아동 70-6,서울특별시 강북구 도봉로 62,37.61458728,127.0305026
406,16180,16220443,소매,종합소매점,편의점,서울특별시 송파구 가락동 17-4,서울특별시 송파구 오금로36길 29,37.50109279,127.1241128
407,16265,16408771,소매,종합소매점,편의점,서울특별시 송파구 문정동 652-2,서울특별시 송파구 송파대로 145,37.48335186,127.1230309
408,16285,20681461,소매,종합소매점,편의점,서울특별시 성동구 성수동2가 289-1,서울특별시 성동구 광나루로 238,37.54921696,127.0561229
409,16292,16220967,소매,종합소매점,편의점,서울특별시 양천구 목동 516-2,서울특별시 양천구 공항대로 650,37.54672234,126.8771261
410,16327,16219706,소매,종합소매점,편의점,서울특별시 금천구 가산동 40-20,서울특별시 금천구 벚꽃로 312-1,37.48236094,126.8828276
411,16328,16218465,소매,종합소매점,편의점,서울특별시 강남구 개포동 1196-6,서울특별시 강남구 논현로12길 13,37.47472605,127.0492934
412,16340,16434926,소매,종합소매점,편의점,서울특별시 동대문구 장안동 374-1,서울특별시 동대문구 장한로 85,37.56850975,127.0687729
413,16404,24295193,소매,종합소매점,편의점,서울특별시 서초구 반포동 18-4,서울특별시 서초구 신반포로 100,37.50308016,126.9956751
414,16429,28520536,소매,종합소매점,편의점,서울특별시 송파구 잠실동 40-1,서울특별시 송파구 올림픽로 240,37.51130447,127.0981244
415,16516,25814164,소매,종합소매점,편의점,서울특별시 광진구 자양동 4-9,서울특별시 광진구 동일로18길 78,37.53864331,127.0669153
416,16525,24657154,소매,종합소매점,편의점,서울특별시 강서구 화곡동 786-7,서울특별시 강서구 국회대로7길 6,37.5299223,126.8606447
417,16572,28520524,소매,종합소매점,편의점,서울특별시 강남구 수서동 734,서울특별시 강남구 광평로47길 28,37.48847673,127.0987947
418,16600,23919519,소매,종합소매점,편의점,서울특별시 광진구 능동 25,서울특별시 광진구 천호대로 664,37.55097411,127.0870762
419,16622,22506725,소매,종합소매점,편의점,서울특별시 강남구 삼성동 162-5,서울특별시 강남구 봉은사로 630,37.51471799,127.0643401
420,16650,19964722,소매,종합소매점,편의점,서울특별시 노원구 하계동 280-1,서울특별시 노원구 한글비석로 68,37.63655372,127.0695673
421,16725,15651667,소매,종합소매점,편의점,서울특별시 관악구 신림동 470-15,서울특별시 관악구 관천로15길 27,37.48657207,126.920984
422,16773,23967010,소매,종합소매점,편의점,서울특별시 성북구 길음동 518-12,서울특별시 성북구 동소문로43길 1,37.60646134,127.0273916
423,16806,28521373,소매,종합소매점,편의점,서울특별시 구로구 신도림동 692,서울특별시 구로구 경인로 662,37.50805804,126.8884846
424,16848,24066273,소매,종합소매점,편의점,서울특별시 동작구 본동 482,서울특별시 동작구 노량진로23가길 16,37.51424946,126.9516927
425,16881,25845804,소매,종합소매점,편의점,서울특별시 금천구 시흥동 992-2,서울특별시 금천구 시흥대로59길 35,37.45278343,126.8986049
426,17009,26580232,소매,종합소매점,편의점,서울특별시 관악구 봉천동 1655-15,서울특별시 관악구 남부순환로 1974,37.4751605,126.9679087
427,17012,23474168,소매,종합소매점,편의점,서울특별시 성동구 성수동2가 333-140,서울특별시 성동구 성수이로7길 27,37.54156347,127.0534244
428,17040,16220410,소매,종합소매점,편의점,서울특별시 관악구 신림동 652-91,서울특별시 관악구 난곡로24길 55,37.46799949,126.9217597
429,17041,16220297,소매,종합소매점,편의점,서울특별시 금천구 독산동 998-14,서울특별시 금천구 벚꽃로20길 15,37.46978874,126.8892437
430,17042,16220324,소매,종합소매점,편의점,서울특별시 관악구 신림동 406-6,서울특별시 관악구 신림로 183,37.47482587,126.9352737
431,17218,16218518,소매,종합소매점,편의점,서울특별시 양천구 신정동 939-7,서울특별시 양천구 중앙로 328,37.52536384,126.8504982
432,17219,16218011,소매,종합소매점,편의점,서울특별시 양천구 신정동 942-13,서울특별시 양천구 중앙로 316,37.52444097,126.8510328
433,17354,24125683,소매,종합소매점,편의점,서울특별시 중랑구 망우동 127-28,서울특별시 중랑구 용마산로118길 145-3,37.60118301,127.1086259
434,17452,25858665,소매,종합소매점,편의점,서울특별시 광진구 광장동 244-6,서울특별시 광진구 아차산로 591,37.54613669,127.104891
435,17641,20577893,소매,종합소매점,편의점,서울특별시 은평구 불광동 89-1,서울특별시 은평구 연서로 341,37.62562747,126.9286855
436,17720,24108917,소매,종합소매점,편의점,서울특별시 광진구 능동 25,서울특별시 광진구 천호대로 664,37.55097411,127.0870762
437,17738,25468002,소매,종합소매점,편의점,서울특별시 서초구 방배동 1007-2,서울특별시 서초구 명달로 3,37.47800517,127.0064916
438,17822,24806849,소매,종합소매점,편의점,서울특별시 성동구 성수동1가 34-4,서울특별시 성동구 성덕정9길 15-10,37.53982357,127.0499498
439,17851,22065179,소매,종합소매점,편의점,서울특별시 서초구 서초동 1540-3,서울특별시 서초구 서초대로40길 49,37.48942704,127.0082175
440,17854,23509750,소매,종합소매점,편의점,서울특별시 노원구 하계동 236-4,서울특별시 노원구 한글비석로1길 73,37.64086526,127.070148
441,17865,12089470,소매,종합소매점,편의점,서울특별시 중랑구 면목동 49-3,서울특별시 중랑구 용마산로90길 28,37.58729861,127.0980462
442,17867,26188285,소매,종합소매점,편의점,서울특별시 성북구 종암동 132,서울특별시 성북구 종암로 132,37.6019072,127.0334984
443,17872,26239256,소매,종합소매점,편의점,서울특별시 양천구 목동 782-3,서울특별시 양천구 목동중앙남로3길 63,37.53555082,126.864078
444,17873,9113414,소매,종합소매점,편의점,서울특별시 송파구 문정동 52-9,서울특별시 송파구 송파대로22길 6,37.4872597,127.1226573
445,17874,26249930,소매,종합소매점,편의점,서울특별시 성동구 성수동2가 280-13,서울특별시 성동구 아차산로15길 52,37.54732058,127.064657
446,18022,27072331,소매,종합소매점,편의점,서울특별시 은평구 응암동 111-42,서울특별시 은평구 은평로 90,37.59931805,126.9178969
447,18026,19933936,소매,종합소매점,편의점,서울특별시 노원구 상계동 1262,서울특별시 노원구 동일로 1689,37.67911034,127.0549331
448,18027,28349208,소매,종합소매점,편의점,서울특별시 강남구 삼성동 144,서울특별시 강남구 삼성로95길 15,37.50773742,127.0544851
449,18046,9041280,소매,종합소매점,편의점,서울특별시 용산구 보광동 259-1,서울특별시 용산구 보광로 46,37.52827628,126.999184
450,18077,28139541,소매,종합소매점,편의점,서울특별시 은평구 역촌동 55-35,서울특별시 은평구 갈현로 82,37.60525239,126.9106647
451,18086,26283188,소매,종합소매점,편의점,서울특별시 서대문구 북가좌동 5-25,서울특별시 서대문구 증가로20길 64,37.58190889,126.918749
452,18121,20025284,소매,종합소매점,편의점,서울특별시 강남구 역삼동 601-11,서울특별시 강남구 강남대로110길 11,37.50405248,127.0257019
453,18170,20025803,소매,종합소매점,편의점,서울특별시 강남구 역삼동 827-67,서울특별시 강남구 테헤란로8길 46,37.49586197,127.0322883
454,18194,12092626,소매,종합소매점,편의점,서울특별시 양천구 신월동 331-101,서울특별시 양천구 지양로17길 1,37.52359922,126.8286347
455,18251,12150708,소매,종합소매점,편의점,서울특별시 은평구 신사동 15-50,서울특별시 은평구 갈현로1길 8,37.59941085,126.9093796
456,18283,7585348,소매,종합소매점,편의점,서울특별시 동작구 흑석동 181-13,서울특별시 동작구 흑석로 109-2,37.50840423,126.9611624
457,18306,12093491,소매,종합소매점,편의점,서울특별시 양천구 신월동 205-46,서울특별시 양천구 남부순환로 432,37.52929449,126.8323471
458,18322,26286445,소매,종합소매점,편의점,서울특별시 관악구 신림동 122-4,서울특별시 관악구 신림로12길 13,37.47162696,126.9382584
459,18332,12089977,소매,종합소매점,편의점,서울특별시 강북구 미아동 52-84,서울특별시 강북구 월계로7나길 14,37.61270701,127.0330528
460,18371,23169172,소매,종합소매점,편의점,서울특별시 관악구 신림동 746-1,서울특별시 관악구 문성로16길 20,37.47668944,126.913325
461,18373,13648487,소매,종합소매점,편의점,서울특별시 강남구 논현동 101,서울특별시 강남구 선릉로145길 7,37.52131671,127.0389057
462,18390,24842923,소매,종합소매점,편의점,서울특별시 은평구 증산동 168-1,서울특별시 은평구 증산로 307,37.58454026,126.9099702
463,18496,9113593,소매,종합소매점,편의점,서울특별시 서초구 양재동 23,서울특별시 서초구 강남대로 221,37.48367645,127.0340963
464,18674,26249030,소매,종합소매점,편의점,서울특별시 성북구 동선동4가 87,서울특별시 성북구 동소문로23길 5,37.59377454,127.0175805
465,18680,22095581,소매,종합소매점,편의점,서울특별시 강남구 도곡동 527,서울특별시 강남구 선릉로 221,37.49420131,127.0497138
466,18688,24564653,소매,종합소매점,편의점,서울특별시 서대문구 연희동 116-5,서울특별시 서대문구 연희로11바길 2,37.56926501,126.9283727
467,18701,26244114,소매,종합소매점,편의점,서울특별시 강북구 수유동 166-6,서울특별시 강북구 한천로144길 73,37.64380412,127.0278567
468,18870,3901565,소매,종합소매점,편의점,서울특별시 용산구 서계동 239-15,서울특별시 용산구 만리재로24길 47,37.55226214,126.9657259
469,18892,26584398,소매,종합소매점,편의점,서울특별시 동작구 상도동 279-275,서울특별시 동작구 성대로10길 56,37.49589223,126.9362526
470,18998,12094718,소매,종합소매점,편의점,서울특별시 강남구 역삼동 830-28,서울특별시 강남구 역삼로3길 10,37.49425251,127.0316079
471,19027,20680281,소매,종합소매점,편의점,서울특별시 강동구 암사동 503-23,서울특별시 강동구 올림픽로 787,37.55154259,127.1277102
472,19056,3939508,소매,종합소매점,편의점,서울특별시 강남구 역삼동 838-7,서울특별시 강남구 강남대로62길 18,37.49042563,127.0330256
473,19061,12150711,소매,종합소매점,편의점,서울특별시 송파구 거여동 30,서울특별시 송파구 오금로62길 13-8,37.49239308,127.1468993
474,19106,25216191,소매,종합소매점,편의점,서울특별시 영등포구 양평동4가 75,서울특별시 영등포구 선유로49길 22,37.53665809,126.8953131
475,19121,12094993,소매,종합소매점,편의점,서울특별시 강동구 천호동 50-18,서울특별시 강동구 천중로43길 51,37.54337858,127.1411697
476,19138,26241412,소매,종합소매점,편의점,서울특별시 영등포구 당산동4가 38-1,서울특별시 영등포구 국회대로 559,37.52834632,126.8967934
477,19140,20727215,소매,종합소매점,편의점,서울특별시 송파구 방이동 88,서울특별시 송파구 올림픽로 424,37.52034939,127.1157765
478,19141,23253923,소매,종합소매점,편의점,서울특별시 강남구 자곡동 658,서울특별시 강남구 자곡로 202,37.47469248,127.1049862
479,19200,28199974,소매,종합소매점,편의점,서울특별시 광진구 자양동 601,서울특별시 광진구 자양번영로 32,37.5324139,127.0756825
480,19235,26234725,소매,종합소매점,편의점,서울특별시 광진구 구의동 246-8,서울특별시 광진구 자양로18길 26,37.53765018,127.0850888
481,19255,23261680,소매,종합소매점,편의점,서울특별시 중랑구 묵동 318-1,서울특별시 중랑구 공릉로 68,37.61638637,127.0796393
482,19325,26240025,소매,종합소매점,편의점,서울특별시 서초구 방배동 751-7,서울특별시 서초구 사평대로2길 16,37.49783435,126.9859855
483,19333,23246015,소매,종합소매점,편의점,서울특별시 중랑구 상봉동 87-18,서울특별시 중랑구 봉우재로33길 58,37.59469697,127.0887618
484,19443,26532362,소매,종합소매점,편의점,서울특별시 용산구 한남동 657-1,서울특별시 용산구 대사관로11길 50,37.53594686,127.0016274
485,19456,24861711,소매,종합소매점,편의점,서울특별시 중구 을지로3가 95-7,서울특별시 중구 충무로9길 20,37.56700828,126.9913083
486,19460,26244648,소매,종합소매점,편의점,서울특별시 영등포구 영등포동5가 45-1,서울특별시 영등포구 양산로 202,37.52249868,126.9055225
487,19494,3929204,소매,종합소매점,편의점,서울특별시 성북구 길음동 1283-4,서울특별시 성북구 길음로 20,37.6047493,127.0230196
488,19506,12228823,소매,종합소매점,편의점,서울특별시 서대문구 창천동 13-4,서울특별시 서대문구 연세로4길 41,37.5580055,126.9387317
489,19550,12102052,소매,종합소매점,편의점,서울특별시 양천구 목동 557-38,서울특별시 양천구 목동중앙북로16길 70,37.54309582,126.873831
490,19553,12102465,소매,종합소매점,편의점,서울특별시 송파구 문정동 641-4,서울특별시 송파구 법원로 127,37.48628446,127.118745
491,19568,9039824,소매,종합소매점,편의점,서울특별시 강북구 미아동 48-1,서울특별시 강북구 월계로7길 36,37.61162095,127.0335653
492,19655,26281554,소매,종합소매점,편의점,서울특별시 중랑구 중화동 318-1,서울특별시 중랑구 중랑역로13길 2,37.59688122,127.0753386
493,19674,9040929,소매,종합소매점,편의점,서울특별시 마포구 연남동 509-22,서울특별시 마포구 연남로 31,37.56240941,126.921589
494,19675,9040930,소매,종합소매점,편의점,서울특별시 강남구 역삼동 650-9,서울특별시 강남구 논현로 566,37.50684049,127.0349403
495,19676,9040932,소매,종합소매점,편의점,서울특별시 구로구 오류동 40-2,서울특별시 구로구 경인로 197,37.49587114,126.8429438
496,19753,22062024,소매,종합소매점,편의점,서울특별시 노원구 월계동 466,서울특별시 노원구 광운로 21,37.61981638,127.0575759
497,19805,12107876,소매,종합소매점,편의점,서울특별시 관악구 신림동 305-26,서울특별시 관악구 호암로 538,37.4655664,126.931652
498,19865,24648125,소매,종합소매점,편의점,서울특별시 영등포구 여의도동 85-1,서울특별시 영등포구 여의동로 280,37.52495775,126.9390077
499,19958,12109371,소매,종합소매점,편의점,서울특별시 성동구 금호동2가 449-1,서울특별시 성동구 금호로 151,37.55430277,127.0201021
500,19960,28365248,소매,종합소매점,편의점,서울특별시 종로구 종로3가 108,서울특별시 종로구 종로 112,37.57004233,126.9899655
501,19968,9036781,소매,종합소매점,편의점,서울특별시 용산구 이태원동 1-1,서울특별시 용산구 회나무로41길 8,37.54135968,126.9960218
502,20036,12102411,소매,종합소매점,편의점,서울특별시 중구 수하동 40-2,서울특별시 중구 남대문로10길 28,37.56743404,126.9842164
503,20086,24799715,소매,종합소매점,편의점,서울특별시 마포구 성산동 515,서울특별시 마포구 월드컵로 240,37.56827565,126.8972574
504,20091,12111575,소매,종합소매점,편의점,서울특별시 강서구 등촌동 656,서울특별시 강서구 화곡로64길 2,37.55725413,126.853551
505,20118,26273206,소매,종합소매점,편의점,서울특별시 강남구 역삼동 833-3,서울특별시 강남구 역삼로 122,37.4937145,127.0330285
506,20159,28067595,소매,종합소매점,편의점,서울특별시 강동구 둔촌동 30-4,서울특별시 강동구 동남로49길 63,37.53262083,127.1462602
507,20165,26243161,소매,종합소매점,편의점,서울특별시 강남구 역삼동 653-3,서울특별시 강남구 언주로 565,37.50838169,127.0383024
508,20213,28108336,소매,종합소매점,편의점,서울특별시 종로구 내자동 111-1,서울특별시 종로구 사직로 112,37.57578226,126.9712197
509,20289,24295010,소매,종합소매점,편의점,서울특별시 동대문구 장안동 365-6,서울특별시 동대문구 장한로 92,37.56880635,127.069822
510,20500,22802854,소매,종합소매점,편의점,서울특별시 성북구 동소문동4가 267,서울특별시 성북구 동소문로 65-2,37.59176863,127.0125906
511,20539,9113611,소매,종합소매점,편의점,서울특별시 용산구 원효로1가 133-3,서울특별시 용산구 백범로 341,37.53792807,126.9679607
512,20553,12090064,소매,종합소매점,편의점,서울특별시 도봉구 도봉동 626-115,서울특별시 도봉구 도봉로164길 37,37.67551316,127.0468393
513,20555,27923975,소매,종합소매점,편의점,서울특별시 노원구 중계동 360-9,서울특별시 노원구 한글비석로 245,37.64975314,127.0763493
514,20605,12150410,소매,종합소매점,편의점,서울특별시 송파구 가락동 459-4,서울특별시 송파구 송파대로 354,37.49967903,127.1121637
515,20642,26188617,소매,종합소매점,편의점,서울특별시 성북구 동선동3가 226-2,서울특별시 성북구 보문로34가길 20,37.59239053,127.0201805
516,20653,9113503,소매,종합소매점,편의점,서울특별시 서초구 서초동 1309-9,서울특별시 서초구 서초대로77길 55,37.50200577,127.0244504
517,20684,23256090,소매,종합소매점,편의점,서울특별시 중랑구 면목동 555-16,서울특별시 중랑구 면목로55길 70,37.58458088,127.0844468
518,20794,26249644,소매,종합소매점,편의점,서울특별시 도봉구 쌍문동 96-1,서울특별시 도봉구 도봉로113길 7,37.64792402,127.033605
519,20882,22551606,소매,종합소매점,편의점,서울특별시 서초구 방배동 951-1,서울특별시 서초구 서초대로 24,37.4854367,126.9850336
520,21135,19992103,소매,종합소매점,편의점,서울특별시 강동구 성내동 378,서울특별시 강동구 천호대로 1128,37.53415376,127.1365007
521,21142,26285811,소매,종합소매점,편의점,서울특별시 금천구 가산동 448,서울특별시 금천구 가산디지털2로 115,37.47835448,126.8793597
522,21160,9012880,소매,종합소매점,편의점,서울특별시 구로구 개봉동 182-11,서울특별시 구로구 개봉로23가길 76,37.49466082,126.8602533
523,21187,9053955,소매,종합소매점,편의점,서울특별시 양천구 목동 614-13,서울특별시 양천구 등촌로 214,37.54859407,126.8636877
524,21524,22519345,소매,종합소매점,편의점,서울특별시 서초구 반포동 107-18,서울특별시 서초구 사평대로20길 12,37.49893697,126.9969294
525,21529,12109770,소매,종합소매점,편의점,서울특별시 송파구 송파동 180-4,서울특별시 송파구 송파대로36가길 1,37.50101263,127.1145682
526,21547,24638099,소매,종합소매점,편의점,서울특별시 관악구 봉천동 913-1,서울특별시 관악구 남부순환로 1766,37.4816722,126.9461441
527,21567,20027593,소매,종합소매점,편의점,서울특별시 강남구 역삼동 734-7,서울특별시 강남구 논현로76길 10,37.49685996,127.0397507
528,21695,5110377,소매,종합소매점,편의점,서울특별시 영등포구 여의도동 13-21,서울특별시 영등포구 국회대로74길 20,37.52959309,126.9215412
529,21699,12109389,소매,종합소매점,편의점,서울특별시 강남구 역삼동 818-14,서울특별시 강남구 강남대로94길 9,37.49947669,127.0280798
530,21740,22740423,소매,종합소매점,편의점,서울특별시 용산구 원효로1가 12-19,서울특별시 용산구 원효로89길 18,37.54086779,126.9682257
531,21760,20305440,소매,종합소매점,편의점,서울특별시 강남구 대치동 967,서울특별시 강남구 역삼로 546,37.50428098,127.062853
532,21822,5519093,소매,종합소매점,편의점,서울특별시 영등포구 여의도동 43-3,서울특별시 영등포구 국제금융로 78,37.52086043,126.9312827
533,21828,24906300,소매,종합소매점,편의점,서울특별시 동대문구 답십리동 53-45,서울특별시 동대문구 답십리로 168,37.57267354,127.0586684
534,21907,25580293,소매,종합소매점,편의점,서울특별시 금천구 시흥동 954-39,서울특별시 금천구 시흥대로 72,37.44050461,126.9037233
535,21910,24295198,소매,종합소매점,편의점,서울특별시 도봉구 도봉동 616-21,서울특별시 도봉구 도봉로155길 6,37.67295529,127.04363
536,21915,26234125,소매,종합소매점,편의점,서울특별시 용산구 용산동4가 4,서울특별시 용산구 녹사평대로 195,37.53482224,126.9870124
537,21953,24894663,소매,종합소매점,편의점,서울특별시 강남구 수서동 559,서울특별시 강남구 광평로34길 55,37.4808953,127.0924522
538,22002,23196215,소매,종합소매점,편의점,서울특별시 은평구 불광동 281-136,서울특별시 은평구 통일로66길 8,37.61047571,126.9310662
539,22080,12108176,소매,종합소매점,편의점,서울특별시 은평구 갈현동 497-13,서울특별시 은평구 연서로17길 46-1,37.61415373,126.9125283
540,22102,10442561,소매,종합소매점,편의점,서울특별시 노원구 중계동 361-1,서울특별시 노원구 노원로22길 34,37.64731067,127.0739658
541,22144,12228812,소매,종합소매점,편의점,서울특별시 종로구 관철동 6-2,서울특별시 종로구 삼일대로 393-1,37.56976805,126.9873996
542,22203,26001279,소매,종합소매점,편의점,서울특별시 마포구 상수동 395,서울특별시 마포구 와우산로 1,37.54439575,126.9223691
543,22205,12109759,소매,종합소매점,편의점,서울특별시 구로구 온수동 154,서울특별시 구로구 부일로1길 126,37.49570063,126.8175357
544,22217,12108381,소매,종합소매점,편의점,서울특별시 송파구 장지동 201-5,서울특별시 송파구 송파대로 82,37.47811464,127.1264049
545,22258,12229047,소매,종합소매점,편의점,서울특별시 중구 을지로2가 163-4,서울특별시 중구 을지로 80,37.56593198,126.9866252
546,22306,9042614,소매,종합소매점,편의점,서울특별시 강동구 천호동 169-13,서울특별시 강동구 성안로25길 21,37.5382469,127.1343601
547,22317,26283046,소매,종합소매점,편의점,서울특별시 관악구 신림동 1552,서울특별시 관악구 대학10길 21,37.46755566,126.9364169
548,22397,22005230,소매,종합소매점,편의점,서울특별시 양천구 신정동 318-5,서울특별시 양천구 목동서로 285,37.52184944,126.8691276
549,22414,22520799,소매,종합소매점,편의점,서울특별시 성동구 금호동4가 1483,서울특별시 성동구 동호로 99,37.54802783,127.0153294
550,22524,22443293,소매,종합소매점,편의점,서울특별시 성북구 동선동4가 304-1,서울특별시 성북구 동소문로29길 17,37.59635214,127.0198228
551,22560,24351761,소매,종합소매점,편의점,서울특별시 동작구 사당동 1015-50,서울특별시 동작구 동작대로13길 34,37.48192535,126.978037
552,22630,28359902,소매,종합소매점,편의점,서울특별시 강남구 삼성동 87,서울특별시 강남구 영동대로 640,37.51839214,127.0595317
553,22658,25387579,소매,종합소매점,편의점,서울특별시 중랑구 상봉동 314-18,서울특별시 중랑구 봉화산로30길 99,37.59777936,127.0853722
554,22689,26002179,소매,종합소매점,편의점,서울특별시 강남구 신사동 668,서울특별시 강남구 압구정로 172,37.52642135,127.0284657
555,22710,25251117,소매,종합소매점,편의점,서울특별시 성북구 안암동5가 1-2,서울특별시 성북구 인촌로 105,37.58648758,127.0309577
556,22758,23393624,소매,종합소매점,편의점,서울특별시 강서구 방화동 830-1,서울특별시 강서구 금낭화로 136,37.57734263,126.8129853
557,22762,23067046,소매,종합소매점,편의점,서울특별시 용산구 동자동 43-155,서울특별시 용산구 한강대로 349,37.54941996,126.971469
558,22788,20006656,소매,종합소매점,편의점,서울특별시 광진구 군자동 98,서울특별시 광진구 능동로 209,37.55273062,127.0742772
559,22810,24310940,소매,종합소매점,편의점,서울특별시 도봉구 창동 608-120,서울특별시 도봉구 도봉로108길 84,37.64563959,127.0385299
560,22913,26003034,소매,종합소매점,편의점,서울특별시 구로구 개봉동 416-26,서울특별시 구로구 경인로31길 80,37.50075964,126.8489755
561,22935,9158787,소매,종합소매점,편의점,서울특별시 성북구 하월곡동 104-82,서울특별시 성북구 동소문로 266,37.60453827,127.0258311
562,23074,24339243,소매,종합소매점,편의점,서울특별시 관악구 봉천동 1685-1,서울특별시 관악구 행운2길 52,37.47852911,126.9615874
563,23191,26279431,소매,종합소매점,편의점,서울특별시 서초구 반포동 107-64,서울특별시 서초구 서래로5길 35,37.49781335,126.9961867
564,23280,20016037,소매,종합소매점,편의점,서울특별시 강남구 삼성동 150-19,서울특별시 강남구 삼성로 550,37.51083937,127.054774
565,23304,23167025,소매,종합소매점,편의점,서울특별시 송파구 석촌동 14-10,서울특별시 송파구 백제고분로 283,37.5027433,127.0979786
566,23321,12109311,소매,종합소매점,편의점,서울특별시 서초구 서초동 1489-11,서울특별시 서초구 효령로40길 10,37.48242354,127.0057999
567,23327,25448487,소매,종합소매점,편의점,서울특별시 노원구 공릉동 386-3,서울특별시 노원구 동일로192길 15,37.62616244,127.0738544
568,23346,9011121,소매,종합소매점,편의점,서울특별시 서대문구 창천동 33-14,서울특별시 서대문구 연세로9길 8,37.55857053,126.9364374
569,23384,24613271,소매,종합소매점,편의점,서울특별시 송파구 석촌동 182,서울특별시 송파구 백제고분로39길 38,37.50745091,127.1032493
570,23543,20035793,소매,종합소매점,편의점,서울특별시 동작구 사당동 1030-10,서울특별시 동작구 동작대로7길 12,37.47997629,126.9808449
571,23575,28385027,소매,종합소매점,편의점,서울특별시 성북구 석관동 261-38,서울특별시 성북구 화랑로32길 145,37.60466453,127.0602927
572,23606,24031385,소매,종합소매점,편의점,서울특별시 강남구 신사동 541-19,서울특별시 강남구 도산대로15길 7,37.51873288,127.0237915
573,23662,25167969,소매,종합소매점,편의점,서울특별시 성북구 하월곡동 35-1,서울특별시 성북구 월곡로 107,37.60141115,127.0411718
574,23699,24793400,소매,종합소매점,편의점,서울특별시 성동구 성수동2가 279-46,서울특별시 성동구 아차산로17길 26,37.54450022,127.064647
575,23700,20012150,소매,종합소매점,편의점,서울특별시 서초구 반포동 1053,서울특별시 서초구 신반포로 22,37.50116032,126.9871619
576,23707,5120154,소매,종합소매점,편의점,서울특별시 구로구 오류동 108-74,서울특별시 구로구 경인로 22,37.48934368,126.8252008
577,23782,22556086,소매,종합소매점,편의점,서울특별시 도봉구 창동 12,서울특별시 도봉구 노해로69길 21-15,37.65302947,127.049824
578,23830,23376237,소매,종합소매점,편의점,서울특별시 서대문구 북아현동 1-609,서울특별시 서대문구 북아현로 96-1,37.56509639,126.9528256
579,23856,24789608,소매,종합소매점,편의점,서울특별시 동작구 사당동 268-4,서울특별시 동작구 사당로16가길 34,37.48339252,126.9716285
580,23925,22498947,소매,종합소매점,편의점,서울특별시 서대문구 연희동 80-7,서울특별시 서대문구 연희로 158,37.57124297,126.9348648
581,23939,22040844,소매,종합소매점,편의점,서울특별시 도봉구 창동 373,서울특별시 도봉구 덕릉로 349,37.64499692,127.0459376
582,23961,6202470,소매,종합소매점,편의점,서울특별시 강남구 논현동 192-19,서울특별시 강남구 봉은사로 179,37.50744949,127.0333829
583,23973,5315224,소매,종합소매점,편의점,서울특별시 강서구 화곡동 918-21,서울특별시 강서구 곰달래로 104,37.53029522,126.844313
584,24166,22770722,소매,종합소매점,편의점,서울특별시 종로구 인의동 101-1,서울특별시 종로구 창경궁로 119,37.57308763,126.9973394
585,24198,25260896,소매,종합소매점,편의점,서울특별시 금천구 시흥동 991-47,서울특별시 금천구 시흥대로51길 23,37.45085121,126.9001138
586,24202,24264879,소매,종합소매점,편의점,서울특별시 도봉구 창동 38-2,서울특별시 도봉구 덕릉로 404,37.64570911,127.0538154
587,24212,12342008,소매,종합소매점,편의점,서울특별시 동작구 상도동 289-1,서울특별시 동작구 국사봉1길 161-12,37.49563084,126.9342433
588,24221,25526503,소매,종합소매점,편의점,서울특별시 강남구 논현동 16-48,서울특별시 강남구 강남대로146길 27,37.51529737,127.0223997
589,24231,9739013,소매,종합소매점,편의점,서울특별시 강동구 명일동 306-5,서울특별시 강동구 양재대로 1655,37.55334619,127.1439188
590,24352,24315854,소매,종합소매점,편의점,서울특별시 성동구 금호동1가 710,서울특별시 성동구 난계로 36,37.55539717,127.0249545
591,24357,25249606,소매,종합소매점,편의점,서울특별시 마포구 노고산동 31-23,서울특별시 마포구 신촌로20길 12,37.55460352,126.9381688
592,24367,25284588,소매,종합소매점,편의점,서울특별시 서대문구 신촌동 134,서울특별시 서대문구 연세로 50,37.56380069,126.9429168
593,24375,25454156,소매,종합소매점,편의점,서울특별시 강서구 염창동 264-13,서울특별시 강서구 양천로 698,37.54987555,126.873299
594,24382,23911930,소매,종합소매점,편의점,서울특별시 관악구 봉천동 729-21,서울특별시 관악구 보라매로3길 23,37.49103758,126.9255222
595,24411,12341978,소매,종합소매점,편의점,서울특별시 종로구 동숭동 1-37,서울특별시 종로구 동숭길 143,37.5832584,127.0024225
596,24456,22535073,소매,종합소매점,편의점,서울특별시 서초구 서초동 1316-3,서울특별시 서초구 서운로 162,37.4978932,127.023995
597,24499,21595104,소매,종합소매점,편의점,서울특별시 광진구 중곡동 150-178,서울특별시 광진구 긴고랑로 91,37.56065064,127.085815
598,24534,12441787,소매,종합소매점,편의점,서울특별시 강서구 방화동 608-140,서울특별시 강서구 초원로16길 24,37.56645191,126.8150485
599,24547,25237426,소매,종합소매점,편의점,서울특별시 강동구 둔촌동 163,서울특별시 강동구 풍성로 247,37.52821743,127.139194
600,24577,20613547,소매,종합소매점,편의점,서울특별시 강남구 청담동 21-17,서울특별시 강남구 도산대로58길 17,37.52206754,127.0414867
601,24631,22571804,소매,종합소매점,편의점,서울특별시 구로구 구로동 811,서울특별시 구로구 디지털로34길 55,37.48427224,126.8992622
602,24633,12228135,소매,종합소매점,편의점,서울특별시 중구 을지로2가 101-28,서울특별시 중구 을지로9길 8,37.56660558,126.9884725
603,24665,6105175,소매,종합소매점,편의점,서울특별시 영등포구 당산동1가 308-2,서울특별시 영등포구 당산로 104,37.52384641,126.8963958
604,24736,12441986,소매,종합소매점,편의점,서울특별시 성동구 마장동 821,서울특별시 성동구 마조로 55,37.56275912,127.0415089
605,24764,24319365,소매,종합소매점,편의점,서울특별시 강서구 방화동 830,서울특별시 강서구 금낭화로 146,37.57818364,126.813289
606,24767,22534342,소매,종합소매점,편의점,서울특별시 양천구 신정동 1182-2,서울특별시 양천구 중앙로 251,37.51870442,126.8532022
607,24768,22761877,소매,종합소매점,편의점,서울특별시 광진구 광장동 453-1,서울특별시 광진구 아차산로 544,37.54272506,127.1017746
608,24837,24634798,소매,종합소매점,편의점,서울특별시 강남구 역삼동 821,서울특별시 강남구 테헤란로 101,37.49865626,127.0280225
609,24844,12341991,소매,종합소매점,편의점,서울특별시 강서구 마곡동 773-1,서울특별시 강서구 마곡중앙6로 10,37.56037482,126.8281723
610,24885,23376412,소매,종합소매점,편의점,서울특별시 관악구 신림동 532-26,서울특별시 관악구 조원로 92,37.48442208,126.9125233
611,24952,23944400,소매,종합소매점,편의점,서울특별시 송파구 방이동 115-8,서울특별시 송파구 오금로 175,37.50951516,127.1141059
612,24963,25314683,소매,종합소매점,편의점,서울특별시 서대문구 남가좌동 197-5,서울특별시 서대문구 모래내로15길 50,37.57387096,126.9196577
613,24985,5199077,소매,종합소매점,편의점,서울특별시 노원구 공릉동 395-8,서울특별시 노원구 동일로 1066,37.62524892,127.0734126
614,24998,26242093,소매,종합소매점,편의점,서울특별시 강남구 도곡동 168,서울특별시 강남구 언주로 201,37.48848036,127.0486894
615,25036,20418732,소매,종합소매점,편의점,서울특별시 강남구 대치동 889-75,서울특별시 강남구 선릉로86길 7,37.50328868,127.0502999
616,25042,20603261,소매,종합소매점,편의점,서울특별시 노원구 중계동 359-8,서울특별시 노원구 한글비석로 273,37.65216559,127.0772034
617,25052,24302437,소매,종합소매점,편의점,서울특별시 중구 저동2가 88-13,서울특별시 중구 마른내로 8,37.56448131,126.9887276
618,25087,12228819,소매,종합소매점,편의점,서울특별시 금천구 독산동 955,서울특별시 금천구 시흥대로152길 25,37.47757483,126.8999484
619,25092,23377844,소매,종합소매점,편의점,서울특별시 동대문구 장안동 167-19,서울특별시 동대문구 한천로24길 22,37.57028317,127.066283
620,25124,22584897,소매,종합소매점,편의점,서울특별시 강남구 청담동 122-8,서울특별시 강남구 압구정로79길 25,37.52531002,127.049127
621,25192,25254728,소매,종합소매점,편의점,서울특별시 강남구 신사동 660-18,서울특별시 강남구 압구정로46길 5-2,37.52803083,127.0368509
622,25264,25234021,소매,종합소매점,편의점,서울특별시 구로구 고척동 85-20,서울특별시 구로구 경인로43길 18,37.49742636,126.8620547
623,25287,20799057,소매,종합소매점,편의점,서울특별시 강서구 등촌동 631,서울특별시 강서구 양천로 564,37.55712434,126.8615549
624,25447,23291287,소매,종합소매점,편의점,서울특별시 양천구 신정동 1026-1,서울특별시 양천구 신월로 338,37.52152203,126.8585099
625,25479,20588346,소매,종합소매점,편의점,서울특별시 강북구 미아동 838-8,서울특별시 강북구 솔샘로 231,37.62016357,127.0183775
626,25494,20478297,소매,종합소매점,편의점,서울특별시 은평구 녹번동 141-1,서울특별시 은평구 진흥로 148,37.60843261,126.9263499
627,25501,12434692,소매,종합소매점,편의점,서울특별시 노원구 상계동 1120-88,서울특별시 노원구 동일로242길 39,37.67528473,127.057657
628,25515,24039039,소매,종합소매점,편의점,서울특별시 영등포구 영등포동3가 21-3,서울특별시 영등포구 영중로4길 9-4,37.51765182,126.9075503
629,25537,12434694,소매,종합소매점,편의점,서울특별시 송파구 문정동 644,서울특별시 송파구 법원로11길 11,37.48475927,127.1184237
630,25548,24799718,소매,종합소매점,편의점,서울특별시 송파구 문정동 53-9,서울특별시 송파구 동남로2길 4,37.48871585,127.1221766
631,25564,20731493,소매,종합소매점,편의점,서울특별시 양천구 목동 933,서울특별시 양천구 목동동로12길 45,37.52257609,126.8763455
632,25586,24954149,소매,종합소매점,편의점,서울특별시 강동구 길동 455,서울특별시 강동구 천호대로 1123,37.53503672,127.1364905
633,25631,26319627,소매,종합소매점,편의점,서울특별시 성북구 정릉동 151-13,서울특별시 성북구 정릉로 268-1,37.60328728,127.0129933
634,25647,28446084,소매,종합소매점,편의점,서울특별시 중랑구 면목동 177-7,서울특별시 중랑구 겸재로9길 15,37.58708213,127.0781886
635,25662,28276238,소매,종합소매점,편의점,서울특별시 성동구 행당동 376,서울특별시 성동구 고산자로 177,37.55572024,127.0335633
636,25674,25469755,소매,종합소매점,편의점,서울특별시 금천구 가산동 60-19,서울특별시 금천구 벚꽃로 278,37.47948554,126.8846229
637,25684,22804369,소매,종합소매점,편의점,서울특별시 강남구 대치동 891-42,서울특별시 강남구 테헤란로78길 8,37.50561676,127.0552131
638,25685,6300603,소매,종합소매점,편의점,서울특별시 강남구 역삼동 790-20,서울특별시 강남구 역삼로20길 9,37.49470738,127.0376523
639,25744,26002550,소매,종합소매점,편의점,서울특별시 중구 만리동1가 62-7,서울특별시 중구 만리재로 193,37.55500524,126.9672046
640,25759,3811048,소매,종합소매점,편의점,서울특별시 관악구 신림동 산56-1,서울특별시 관악구 관악로 1,37.46802955,126.9592795
641,25824,20466794,소매,종합소매점,편의점,서울특별시 강남구 논현동 10-5,서울특별시 강남구 논현로149길 35,37.5175947,127.0256276
642,25838,24907826,소매,종합소매점,편의점,서울특별시 송파구 방이동 213,서울특별시 송파구 마천로 22,37.50945872,127.1234495
643,25903,20390908,소매,종합소매점,편의점,서울특별시 서초구 서초동 1320-10,서울특별시 서초구 서초대로74길 11,37.49662862,127.0268953
644,25943,26249853,소매,종합소매점,편의점,서울특별시 종로구 명륜3가 72-7,서울특별시 종로구 성균관로5길 29,37.58454397,126.9957025
645,25978,23450474,소매,종합소매점,편의점,서울특별시 강서구 화곡동 377-3,서울특별시 강서구 화곡로20길 58,37.53781614,126.836695
646,26104,24550100,소매,종합소매점,편의점,서울특별시 용산구 용산동2가 1-704,서울특별시 용산구 신흥로 117,37.54470678,126.9828274
647,26222,4589247,소매,종합소매점,편의점,서울특별시 성북구 정릉동 16-138,서울특별시 성북구 정릉로38라길 17,37.60149548,127.0196307
648,26226,28362522,소매,종합소매점,편의점,서울특별시 강남구 대치동 950,서울특별시 강남구 영동대로85길 17,37.50687137,127.0622664
649,26272,26233949,소매,종합소매점,편의점,서울특별시 마포구 아현동 612,서울특별시 마포구 마포대로 210,37.5533532,126.9566002
650,26273,26241358,소매,종합소매점,편의점,서울특별시 강동구 고덕동 310,서울특별시 강동구 고덕로 253,37.55504023,127.1539271
651,26320,9031289,소매,종합소매점,편의점,서울특별시 종로구 평창동 1-5,서울특별시 종로구 평창44길 17,37.6149867,126.978518
652,26349,9113492,소매,종합소매점,편의점,서울특별시 종로구 평동 85-15,서울특별시 종로구 경교장길 8,37.56714931,126.9659503
653,26417,12228465,소매,종합소매점,편의점,서울특별시 마포구 공덕동 255-6,서울특별시 마포구 마포대로 108-1,37.54443594,126.9518585
654,26420,12442104,소매,종합소매점,편의점,서울특별시 송파구 가락동 35-10,서울특별시 송파구 양재대로66길 44,37.49958936,127.1255101
655,26424,12419964,소매,종합소매점,편의점,서울특별시 도봉구 창동 750-2,서울특별시 도봉구 도봉로136가길 4,37.65882831,127.0415559
656,26459,28430194,소매,종합소매점,편의점,서울특별시 중구 남대문로5가 537,서울특별시 중구 퇴계로 10,37.55626573,126.9743289
657,26468,19977896,소매,종합소매점,편의점,서울특별시 강서구 등촌동 78-7,서울특별시 강서구 양천로 492,37.56088596,126.854548
658,26496,23343730,소매,종합소매점,편의점,서울특별시 도봉구 쌍문동 419,서울특별시 도봉구 삼양로144길 33,37.64950255,127.0163709
659,26532,3724008,소매,종합소매점,편의점,서울특별시 강남구 논현동 105-4,서울특별시 강남구 도산대로46길 21,37.52083329,127.0370792
660,26566,24229796,소매,종합소매점,편의점,서울특별시 중구 명동1가 79-1,서울특별시 중구 명동길 3,37.56373352,126.9824442
661,26612,24859935,소매,종합소매점,편의점,서울특별시 중구 광희동2가 43-4,서울특별시 중구 퇴계로 327,37.56447337,127.0079705
662,26613,20770614,소매,종합소매점,편의점,서울특별시 양천구 목동 907-13,서울특별시 양천구 목동동로 387,37.53566522,126.8798265
663,26619,13869609,소매,종합소매점,편의점,서울특별시 동대문구 전농동 26-13,서울특별시 동대문구 전농로 124,37.57588381,127.0578582
664,26633,22575331,소매,종합소매점,편의점,서울특별시 중랑구 상봉동 101,서울특별시 중랑구 망우로 316,37.59651673,127.0875506
665,26643,26245375,소매,종합소매점,편의점,서울특별시 성북구 삼선동2가 290,서울특별시 성북구 삼선교로14길 86-1,37.58432563,127.0103905
666,26670,24432921,소매,종합소매점,편의점,서울특별시 송파구 방이동 226-7,서울특별시 송파구 오금로 247,37.50639306,127.1207482
667,26671,3738977,소매,종합소매점,편의점,서울특별시 서초구 양재동 18,서울특별시 서초구 강남대로30길 46,37.48224376,127.0396212
668,26686,24198877,소매,종합소매점,편의점,서울특별시 강북구 수유동 2-1,서울특별시 강북구 노해로 23,37.63772385,127.0226106
669,26688,2980151,소매,종합소매점,편의점,서울특별시 구로구 신도림동 375-1,서울특별시 구로구 경인로65길 44,37.50955645,126.8849447
670,26699,3287139,소매,종합소매점,편의점,서울특별시 동작구 흑석동 6-5,서울특별시 동작구 현충로 92,37.50805968,126.9639948
671,26792,24466403,소매,종합소매점,편의점,서울특별시 성북구 동소문동5가 118-9,서울특별시 성북구 보문로38길 53,37.59064063,127.0167045
672,26794,3156058,소매,종합소매점,편의점,서울특별시 마포구 대흥동 18-1,서울특별시 마포구 대흥로 169,37.55408505,126.9456685
673,26804,20535759,소매,종합소매점,편의점,서울특별시 강남구 역삼동 813-18,서울특별시 강남구 강남대로102길 11,37.50191631,127.0267136
674,26815,22562038,소매,종합소매점,편의점,서울특별시 중구 신당동 365-13,서울특별시 중구 다산로 101,37.5532664,127.0092848
675,26828,9012620,소매,종합소매점,편의점,서울특별시 강동구 천호동 451-20,서울특별시 강동구 천호대로 1057,37.53724676,127.1294609
676,26863,20878532,소매,종합소매점,편의점,서울특별시 도봉구 창동 569-78,서울특별시 도봉구 덕릉로58길 15,37.63858065,127.0391647
677,26882,26235270,소매,종합소매점,편의점,서울특별시 강동구 길동 321-6,서울특별시 강동구 양재대로122가길 46,37.54400596,127.1431882
678,26926,12441691,소매,종합소매점,편의점,서울특별시 성동구 성수동2가 840,서울특별시 성동구 뚝섬로 436,37.53669817,127.0591095
679,26953,22513291,소매,종합소매점,편의점,서울특별시 서초구 방배동 437-15,서울특별시 서초구 방배천로2안길 125,37.48259829,126.9839753
680,26958,12339473,소매,종합소매점,편의점,서울특별시 송파구 문정동 618,서울특별시 송파구 송파대로 111,37.47961708,127.1248723
681,27001,20020680,소매,종합소매점,편의점,서울특별시 용산구 이촌동 302-82,서울특별시 용산구 이촌로 196,37.52114913,126.9688254
682,27002,20025266,소매,종합소매점,편의점,서울특별시 강남구 대치동 957-6,서울특별시 강남구 삼성로86길 16,37.5057443,127.0587743
683,27014,26234759,소매,종합소매점,편의점,서울특별시 송파구 마천동 306-9,서울특별시 송파구 마천로61다길 14,37.49441547,127.1524628
684,27046,3771720,소매,종합소매점,편의점,서울특별시 강남구 대치동 1021-10,서울특별시 강남구 삼성로 237,37.4983451,127.0608463
685,27066,2956704,소매,종합소매점,편의점,서울특별시 은평구 증산동 158-1,서울특별시 은평구 증산서길 159,37.58870618,126.9122646
686,27075,24157411,소매,종합소매점,편의점,서울특별시 동대문구 장안동 365-5,서울특별시 동대문구 장한로20길 7,37.56920786,127.0704622
687,27081,22813266,소매,종합소매점,편의점,서울특별시 서대문구 연희동 188-7,서울특별시 서대문구 연희로 85,37.56598989,126.9298798
688,27088,26238869,소매,종합소매점,편의점,서울특별시 서대문구 홍은동 421-14,서울특별시 서대문구 명지대길 24,37.5814511,126.9248581
689,27089,26247604,소매,종합소매점,편의점,서울특별시 용산구 보광동 238-1,서울특별시 용산구 우사단로2길 12,37.53055873,126.9973885
690,27119,23988864,소매,종합소매점,편의점,서울특별시 강북구 수유동 50-1,서울특별시 강북구 도봉로77길 25,37.63358085,127.0217359
691,27148,26250311,소매,종합소매점,편의점,서울특별시 서초구 양재동 110-10,서울특별시 서초구 강남대로23길 12,37.4770667,127.0379011
692,27149,26243848,소매,종합소매점,편의점,서울특별시 종로구 창신동 592-7,서울특별시 종로구 창신6길 2,37.57484042,127.0107198
693,27175,12338743,소매,종합소매점,편의점,서울특별시 광진구 중곡동 102-11,서울특별시 광진구 영화사로3가길 25,37.55741305,127.0936302
694,27224,3784656,소매,종합소매점,편의점,서울특별시 서초구 양재동 217,서울특별시 서초구 양재대로11길 36,37.46182708,127.0353609
695,27230,12441856,소매,종합소매점,편의점,서울특별시 강북구 수유동 48-74,서울특별시 강북구 삼양로80나길 69,37.63406922,127.0208684
696,27278,24059045,소매,종합소매점,편의점,서울특별시 용산구 갈월동 93-30,서울특별시 용산구 한강대로77길 12,37.54219711,126.9718737
697,27290,5728184,소매,종합소매점,편의점,서울특별시 송파구 오금동 46-4,서울특별시 송파구 오금로35길 18,37.50450476,127.1273529
698,27291,20016041,소매,종합소매점,편의점,서울특별시 서초구 서초동 1571-5,서울특별시 서초구 반포대로28길 63,37.49168224,127.0117498
699,27335,20383983,소매,종합소매점,편의점,서울특별시 동작구 상도동 180-2,서울특별시 동작구 장승배기로 71,37.50397393,126.9391804
700,27369,20660168,소매,종합소매점,편의점,서울특별시 구로구 구로동 212-13,서울특별시 구로구 디지털로 271,37.48330007,126.8935778
701,27371,9113198,소매,종합소매점,편의점,서울특별시 구로구 개봉동 92-10,서울특별시 구로구 고척로 121,37.50204085,126.8473046
702,27389,4088311,소매,종합소매점,편의점,서울특별시 중구 흥인동 86,서울특별시 중구 다산로 258,37.56594086,127.0164407
703,27391,9008976,소매,종합소매점,편의점,서울특별시 마포구 상암동 1590,서울특별시 마포구 월드컵북로 434,37.58161368,126.8860333
704,27402,22867726,소매,종합소매점,편의점,서울특별시 서대문구 창천동 52-150,서울특별시 서대문구 연세로11길 16,37.559025,126.9358763
705,27443,4354673,소매,종합소매점,편의점,서울특별시 송파구 거여동 348,서울특별시 송파구 양산로8길 5,37.49195237,127.1445182
706,27469,20314135,소매,종합소매점,편의점,서울특별시 송파구 삼전동 49-4,서울특별시 송파구 백제고분로 232,37.50282508,127.0921868
707,27584,22766902,소매,종합소매점,편의점,서울특별시 용산구 용산동2가 39-16,서울특별시 용산구 신흥로7길 1,37.54191478,126.9871653
708,27589,22660712,소매,종합소매점,편의점,서울특별시 강남구 논현동 165-8,서울특별시 강남구 강남대로 492,37.5062018,127.0241018
709,27630,22846997,소매,종합소매점,편의점,서울특별시 영등포구 영등포동3가 13-2,서울특별시 영등포구 영중로10길 40,37.51834737,126.9096895
710,27644,24157650,소매,종합소매점,편의점,서울특별시 은평구 진관동 20,서울특별시 은평구 진관3로 70,37.64239753,126.9229605
711,27647,3764511,소매,종합소매점,편의점,서울특별시 노원구 공릉동 215-4,서울특별시 노원구 노원로 75,37.62880828,127.0826696
712,27661,24658269,소매,종합소매점,편의점,서울특별시 구로구 신도림동 413-9,서울특별시 구로구 경인로 610,37.50546526,126.8839424
713,27695,10085207,소매,종합소매점,편의점,서울특별시 용산구 이태원동 243-37,서울특별시 용산구 회나무로44길 46,37.53946997,126.9952551
714,27714,24519423,소매,종합소매점,편의점,서울특별시 용산구 갈월동 89-9,서울특별시 용산구 한강대로 283,37.54343208,126.971936
715,27726,24611723,소매,종합소매점,편의점,서울특별시 마포구 염리동 161-7,서울특별시 마포구 독막로 291,37.54473048,126.945472
716,27737,12228150,소매,종합소매점,편의점,서울특별시 중랑구 상봉동 130-47,서울특별시 중랑구 중랑천로12길 50,37.59288302,127.0756485
717,27739,22823712,소매,종합소매점,편의점,서울특별시 관악구 신림동 727-31,서울특별시 관악구 미성3길 17,37.47383057,126.9169729
718,27754,22512929,소매,종합소매점,편의점,서울특별시 관악구 신림동 1433-114,서울특별시 관악구 남부순환로 1589,37.48422259,126.9271689
719,27856,24220036,소매,종합소매점,편의점,서울특별시 성북구 하월곡동 67-13,서울특별시 성북구 오패산로 12,37.60343719,127.0376916
720,27861,9969327,소매,종합소매점,편의점,서울특별시 종로구 숭인동 296-19,서울특별시 종로구 종로58가길 27,37.57243951,127.0166948
721,27866,25181118,소매,종합소매점,편의점,서울특별시 강북구 수유동 29-1,서울특별시 강북구 삼각산로28길 37,37.63934269,127.020074
722,27869,12228099,소매,종합소매점,편의점,서울특별시 서초구 방배동 464-31,서울특별시 서초구 청두곶길 41,37.4803475,126.9852382
723,27883,8972030,소매,종합소매점,편의점,서울특별시 성북구 석관동 76-1,서울특별시 성북구 한천로76가길 27,37.61001828,127.0650276
724,27924,26247092,소매,종합소매점,편의점,서울특별시 마포구 중동 355-2,서울특별시 마포구 성암로3길 27,37.5682603,126.9111357
725,27930,20000266,소매,종합소매점,편의점,서울특별시 관악구 신림동 514-20,서울특별시 관악구 난곡로 348,37.48502224,126.9140976
726,27959,20590191,소매,종합소매점,편의점,서울특별시 성북구 하월곡동 88-64,서울특별시 성북구 동소문로44길 43,37.60652198,127.0303808
727,27960,24566596,소매,종합소매점,편의점,서울특별시 서대문구 창천동 57-66,서울특별시 서대문구 연세로5나길 30-2,37.55702304,126.9346938
728,28013,9113551,소매,종합소매점,편의점,서울특별시 중구 신당동 373-12,서울특별시 중구 동호로 174,37.5538725,127.0117214
729,28053,12446127,소매,종합소매점,편의점,서울특별시 관악구 봉천동 1718,서울특별시 관악구 은천로 93,37.48719731,126.9453202
730,28054,12445967,소매,종합소매점,편의점,서울특별시 강동구 천호동 209-3,서울특별시 강동구 천중로32길 29,37.54178115,127.1346474
731,28058,23208059,소매,종합소매점,편의점,서울특별시 중구 신당동 249-68,서울특별시 중구 퇴계로 383,37.56529948,127.0140833
732,28129,23496056,소매,종합소매점,편의점,서울특별시 동대문구 전농동 620-56,서울특별시 동대문구 왕산로 180,37.57924614,127.0434714
733,28133,22987328,소매,종합소매점,편의점,서울특별시 마포구 대흥동 20-10,서울특별시 마포구 대흥로21길 11,37.55329669,126.9451703
734,28173,28451241,소매,종합소매점,편의점,서울특별시 영등포구 신길동 233-145,서울특별시 영등포구 신길로42길 20,37.50735556,126.9127223
735,28193,23300142,소매,종합소매점,편의점,서울특별시 성북구 정릉동 45-39,서울특별시 성북구 북악산로 842,37.59919061,127.0176792
736,28199,12228079,소매,종합소매점,편의점,서울특별시 은평구 진관동 81,서울특별시 은평구 진관2로 57-7,37.63433503,126.9231449
737,28220,12107131,소매,종합소매점,편의점,서울특별시 강동구 성내동 534-7,서울특별시 강동구 성내로9길 35,37.53047441,127.1250704
738,28243,25249845,소매,종합소매점,편의점,서울특별시 성북구 석관동 408,서울특별시 성북구 화랑로 210-26,37.60723326,127.0536234
739,28283,22513902,소매,종합소매점,편의점,서울특별시 양천구 신정동 327,서울특별시 양천구 목동동로 100,37.51497204,126.8651139
740,28284,23233381,소매,종합소매점,편의점,서울특별시 노원구 중계동 359-15,서울특별시 노원구 중계로 220,37.65086508,127.0756669
741,28344,25447995,소매,종합소매점,편의점,서울특별시 강남구 대치동 920-8,서울특별시 강남구 선릉로72길 20,37.50033547,127.0528254
742,28362,12424099,소매,종합소매점,편의점,서울특별시 관악구 봉천동 180-549,서울특별시 관악구 인헌16길 47,37.46924676,126.9655255
743,28395,3939633,소매,종합소매점,편의점,서울특별시 마포구 도화동 556,서울특별시 마포구 마포대로 73,37.54230161,126.9489463
744,28411,24629719,소매,종합소매점,편의점,서울특별시 서초구 방배동 777-21,서울특별시 서초구 방배중앙로 154,37.49278537,126.9866757
745,28446,24514955,소매,종합소매점,편의점,서울특별시 마포구 상암동 1689,서울특별시 마포구 상암산로1길 57,37.57996634,126.8852427
746,28464,12423219,소매,종합소매점,편의점,서울특별시 서대문구 남가좌동 197-5,서울특별시 서대문구 모래내로15길 50,37.57387096,126.9196577
747,28481,23478337,소매,종합소매점,편의점,서울특별시 강서구 화곡동 95-4,서울특별시 강서구 화곡로 233,37.54605892,126.8447826
748,28491,20790470,소매,종합소매점,편의점,서울특별시 강남구 대치동 935-36,서울특별시 강남구 도곡로63길 12,37.49778896,127.0543843
749,28509,22834671,소매,종합소매점,편의점,서울특별시 영등포구 대림동 691,서울특별시 영등포구 도림로47길 35-1,37.49828118,126.8990114
750,28582,12328628,소매,종합소매점,편의점,서울특별시 동대문구 휘경동 294-317,서울특별시 동대문구 망우로18다길 37,37.58567596,127.060973
751,28603,24435717,소매,종합소매점,편의점,서울특별시 강남구 역삼동 690-2,서울특별시 강남구 봉은사로44길 39,37.50687451,127.0413304
752,28613,12423751,소매,종합소매점,편의점,서울특별시 마포구 상수동 345-3,서울특별시 마포구 와우산로 12,37.54558308,126.9231328
753,28642,3931280,소매,종합소매점,편의점,서울특별시 강남구 일원동 660-6,서울특별시 강남구 양재대로43길 6,37.49058115,127.0853692
754,28684,24415406,소매,종합소매점,편의점,서울특별시 마포구 당인동 12-1,서울특별시 마포구 어울마당로 26,37.54749092,126.9199141
755,28722,24040987,소매,종합소매점,편의점,서울특별시 강남구 도곡동 180-43,서울특별시 강남구 남부순환로377길 6,37.48692063,127.0452265
756,28742,12446287,소매,종합소매점,편의점,서울특별시 성동구 상왕십리동 811,서울특별시 성동구 마장로 137,37.5678143,127.0250417
757,28751,4531427,소매,종합소매점,편의점,서울특별시 강남구 일원동 680-4,서울특별시 강남구 양재대로33길 6,37.48994292,127.0832397
758,28820,22381381,소매,종합소매점,편의점,서울특별시 도봉구 창동 14,서울특별시 도봉구 노해로69길 26,37.65366898,127.0509151
759,28822,28281256,소매,종합소매점,편의점,서울특별시 강서구 등촌동 523-28,서울특별시 강서구 등촌로51가길 52,37.54669375,126.8619059
760,28844,24589130,소매,종합소매점,편의점,서울특별시 성북구 석관동 321-5,서울특별시 성북구 돌곶이로8길 5,37.60701682,127.0614976
761,28881,25127653,소매,종합소매점,편의점,서울특별시 양천구 신월동 150-1,서울특별시 양천구 가로공원로 82,37.53515034,126.8249917
762,28882,3811735,소매,종합소매점,편의점,서울특별시 강서구 등촌동 696-1,서울특별시 강서구 공항대로41길 43,37.55989699,126.8455197
763,28920,14447057,소매,종합소매점,편의점,서울특별시 구로구 개봉동 170-33,서울특별시 구로구 경인로 352,37.4965595,126.8590597
764,28926,24807665,소매,종합소매점,편의점,서울특별시 용산구 문배동 40-39,서울특별시 용산구 청파로 205-26,37.53889956,126.969837
765,28972,12448256,소매,종합소매점,편의점,서울특별시 노원구 상계동 321-12,서울특별시 노원구 노원로32길 19,37.65566386,127.0683202
766,29018,12107130,소매,종합소매점,편의점,서울특별시 송파구 문정동 56,서울특별시 송파구 송파대로20길 4,37.48554259,127.1231862
767,29024,12446240,소매,종합소매점,편의점,서울특별시 구로구 구로동 830-1,서울특별시 구로구 디지털로26길 98,37.48157815,126.8973344
768,29032,24519416,소매,종합소매점,편의점,서울특별시 양천구 신정동 296-93,서울특별시 양천구 신목로 50,37.51973076,126.8727682
769,29039,28444168,소매,종합소매점,편의점,서울특별시 강동구 상일동 502,서울특별시 강동구 상일로6길 39,37.54979434,127.1753307
770,29047,20443949,소매,종합소매점,편의점,서울특별시 광진구 중곡동 164-1,서울특별시 광진구 능동로 373,37.5627224,127.0822468
771,29120,3287640,소매,종합소매점,편의점,서울특별시 마포구 상암동 1630,서울특별시 마포구 월드컵북로43길 11,37.57465835,126.8956916
772,29135,24038505,소매,종합소매점,편의점,서울특별시 영등포구 영등포동3가 13-8,서울특별시 영등포구 영중로4길 31-2,37.51805971,126.9097615
773,29192,22533026,소매,종합소매점,편의점,서울특별시 도봉구 쌍문동 248-2,서울특별시 도봉구 시루봉로 88,37.65872669,127.0280362
774,29212,12448472,소매,종합소매점,편의점,서울특별시 은평구 갈현동 425-17,서울특별시 은평구 통일로87길 17-12,37.62290441,126.9176118
775,29224,24151818,소매,종합소매점,편의점,서울특별시 송파구 잠실동 246-10,서울특별시 송파구 백제고분로19길 18,37.50635494,127.0872127
776,29273,12424906,소매,종합소매점,편의점,서울특별시 관악구 봉천동 1728,서울특별시 관악구 행운10길 21,37.48226349,126.9620445
777,29336,22499663,소매,종합소매점,편의점,서울특별시 양천구 신정동 1020-1,서울특별시 양천구 은행정로 14,37.52086924,126.8599566
778,29360,24925001,소매,종합소매점,편의점,서울특별시 마포구 상수동 312-4,서울특별시 마포구 와우산로11길 28,37.54873894,126.9214012
779,29398,8973007,소매,종합소매점,편의점,서울특별시 용산구 청파동3가 80-7,서울특별시 용산구 청파로 247,37.54171561,126.9703867
780,29440,2944943,소매,종합소매점,편의점,서울특별시 동작구 대방동 417-10,서울특별시 동작구 여의대방로 130-1,37.49862434,126.9205731
781,29449,23512689,소매,종합소매점,편의점,서울특별시 은평구 응암동 123-25,서울특별시 은평구 불광천길 482,37.59539642,126.9157003
782,29461,24580127,소매,종합소매점,편의점,서울특별시 종로구 구기동 94,서울특별시 종로구 진흥로 456,37.60686393,126.9584241
783,29563,10833755,소매,종합소매점,편의점,서울특별시 성북구 길음동 1278,서울특별시 성북구 숭인로2길 61,37.60934256,127.0249529
784,29570,24322890,소매,종합소매점,편의점,서울특별시 마포구 서교동 480-1,서울특별시 마포구 동교로 92,37.55422461,126.9123812
785,29606,24915306,소매,종합소매점,편의점,서울특별시 중구 황학동 2484,서울특별시 중구 퇴계로 457,37.5656137,127.0226141
786,29631,24961001,소매,종합소매점,편의점,서울특별시 송파구 거여동 37,서울특별시 송파구 오금로 513,37.49321456,127.1458608
787,29722,12228418,소매,종합소매점,편의점,서울특별시 강남구 삼성동 156-13,서울특별시 강남구 삼성로100길 8,37.50947994,127.0560466
788,29730,25588094,소매,종합소매점,편의점,서울특별시 관악구 봉천동 34-41,서울특별시 관악구 관악로 227,37.48493375,126.9552458
789,29758,20598430,소매,종합소매점,편의점,서울특별시 강동구 천호동 453-15,서울특별시 강동구 천호대로 1033,37.53788593,127.1269414
790,29819,12448197,소매,종합소매점,편의점,서울특별시 동작구 노량진동 197,서울특별시 동작구 노량진로 202,37.5127859,126.9482179
791,29820,12448204,소매,종합소매점,편의점,서울특별시 중구 충무로2가 60-3,서울특별시 중구 삼일대로 299,37.56155955,126.9884501
792,29843,12228155,소매,종합소매점,편의점,서울특별시 은평구 신사동 151-1,서울특별시 은평구 증산로15길 69,37.59051948,126.9056821
793,29897,2899577,소매,종합소매점,편의점,서울특별시 성동구 성수동1가 704,서울특별시 성동구 뚝섬로 310,37.54077186,127.045751
794,29898,12328753,소매,종합소매점,편의점,서울특별시 강서구 마곡동 795-5,서울특별시 강서구 마곡중앙6로 85,37.56023543,126.8368558
795,30037,12422517,소매,종합소매점,편의점,서울특별시 영등포구 영등포동4가 144-1,서울특별시 영등포구 영등포로 198-1,37.52003715,126.9033978
796,30129,12426081,소매,종합소매점,편의점,서울특별시 용산구 이촌동 300-23,서울특별시 용산구 이촌로 248,37.51937378,126.9750038
797,30168,12421891,소매,종합소매점,편의점,서울특별시 서초구 방배동 851-6,서울특별시 서초구 방배로 174,37.48917255,126.9930456
798,30171,4602081,소매,종합소매점,편의점,서울특별시 서초구 방배동 924-10,서울특별시 서초구 방배로13길 10,37.4830963,126.9958522
799,30176,24479982,소매,종합소매점,편의점,서울특별시 중구 신당동 287-14,서울특별시 중구 청구로4길 15,37.56052424,127.0151989
800,30257,12338167,소매,종합소매점,편의점,서울특별시 동대문구 답십리동 12-266,서울특별시 동대문구 한천로 43,37.56594412,127.0611076
801,30264,24478884,소매,종합소매점,편의점,서울특별시 영등포구 도림동 819,서울특별시 영등포구 도영로 80,37.51130523,126.9004037
802,30271,22926134,소매,종합소매점,편의점,서울특별시 용산구 원효로3가 51-7,서울특별시 용산구 원효로 154,37.53441079,126.9604057
803,30276,12338136,소매,종합소매점,편의점,서울특별시 종로구 도렴동 65,서울특별시 종로구 새문안로5길 31,37.57297112,126.9743376
804,30324,12423674,소매,종합소매점,편의점,서울특별시 영등포구 도림동 251-8,서울특별시 영등포구 도신로 69,37.50633726,126.9000581
805,30345,23099055,소매,종합소매점,편의점,서울특별시 구로구 개봉동 63-35,서울특별시 구로구 고척로 101,37.50124553,126.8452133
806,30352,25087965,소매,종합소매점,편의점,서울특별시 은평구 응암동 111-42,서울특별시 은평구 은평로 90,37.59931805,126.9178969
807,30400,12437867,소매,종합소매점,편의점,서울특별시 동작구 사당동 220-85,서울특별시 동작구 사당로 193,37.48533349,126.969985
808,30450,12423941,소매,종합소매점,편의점,서울특별시 마포구 상암동 2-26,서울특별시 마포구 성암로 219-2,37.57883571,126.8953243
809,30464,20687222,소매,종합소매점,편의점,서울특별시 서초구 서초동 1625-5,서울특별시 서초구 사임당로10길 14,37.48802249,127.0158914
810,30571,3696560,소매,종합소매점,편의점,서울특별시 강동구 천호동 35-29,서울특별시 강동구 상암로 171,37.54616409,127.1413415
811,30582,24343446,소매,종합소매점,편의점,서울특별시 구로구 가리봉동 135-68,서울특별시 구로구 남부순환로105길 14,37.47934651,126.8918723
812,30583,20660309,소매,종합소매점,편의점,서울특별시 강남구 역삼동 720-25,서울특별시 강남구 언주로 427,37.50145198,127.0426664
813,30619,15962693,소매,종합소매점,편의점,서울특별시 구로구 개봉동 153-130,서울특별시 구로구 경서로1길 28,37.49934457,126.8554209
814,30633,12434107,소매,종합소매점,편의점,서울특별시 은평구 갈현동 430-17,서울특별시 은평구 통일로83길 23,37.62059424,126.9172261
815,30650,12423057,소매,종합소매점,편의점,서울특별시 종로구 소격동 144-17,서울특별시 종로구 북촌로5길 52,37.57966117,126.9821256
816,30663,12437954,소매,종합소매점,편의점,서울특별시 성북구 동선동3가 186,서울특별시 성북구 보문로34가길 51,37.59377704,127.020049
817,30693,23495924,소매,종합소매점,편의점,서울특별시 구로구 구로동 317-93,서울특별시 구로구 구로동로28길 93,37.4918077,126.888963
818,30739,23221481,소매,종합소매점,편의점,서울특별시 강서구 등촌동 507-1,서울특별시 강서구 등촌로 229-1,37.5502768,126.8634584
819,30742,12424178,소매,종합소매점,편의점,서울특별시 은평구 역촌동 81-1,서울특별시 은평구 연서로3길 23,37.60216503,126.9129633
820,30758,15992723,소매,종합소매점,편의점,서울특별시 마포구 공덕동 373-9,서울특별시 마포구 마포대로7길 23,37.54728298,126.95183
821,30815,15995583,소매,종합소매점,편의점,서울특별시 송파구 석촌동 175-12,서울특별시 송파구 백제고분로39길 10-20,37.50564173,127.1058837
822,30830,24005600,소매,종합소매점,편의점,서울특별시 송파구 잠실동 228-9,서울특별시 송파구 백제고분로 127,37.50645412,127.0814091
823,30851,12438667,소매,종합소매점,편의점,서울특별시 영등포구 신길동 355-165,서울특별시 영등포구 도림로 273,37.50217575,126.9040775
824,30854,24912436,소매,종합소매점,편의점,서울특별시 구로구 구로동 197-28,서울특별시 구로구 디지털로31길 41,37.48515736,126.8927363
825,30876,25341451,소매,종합소매점,편의점,서울특별시 강동구 천호동 49-22,서울특별시 강동구 양재대로121길 38,37.54287953,127.1394554
826,30915,12329866,소매,종합소매점,편의점,서울특별시 마포구 성산동 667,서울특별시 마포구 모래내로9길 6,37.56717183,126.9142645
827,30934,15966289,소매,종합소매점,편의점,서울특별시 강서구 등촌동 73-1,서울특별시 강서구 양천로 476,37.56158526,126.8532583
828,30946,20692190,소매,종합소매점,편의점,서울특별시 노원구 월계동 392-44,서울특별시 노원구 광운로15길 23,37.62154017,127.057928
829,30952,20845560,소매,종합소매점,편의점,서울특별시 마포구 망원동 455-37,서울특별시 마포구 희우정로 111,37.55466696,126.9007967
830,30958,13648549,소매,종합소매점,편의점,서울특별시 동대문구 제기동 200-2,서울특별시 동대문구 제기로4길 41,37.58458509,127.0329978
831,30964,12421341,소매,종합소매점,편의점,서울특별시 서대문구 북가좌동 418-22,서울특별시 서대문구 응암로 42,37.57711853,126.9092972
832,30968,12426439,소매,종합소매점,편의점,서울특별시 구로구 개봉동 57-20,서울특별시 구로구 고척로21가길 60,37.50141059,126.8427452
833,30969,24133379,소매,종합소매점,편의점,서울특별시 광진구 중곡동 98-18,서울특별시 광진구 자양로53길 50,37.55531738,127.0917768
834,31013,20790298,소매,종합소매점,편의점,서울특별시 강서구 방화동 607-214,서울특별시 강서구 방화동로 68,37.56642872,126.8127397
835,31018,12428239,소매,종합소매점,편의점,서울특별시 은평구 녹번동 95-18,서울특별시 은평구 녹번로 47,37.60572387,126.9296959
836,31053,20872104,소매,종합소매점,편의점,서울특별시 광진구 구의동 254-54,서울특별시 광진구 자양로 153,37.54159438,127.0836148
837,31076,24209299,소매,종합소매점,편의점,서울특별시 송파구 잠실동 40,서울특별시 송파구 올림픽로 212,37.51066377,127.0944673
838,31077,22904936,소매,종합소매점,편의점,서울특별시 노원구 중계동 360-13,서울특별시 노원구 한글비석로 231,37.64821198,127.0763004
839,31187,12425986,소매,종합소매점,편의점,서울특별시 강남구 역삼동 832-33,서울특별시 강남구 역삼로4길 16,37.49239049,127.0319938
840,31188,12425994,소매,종합소매점,편의점,서울특별시 강북구 미아동 100-43,서울특별시 강북구 도봉로18길 22,37.61789755,127.030924
841,31199,9113489,소매,종합소매점,편의점,서울특별시 중구 의주로1가 25-10,서울특별시 중구 통일로 114,37.56522924,126.9679124
842,31225,12426425,소매,종합소매점,편의점,서울특별시 구로구 오류동 56-41,서울특별시 구로구 경인로20가길 41,37.49602779,126.8460626
843,31233,26243294,소매,종합소매점,편의점,서울특별시 강남구 역삼동 601-15,서울특별시 강남구 봉은사로 114,37.50470453,127.0261005
844,31237,28363007,소매,종합소매점,편의점,서울특별시 성동구 성수동2가 223-11,서울특별시 성동구 성덕정길 128,37.53652364,127.0575615
845,31240,3819354,소매,종합소매점,편의점,서울특별시 마포구 합정동 388-32,서울특별시 마포구 월드컵로1길 40,37.549434,126.910742
846,31242,19996512,소매,종합소매점,편의점,서울특별시 성북구 성북동1가 35-1,서울특별시 성북구 성북로 11,37.58904601,127.0049043
847,31264,12423950,소매,종합소매점,편의점,서울특별시 마포구 노고산동 12-34,서울특별시 마포구 고산길 70,37.55449226,126.94083
848,31289,3661223,소매,종합소매점,편의점,서울특별시 영등포구 여의도동 14-27,서울특별시 영등포구 국회대로70길 12,37.52935245,126.9198589
849,31291,28449438,소매,종합소매점,편의점,서울특별시 광진구 중곡동 116-4,서울특별시 광진구 용마산로 9,37.55442454,127.0881659
850,31307,20485405,소매,종합소매점,편의점,서울특별시 강남구 청담동 5-25,서울특별시 강남구 도산대로 454,37.52369023,127.0460365
851,31319,20276274,소매,종합소매점,편의점,서울특별시 강남구 논현동 49,서울특별시 강남구 강남대로 570,37.51280738,127.020939
852,31327,12423793,소매,종합소매점,편의점,서울특별시 마포구 서교동 395-171,서울특별시 마포구 양화로10길 15,37.55101774,126.9173734
853,31328,12423828,소매,종합소매점,편의점,서울특별시 성북구 석관동 208-4,서울특별시 성북구 돌곶이로22길 46,37.61042395,127.0605147
854,31338,26236782,소매,종합소매점,편의점,서울특별시 종로구 청진동 70,서울특별시 종로구 종로 33,37.57095102,126.9814178
855,31346,24337710,소매,종합소매점,편의점,서울특별시 서초구 양재동 11-54,서울특별시 서초구 남부순환로350길 21,37.4838364,127.0360278
856,31417,20064217,소매,종합소매점,편의점,서울특별시 동작구 흑석동 43-94,서울특별시 동작구 현충로 114-1,37.50696163,126.9661929
857,31432,3763107,소매,종합소매점,편의점,서울특별시 은평구 응암동 585-18,서울특별시 은평구 가좌로 241-1,37.59096373,126.9157419
858,31463,26469265,소매,종합소매점,편의점,서울특별시 동대문구 장안동 330-5,서울특별시 동대문구 답십리로69길 11,37.5727111,127.0736677
859,31477,20505324,소매,종합소매점,편의점,서울특별시 금천구 시흥동 983-8,서울특별시 금천구 시흥대로 77,37.44106465,126.9029014
860,31495,12426384,소매,종합소매점,편의점,서울특별시 구로구 개봉동 153-120,서울특별시 구로구 경서로1나길 1,37.49869424,126.8561886
861,31613,22559910,소매,종합소매점,편의점,서울특별시 강남구 청담동 21-9,서울특별시 강남구 선릉로148길 32,37.52264065,127.0421582
862,31781,12425552,소매,종합소매점,편의점,서울특별시 서초구 신원동 214,서울특별시 서초구 청계산로 217,37.44626259,127.0573048
863,31820,12424566,소매,종합소매점,편의점,서울특별시 은평구 불광동 146-5,서울특별시 은평구 연서로34길 33,37.62202232,126.9295642
864,31845,3754236,소매,종합소매점,편의점,서울특별시 송파구 문정동 150,서울특별시 송파구 중대로 24,37.48811901,127.1110454
865,31916,23234593,소매,종합소매점,편의점,서울특별시 강남구 대치동 514,서울특별시 강남구 남부순환로 3104,37.49563217,127.0721553
866,31939,28350347,소매,종합소매점,편의점,서울특별시 종로구 숭인동 1392,서울특별시 종로구 난계로29가길 17,37.57370579,127.0227008
867,31945,12423625,소매,종합소매점,편의점,서울특별시 마포구 공덕동 476,서울특별시 마포구 백범로 152,37.54467543,126.9483924
868,31964,12421798,소매,종합소매점,편의점,서울특별시 강서구 마곡동 758,서울특별시 강서구 마곡서로 170,37.56929501,126.8254517
869,31980,24447451,소매,종합소매점,편의점,서울특별시 마포구 망원동 472-15,서울특별시 마포구 월드컵로 161,37.56195382,126.9044023
870,31997,12428629,소매,종합소매점,편의점,서울특별시 마포구 망원동 431-43,서울특별시 마포구 방울내로 38,37.55867998,126.9001945
871,32020,20669033,소매,종합소매점,편의점,서울특별시 성북구 안암동5가 1-2,서울특별시 성북구 안암로 145,37.58848499,127.0317018
872,32045,12425876,소매,종합소매점,편의점,서울특별시 서초구 서초동 1532-7,서울특별시 서초구 효령로 229,37.48386577,127.0090825
873,32097,27071065,소매,종합소매점,편의점,서울특별시 동대문구 이문동 264-210,서울특별시 동대문구 천장산로 31,37.59871469,127.0576609
874,32111,25475510,소매,종합소매점,편의점,서울특별시 강서구 등촌동 65-20,서울특별시 강서구 양천로 460,37.56257007,126.8516812
875,32134,15972325,소매,종합소매점,편의점,서울특별시 강북구 우이동 72-63,서울특별시 강북구 삼양로 518,37.64929349,127.0139939
876,32145,12425901,소매,종합소매점,편의점,서울특별시 서초구 서초동 1327-10,서울특별시 서초구 서초대로78길 30,37.49510536,127.0279329
877,32163,24559734,소매,종합소매점,편의점,서울특별시 동작구 노량진동 58-32,서울특별시 동작구 장승배기로28길 39,37.51245501,126.9424424
878,32177,26002403,소매,종합소매점,편의점,서울특별시 동대문구 장안동 347-9,서울특별시 동대문구 장한로18길 19,37.56775321,127.0699596
879,32178,22581141,소매,종합소매점,편의점,서울특별시 종로구 혜화동 201,서울특별시 종로구 동숭길 140,37.58366488,127.0025416
880,32183,25479223,소매,종합소매점,편의점,서울특별시 광진구 자양동 497-10,서울특별시 광진구 뚝섬로36길 48-1,37.53236324,127.0703766
881,32188,15997655,소매,종합소매점,편의점,서울특별시 마포구 공덕동 371,서울특별시 마포구 마포대로 115-12,37.5456819,126.9511282
882,32241,12424699,소매,종합소매점,편의점,서울특별시 은평구 대조동 50-43,서울특별시 은평구 서오릉로10길 22,37.61198895,126.9201259
883,32257,24599754,소매,종합소매점,편의점,서울특별시 강북구 미아동 55-59,서울특별시 강북구 도봉로10가길 5,37.61332884,127.0308701
884,32261,12425948,소매,종합소매점,편의점,서울특별시 서초구 서초동 1693-3,서울특별시 서초구 서초중앙로 138,37.49423264,127.0139553
885,32331,12426888,소매,종합소매점,편의점,서울특별시 송파구 마천동 128-12,서울특별시 송파구 마천로51길 1,37.49565233,127.1502888
886,32374,23300056,소매,종합소매점,편의점,서울특별시 송파구 가락동 127-20,서울특별시 송파구 송이로27길 6,37.4931042,127.1258458
887,32375,12329742,소매,종합소매점,편의점,서울특별시 은평구 역촌동 14-55,서울특별시 은평구 서오릉로9길 14-1,37.60685479,126.9203134
888,32461,12423284,소매,종합소매점,편의점,서울특별시 은평구 증산동 189-30,서울특별시 은평구 증산서길 93,37.58452446,126.9072871
889,32478,12423146,소매,종합소매점,편의점,서울특별시 마포구 성산동 148-51,서울특별시 마포구 월드컵북로 204,37.5689548,126.9063373
890,32480,27557349,소매,종합소매점,편의점,서울특별시 성동구 행당동 192-29,서울특별시 성동구 고산자로 284,37.56490119,127.0367839
891,32524,22490203,소매,종합소매점,편의점,서울특별시 영등포구 영등포동7가 52-4,서울특별시 영등포구 양산로31길 6,37.5231928,126.9045847
892,32551,24940945,소매,종합소매점,편의점,서울특별시 금천구 독산동 1050,서울특별시 금천구 시흥대로104길 54,37.46427277,126.9006407
893,32558,12107184,소매,종합소매점,편의점,서울특별시 강남구 논현동 176-11,서울특별시 강남구 봉은사로25길 37,37.50951699,127.0316822
894,32559,12107050,소매,종합소매점,편의점,서울특별시 구로구 온수동 75-4,서울특별시 구로구 부일로1길 110,37.49520291,126.8182221
895,32566,15996517,소매,종합소매점,편의점,서울특별시 마포구 서교동 394-14,서울특별시 마포구 양화로6길 39,37.54902648,126.916395
896,32588,12420336,소매,종합소매점,편의점,서울특별시 영등포구 영등포동8가 86,서울특별시 영등포구 영중로 169,37.53152548,126.9053454
897,32708,25497579,소매,종합소매점,편의점,서울특별시 송파구 가락동 48-7,서울특별시 송파구 송이로 79,37.49898169,127.1201226
898,32713,15963240,소매,종합소매점,편의점,서울특별시 광진구 자양동 633-14,서울특별시 광진구 자양로9길 70,37.53224923,127.0811381
899,32762,12425805,소매,종합소매점,편의점,서울특별시 중구 충무로3가 59-22,서울특별시 중구 수표로 14,37.56237069,126.9905785
900,32765,20028344,소매,종합소매점,편의점,서울특별시 강남구 대치동 891-26,서울특별시 강남구 삼성로85길 42,37.50462276,127.0537326
901,32780,24847639,소매,종합소매점,편의점,서울특별시 강남구 역삼동 606-18,서울특별시 강남구 논현로 565,37.50646167,127.0337915
902,32796,15997463,소매,종합소매점,편의점,서울특별시 강남구 신사동 561-31,서울특별시 강남구 도산대로 157,37.5190274,127.0256316
903,32820,3841630,소매,종합소매점,편의점,서울특별시 서초구 서초동 1315,서울특별시 서초구 서초대로 385,37.49785909,127.0220503
904,32823,15972262,소매,종합소매점,편의점,서울특별시 광진구 군자동 117-13,서울특별시 광진구 동일로52길 21,37.55454447,127.0723308
905,32824,15972269,소매,종합소매점,편의점,서울특별시 중구 정동 5-1,서울특별시 중구 세종대로 99,37.56639116,126.9740656
906,32854,12338663,소매,종합소매점,편의점,서울특별시 구로구 개봉동 202-19,서울특별시 구로구 남부순환로97길 20-10,37.49386955,126.8585578
907,32855,26000919,소매,종합소매점,편의점,서울특별시 중구 남대문로5가 84-11,서울특별시 중구 통일로 10,37.5570885,126.9736159
908,32863,12433543,소매,종합소매점,편의점,서울특별시 영등포구 대림동 703-2,서울특별시 영등포구 대림로23길 13,37.49333522,126.8990953
909,32909,12421597,소매,종합소매점,편의점,서울특별시 마포구 신수동 442-1,서울특별시 마포구 토정로 233,37.5441459,126.9365518
910,32967,20021164,소매,종합소매점,편의점,서울특별시 노원구 월계동 645-3,서울특별시 노원구 초안산로2길 74,37.63194843,127.0569582
911,32974,4151854,소매,종합소매점,편의점,서울특별시 성북구 동소문동1가 61,서울특별시 성북구 성북로2길 47,37.58999318,127.0082433
912,32985,16011155,소매,종합소매점,편의점,서울특별시 성동구 행당동 192,서울특별시 성동구 왕십리로 300,37.56121473,127.036639
913,32986,24304970,소매,종합소매점,편의점,서울특별시 광진구 광장동 187-13,서울특별시 광진구 아차산로78길 153,37.54817897,127.1092462
914,33060,23306153,소매,종합소매점,편의점,서울특별시 강동구 고덕동 501,서울특별시 강동구 동남로81길 20,37.56054837,127.1555627
915,33078,12329861,소매,종합소매점,편의점,서울특별시 동작구 노량진동 261-2,서울특별시 동작구 노량진로8길 26,37.5125662,126.9367625
916,33093,12424246,소매,종합소매점,편의점,서울특별시 영등포구 신길동 449-22,서울특별시 영등포구 영등포로 400,37.51302204,126.9224358
917,33105,12422482,소매,종합소매점,편의점,서울특별시 송파구 문정동 643-1,서울특별시 송파구 법원로 114,37.48604895,127.1209979
918,33186,20807906,소매,종합소매점,편의점,서울특별시 영등포구 영등포동 618-496,서울특별시 영등포구 경인로 846,37.51566141,126.9076472
919,33192,15972505,소매,종합소매점,편의점,서울특별시 노원구 공릉동 111,서울특별시 노원구 화랑로51길 17,37.62306629,127.0893446
920,33253,12425804,소매,종합소매점,편의점,서울특별시 중구 을지로3가 5-7,서울특별시 중구 수표로 58,37.56639198,126.9898337
921,33255,20921162,소매,종합소매점,편의점,서울특별시 노원구 상계동 724,서울특별시 노원구 노해로 488,37.65431747,127.0621492
922,33256,12437218,소매,종합소매점,편의점,서울특별시 마포구 상암동 1597,서울특별시 마포구 월드컵북로54길 17,37.58131283,126.8885286
923,33286,12424186,소매,종합소매점,편의점,서울특별시 금천구 독산동 495-5,서울특별시 금천구 벚꽃로6길 21,37.4608342,126.8932872
924,33288,12423645,소매,종합소매점,편의점,서울특별시 용산구 청파동2가 92,서울특별시 용산구 청파로 289,37.54537203,126.9701779
925,33318,12423837,소매,종합소매점,편의점,서울특별시 종로구 당주동 128-17,서울특별시 종로구 새문안로3길 19,37.57201781,126.9724714
926,33403,15647534,소매,종합소매점,편의점,서울특별시 영등포구 당산동 121-227,서울특별시 영등포구 버드나루로17길 8,37.5273825,126.9074876
927,33446,12422739,소매,종합소매점,편의점,서울특별시 영등포구 양평동4가 27,서울특별시 영등포구 선유동2로 75,37.53513473,126.8981417
928,33448,12423401,소매,종합소매점,편의점,서울특별시 마포구 노고산동 12-74,서울특별시 마포구 고산길 32,37.55377115,126.9387918
929,33451,12425323,소매,종합소매점,편의점,서울특별시 종로구 통의동 66,서울특별시 종로구 자하문로 18-1,37.57781011,126.9723126
930,33463,25494705,소매,종합소매점,편의점,서울특별시 강동구 상일동 502,서울특별시 강동구 상일로6길 39,37.54979434,127.1753307
931,33482,22556084,소매,종합소매점,편의점,서울특별시 강북구 번동 418-9,서울특별시 강북구 도봉로 350,37.6385594,127.0266787
932,33486,15996683,소매,종합소매점,편의점,서울특별시 동작구 사당동 1003-40,서울특별시 동작구 사당로28길 6,37.48416388,126.979533
933,33499,12423279,소매,종합소매점,편의점,서울특별시 은평구 응암동 695-11,서울특별시 은평구 가좌로7길 28-1,37.58602989,126.9181233
934,33505,12328973,소매,종합소매점,편의점,서울특별시 노원구 월계동 947,서울특별시 노원구 월계로45길 21,37.62561351,127.0512607
935,33521,15993875,소매,종합소매점,편의점,서울특별시 강남구 압구정동 380-2,서울특별시 강남구 압구정로11길 37-30,37.52770162,127.0176671
936,33537,12423287,소매,종합소매점,편의점,서울특별시 마포구 연남동 239-46,서울특별시 마포구 성미산로 158,37.56439376,126.9237903
937,33592,12328978,소매,종합소매점,편의점,서울특별시 서대문구 남가좌동 343-27,서울특별시 서대문구 증가로10길 17,37.57831876,126.9232389
938,33607,16011098,소매,종합소매점,편의점,서울특별시 강남구 논현동 241-3,서울특별시 강남구 학동로 342,37.51668092,127.0405828
939,33649,20694791,소매,종합소매점,편의점,서울특별시 서대문구 충정로3가 1-35,서울특별시 서대문구 경기대로9길 50,37.56414501,126.9614075
940,33673,12329883,소매,종합소매점,편의점,서울특별시 은평구 응암동 598-1,서울특별시 은평구 응암로 181,37.58819546,126.9164954
941,33780,12424349,소매,종합소매점,편의점,서울특별시 은평구 갈현동 451-18,서울특별시 은평구 연서로29길 35,37.61988384,126.9163982
942,33785,25116155,소매,종합소매점,편의점,서울특별시 동작구 사당동 1027-37,서울특별시 동작구 사당로28길 56,37.47962017,126.9792556
943,33819,9630434,소매,종합소매점,편의점,서울특별시 마포구 망원동 473-2,서울특별시 마포구 월드컵로31길 11,37.56153636,126.9040801
944,33823,12423267,소매,종합소매점,편의점,서울특별시 마포구 공덕동 29-5,서울특별시 마포구 만리재로 111,37.55006111,126.9603128
945,33853,12437980,소매,종합소매점,편의점,서울특별시 송파구 문정동 651,서울특별시 송파구 송파대로 167,37.4845513,127.1207441
946,33855,15966206,소매,종합소매점,편의점,서울특별시 양천구 신월동 962-4,서울특별시 양천구 남부순환로66길 17,37.52279799,126.8341679
947,33861,23261545,소매,종합소매점,편의점,서울특별시 강남구 삼성동 162-13,서울특별시 강남구 봉은사로 638,37.51481381,127.0650629
948,33868,12425954,소매,종합소매점,편의점,서울특별시 마포구 상수동 91-2,서울특별시 마포구 와우산로 53,37.54924777,126.9228538
949,33877,22904887,소매,종합소매점,편의점,서울특별시 용산구 도원동 8-24,서울특별시 용산구 새창로12길 4,37.53938964,126.9579151
950,33902,12329118,소매,종합소매점,편의점,서울특별시 노원구 월계동 780,서울특별시 노원구 월계로45가길 89,37.63180673,127.0505248
951,33914,12422913,소매,종합소매점,편의점,서울특별시 영등포구 당산동4가 31-2,서울특별시 영등포구 당산로 180,37.53027111,126.899322
952,33927,12440342,소매,종합소매점,편의점,서울특별시 동작구 상도동 509-1,서울특별시 동작구 사당로 54,37.49456605,126.9603589
953,33968,12440486,소매,종합소매점,편의점,서울특별시 마포구 대흥동 325-78,서울특별시 마포구 독막로 241,37.54691161,126.9405073
954,33972,15963029,소매,종합소매점,편의점,서울특별시 양천구 신정동 761-82,서울특별시 양천구 남부순환로88길 14,37.51188227,126.8401517
955,33990,9040586,소매,종합소매점,편의점,서울특별시 서초구 양재동 321-2,서울특별시 서초구 강남대로12길 49,37.47100364,127.0413591
956,33995,26287449,소매,종합소매점,편의점,서울특별시 동작구 상도동 365-7,서울특별시 동작구 상도로15길 120,37.50457,126.9373284
957,34115,15996092,소매,종합소매점,편의점,서울특별시 강서구 화곡동 367-62,서울특별시 강서구 가로공원로 238,37.5381944,126.842177
958,34134,26002300,소매,종합소매점,편의점,서울특별시 서초구 양재동 221,서울특별시 서초구 양재대로11길 19,37.46155842,127.03446
959,34139,25367604,소매,종합소매점,편의점,서울특별시 종로구 무악동 60,서울특별시 종로구 통일로18길 9,37.57766106,126.9553328
960,34142,3670334,소매,종합소매점,편의점,서울특별시 송파구 방이동 70,서울특별시 송파구 올림픽로32길 29,37.51343016,127.1098969
961,34160,24115308,소매,종합소매점,편의점,서울특별시 종로구 원서동 45,서울특별시 종로구 창덕궁길 120,37.58280482,126.9893516
962,34196,12424522,소매,종합소매점,편의점,서울특별시 은평구 신사동 4-19,서울특별시 은평구 은평로 33-8,37.59870737,126.9112584
963,34200,23080000,소매,종합소매점,편의점,서울특별시 관악구 신림동 11-18,서울특별시 관악구 남부순환로 1626-1,37.48418812,126.9313191
964,34235,25489868,소매,종합소매점,편의점,서울특별시 강서구 내발산동 653,서울특별시 강서구 강서로 360,37.55768248,126.8383782
965,34301,8783897,소매,종합소매점,편의점,서울특별시 용산구 한남동 737-24,서울특별시 용산구 이태원로 223,37.53546104,126.9985223
966,34314,26285152,소매,종합소매점,편의점,서울특별시 광진구 능동 315-9,서울특별시 광진구 능동로 246,37.55194119,127.0770258
967,34317,24569497,소매,종합소매점,편의점,서울특별시 용산구 후암동 399-25,서울특별시 용산구 두텁바위로 108,37.54864008,126.9823326
968,34338,12422983,소매,종합소매점,편의점,서울특별시 영등포구 영등포동6가 8-3,서울특별시 영등포구 영중로 59,37.52167087,126.9046748
969,34447,22390860,소매,종합소매점,편의점,서울특별시 중랑구 상봉동 88-93,서울특별시 중랑구 봉우재로33길 72,37.59520597,127.0893332
970,34485,20747720,소매,종합소매점,편의점,서울특별시 강서구 내발산동 665,서울특별시 강서구 강서로50길 16,37.55513906,126.8381234
971,34490,4188966,소매,종합소매점,편의점,서울특별시 강남구 대치동 447,서울특별시 강남구 삼성로 223,37.49689155,127.0616222
972,34496,15995479,소매,종합소매점,편의점,서울특별시 영등포구 대림동 1116-8,서울특별시 영등포구 도림천로 375,37.49146959,126.8961487
973,34523,20019474,소매,종합소매점,편의점,서울특별시 강남구 역삼동 775-5,서울특별시 강남구 도곡로27길 47,37.4958722,127.0412788
974,34543,3822454,소매,종합소매점,편의점,서울특별시 중랑구 묵동 377,서울특별시 중랑구 동일로157길 59,37.60922648,127.0743137
975,34545,25490186,소매,종합소매점,편의점,서울특별시 광진구 구의동 587,서울특별시 광진구 강변역로 2,37.53774175,127.0899419
976,34550,12452082,소매,종합소매점,편의점,서울특별시 용산구 이태원동 277-6,서울특별시 용산구 회나무로 17,37.53913515,126.9887532
977,34569,24495778,소매,종합소매점,편의점,서울특별시 양천구 신월동 1029,서울특별시 양천구 신월로20길 33,37.51818501,126.8461287
978,34571,12459559,소매,종합소매점,편의점,서울특별시 강동구 명일동 312-87,서울특별시 강동구 양재대로 1629,37.55104656,127.1436508
979,34572,12459562,소매,종합소매점,편의점,서울특별시 강동구 명일동 260-1,서울특별시 강동구 상암로 224,37.54616961,127.1483238
980,34592,12326472,소매,종합소매점,편의점,서울특별시 마포구 성산동 592,서울특별시 마포구 월드컵로 190,37.56341265,126.9033395
981,34605,20930951,소매,종합소매점,편의점,서울특별시 서초구 방배동 1018-1,서울특별시 서초구 효령로34길 59,37.4791021,127.0008691
982,34655,3886759,소매,종합소매점,편의점,서울특별시 관악구 봉천동 1722,서울특별시 관악구 남부순환로 1979,37.47561689,126.9685808
983,34694,12424329,소매,종합소매점,편의점,서울특별시 용산구 원효로2가 70-2,서울특별시 용산구 원효로 178,37.53558429,126.9626976
984,34709,12331882,소매,종합소매점,편의점,서울특별시 광진구 화양동 37-2,서울특별시 광진구 아차산로23길 67,37.54501696,127.0673225
985,34718,24531892,소매,종합소매점,편의점,서울특별시 마포구 성산동 245-31,서울특별시 마포구 성미산로 23,37.55872475,126.9108557
986,34745,5809231,소매,종합소매점,편의점,서울특별시 관악구 봉천동 702-108,서울특별시 관악구 보라매로3길 17,37.49121482,126.9261868
987,34762,24624717,소매,종합소매점,편의점,서울특별시 강동구 천호동 449-49,서울특별시 강동구 천호대로 1073,37.53655766,127.1313246
988,34764,15993597,소매,종합소매점,편의점,서울특별시 송파구 신천동 7-20,서울특별시 송파구 올림픽로35다길 42,37.51524359,127.1030543
989,34791,12335234,소매,종합소매점,편의점,서울특별시 강동구 둔촌동 94-18,서울특별시 강동구 진황도로61길 30,37.52868256,127.1449248
990,34880,12453162,소매,종합소매점,편의점,서울특별시 은평구 응암동 397-66,서울특별시 은평구 응암로22길 10,37.59355296,126.9190449
991,34884,25731007,소매,종합소매점,편의점,서울특별시 강남구 신사동 587-12,서울특별시 강남구 도산대로 215,37.52075872,127.0301681
992,34894,26000813,소매,종합소매점,편의점,서울특별시 서대문구 충정로2가 70,서울특별시 서대문구 경기대로 65,37.56487962,126.9640008
993,34901,24522268,소매,종합소매점,편의점,서울특별시 노원구 공릉동 415-65,서울특별시 노원구 공릉로41길 21,37.62457558,127.0783262
994,34946,12339624,소매,종합소매점,편의점,서울특별시 구로구 구로동 1259,서울특별시 구로구 구일로2길 60,37.48974893,126.8770636
995,34979,5841888,소매,종합소매점,편의점,서울특별시 양천구 신정동 995-1,서울특별시 양천구 목동로 185,37.52499198,126.8642155
996,35037,27936531,소매,종합소매점,편의점,서울특별시 영등포구 영등포동3가 13-2,서울특별시 영등포구 영중로10길 40,37.51834737,126.9096895
997,35057,21965536,소매,종합소매점,편의점,서울특별시 금천구 가산동 147-7,서울특별시 금천구 시흥대로153길 42,37.47719632,126.896076
998,35079,12457426,소매,종합소매점,편의점,서울특별시 서초구 잠원동 76-2,서울특별시 서초구 반포대로 310,37.50680744,127.0006244
999,35083,12339759,소매,종합소매점,편의점,서울특별시 강서구 화곡동 1115-8,서울특별시 강서구 공항대로46길 57,37.55349979,126.8520014
1000,35096,12452111,소매,종합소매점,편의점,서울특별시 강남구 대치동 991-10,서울특별시 강남구 삼성로58길 39,37.49945443,127.0643836
1001,35154,15996316,소매,종합소매점,편의점,서울특별시 영등포구 당산동2가 56,서울특별시 영등포구 선유동1로 6,37.52263094,126.8916849
1002,35156,24774917,소매,종합소매점,편의점,서울특별시 노원구 월계동 534-209,서울특별시 노원구 월계로44가길 19,37.62351166,127.0532018
1003,35166,21856710,소매,종합소매점,편의점,서울특별시 강동구 둔촌동 448,서울특별시 강동구 진황도로 153,37.53234419,127.1416584
1004,35170,15966181,소매,종합소매점,편의점,서울특별시 종로구 숭인동 81-15,서울특별시 종로구 지봉로 50,37.57452366,127.0159429
1005,35195,15994084,소매,종합소매점,편의점,서울특별시 강서구 내발산동 756,서울특별시 강서구 수명로2가길 22,37.5475896,126.8218768
1006,35206,25537788,소매,종합소매점,편의점,서울특별시 강남구 대치동 897-33,서울특별시 강남구 선릉로86길 16,37.50325827,127.0510015
1007,35239,15972602,소매,종합소매점,편의점,서울특별시 강남구 신사동 602,서울특별시 강남구 압구정로30길 45,37.52433848,127.0293864
1008,35301,12331942,소매,종합소매점,편의점,서울특별시 강동구 천호동 339-45,서울특별시 강동구 구천면로 155,37.54210382,127.1222074
1009,35333,4140255,소매,종합소매점,편의점,서울특별시 관악구 봉천동 148-129,서울특별시 관악구 솔밭로 24,37.47933169,126.9637132
1010,35375,12339652,소매,종합소매점,편의점,서울특별시 강북구 수유동 118-1,서울특별시 강북구 덕릉로 45,37.63463798,127.0188329
1011,35425,25489753,소매,종합소매점,편의점,서울특별시 동대문구 장안동 345-3,서울특별시 동대문구 장한로24길 20,37.57045419,127.071975
1012,35446,19975939,소매,종합소매점,편의점,서울특별시 용산구 이태원동 126-15,서울특별시 용산구 우사단로 46,37.53419467,126.9958237
1013,35469,17148633,소매,종합소매점,편의점,서울특별시 은평구 진관동 28,서울특별시 은평구 진관3로 15-35,37.64262631,126.917439
1014,35475,23197235,소매,종합소매점,편의점,서울특별시 영등포구 영등포동4가 442,서울특별시 영등포구 영중로 15,37.51721267,126.9039142
1015,35487,12435423,소매,종합소매점,편의점,서울특별시 동작구 신대방동 686-53,서울특별시 동작구 시흥대로 602,37.48600584,126.9044947
1016,35516,12456906,소매,종합소매점,편의점,서울특별시 송파구 삼전동 100-17,서울특별시 송파구 삼학사로13길 37,37.50383773,127.0926383
1017,35571,12454736,소매,종합소매점,편의점,서울특별시 중구 신당동 294-3,서울특별시 중구 다산로28길 25,37.55956849,127.0151209
1018,35574,12454802,소매,종합소매점,편의점,서울특별시 양천구 신정동 318-10,서울특별시 양천구 목동동로 189,37.52291227,126.8700279
1019,35588,15590251,소매,종합소매점,편의점,서울특별시 도봉구 창동 565-9,서울특별시 도봉구 덕릉로60길 26,37.63902067,127.0400881
1020,35623,24705727,소매,종합소매점,편의점,서울특별시 종로구 관철동 14-10,서울특별시 종로구 종로12길 7,37.56969197,126.9858837
1021,35691,23473593,소매,종합소매점,편의점,서울특별시 서대문구 홍은동 395-21,서울특별시 서대문구 모래내로 299,37.57846837,126.9307768
1022,35697,20509714,소매,종합소매점,편의점,서울특별시 용산구 청파동3가 114-3,서울특별시 용산구 청파로43길 70,37.54416195,126.9667771
1023,35711,15966835,소매,종합소매점,편의점,서울특별시 마포구 서교동 399-24,서울특별시 마포구 양화로6길 67,37.54869866,126.9179841
1024,35744,12113936,소매,종합소매점,편의점,서울특별시 성북구 동선동3가 259-6,서울특별시 성북구 동소문로32길 4,37.59660141,127.0216314
1025,35817,12457219,소매,종합소매점,편의점,서울특별시 송파구 송파동 15-4,서울특별시 송파구 송파대로 456,37.50718206,127.10582
1026,35881,12435332,소매,종합소매점,편의점,서울특별시 마포구 창전동 299,서울특별시 마포구 독막로 147-10,37.54797298,126.9303072
1027,35907,22819761,소매,종합소매점,편의점,서울특별시 영등포구 당산동6가 283,서울특별시 영등포구 당산로 246,37.53522047,126.903481
1028,35916,12457254,소매,종합소매점,편의점,서울특별시 강남구 역삼동 682-23,서울특별시 강남구 선릉로 571,37.50931035,127.0439234
1029,35962,25298382,소매,종합소매점,편의점,서울특별시 마포구 성산동 160-4,서울특별시 마포구 월드컵로36길 50,37.5682724,126.9056228
1030,35981,20023899,소매,종합소매점,편의점,서울특별시 강남구 도곡동 951-21,서울특별시 강남구 강남대로44길 21,37.4862539,127.0352504
1031,36002,12460063,소매,종합소매점,편의점,서울특별시 광진구 능동 144,서울특별시 광진구 능동로24길 74,37.55302225,127.0804644
1032,36014,12435446,소매,종합소매점,편의점,서울특별시 동작구 대방동 344-1,서울특별시 동작구 여의대방로54길 14,37.51191679,126.9267273
1033,36039,24309506,소매,종합소매점,편의점,서울특별시 영등포구 양평동1가 3,서울특별시 영등포구 선유로22길 12,37.52110159,126.8909836
1034,36069,9040931,소매,종합소매점,편의점,서울특별시 영등포구 당산동5가 7-54,서울특별시 영등포구 선유동2로 40,37.53236483,126.8967794
1035,36090,12339881,소매,종합소매점,편의점,서울특별시 종로구 동숭동 192-18,서울특별시 종로구 이화장길 78,37.57867266,127.0046234
1036,36096,12330249,소매,종합소매점,편의점,서울특별시 성북구 보문동7가 56,서울특별시 성북구 보문로13길 24,37.57994193,127.020638
1037,36114,12459659,소매,종합소매점,편의점,서울특별시 강동구 천호동 297-12,서울특별시 강동구 천중로 93,37.54473802,127.1323839
1038,36119,4202601,소매,종합소매점,편의점,서울특별시 강남구 신사동 588,서울특별시 강남구 도산대로33길 8,37.52117344,127.0301967
1039,36148,12457305,소매,종합소매점,편의점,서울특별시 중구 신당동 333-773,서울특별시 중구 다산로20길 46,37.55644602,127.0145395
1040,36149,12457307,소매,종합소매점,편의점,서울특별시 동대문구 답십리동 255-6,서울특별시 동대문구 전농로5길 20,37.57100355,127.0560291
1041,36158,12453034,소매,종합소매점,편의점,서울특별시 도봉구 방학동 713-14,서울특별시 도봉구 마들로 599,37.66385699,127.0461157
1042,36170,15993684,소매,종합소매점,편의점,서울특별시 중구 을지로3가 296-6,서울특별시 중구 을지로14길 21,37.56524989,126.9922036
1043,36187,23177929,소매,종합소매점,편의점,서울특별시 강동구 성내동 132-5,서울특별시 강동구 천호옛길 65,37.5349011,127.1241927
1044,36207,25489120,소매,종합소매점,편의점,서울특별시 서대문구 홍제동 6-23,서울특별시 서대문구 세검정로4가길 18,37.59442223,126.9504671
1045,36211,12326756,소매,종합소매점,편의점,서울특별시 종로구 효제동 248-1,서울특별시 종로구 대학로 4-1,37.57150632,127.0021265
1046,36246,12456967,소매,종합소매점,편의점,서울특별시 용산구 한남동 611-2,서울특별시 용산구 대사관로34길 46,37.53119681,127.0057186
1047,36249,12339799,소매,종합소매점,편의점,서울특별시 강남구 신사동 511,서울특별시 강남구 도산대로1길 20,37.51800739,127.0199661
1048,36250,24361802,소매,종합소매점,편의점,서울특별시 서대문구 창천동 9-20,서울특별시 서대문구 연세로 20,37.55749513,126.9370865
1049,36261,12330954,소매,종합소매점,편의점,서울특별시 성동구 용답동 238-12,서울특별시 성동구 가람길 287,37.55971157,127.0694144
1050,36304,15962686,소매,종합소매점,편의점,서울특별시 중구 신당동 156-1,서울특별시 중구 퇴계로88가길 14,37.56331122,127.0209463
1051,36336,24816933,소매,종합소매점,편의점,서울특별시 강남구 청담동 132-16,서울특별시 강남구 학동로101길 15,37.52121368,127.0574261
1052,36338,24673540,소매,종합소매점,편의점,서울특별시 성동구 성수동2가 223-11,서울특별시 성동구 성덕정길 128,37.53652364,127.0575615
1053,36417,25906801,소매,종합소매점,편의점,서울특별시 성북구 동소문동6가 154-1,서울특별시 성북구 동소문로17길 40,37.59392256,127.01588
