,No,시군구명,어린이집코드,어린이집명,어린이집유형,운영현황,우편번호,상세주소,전화번호,팩스번호,홈페이지주소,보육실수,보육실 면적,놀이터수,CCTV총설치수,보육교직원수,정원,현원,시설 위도(좌표값),시설 경도(좌표값),통학차량운영여부,인가일자,휴지시작일자,휴지종료일자,폐지일자,데이터기준일자,제공서비스,반수-만0세,반수-만1세,반수-만2세,반수-만3세,반수-만4세,반수-만5세,반수-영아혼합(만0~2세),반수-유아혼합(만3~5세),반수-특수장애,반수-총계,아동수-만0세,아동수-만1세,아동수-만2세,아동수-만3세,아동수-만4세,아동수-만5세,아동수-영아혼합(만0~2세),아동수-유아혼합(만3~5세),아동수-특수장애,아동수-총계,근속년수-1년미만,근속년수-1년이상~2년미만,근속년수-2년이상~4년미만,근속년수-4년이상~6년미만,근속년수-6년이상,교직원현황-원장,교직원현황-보육교사,교직원현황-특수교사,교직원현황-치료교사,교직원현황-영양사,교직원현황-간호사,교직원현황-간호조무사,교직원현황-조리원,교직원현황-사무직원,교직원현황-총계,데이터수집일,경도,위도,상태
0,2,서초구,11650000454,서초구립 라클라스어린이집,국공립,정상,6599,서울특별시 서초구 서초중앙로 206,02-534-2122,02-534-2123,,11,2320.0,1,0,0,68,0,37.50035844,127.0142041,,2021-08-01,,,,2021-07-23,장애아통합,0,0,0,0,0,0,0,0,0,0,0,0,0,0,0,0,0,0,0,0,,,,,,,,,,,,,,,,04:40.0,127.0118267,37.50032018,인근좌표
1,3,금천구,11545000341,봄빛어린이집,가정,정상,8606,서울특별시 금천구 벚꽃로 100 독산역롯데캐슬아파트 106동 103호,02-892-2006,,,3,64.0,0,4,6,19,14,37.56647,126.977963,미운영,2021-07-02,,,,2021-07-23,일반,2,0,0,0,0,0,2,0,0,4,6,0,0,0,0,0,8,0,0,14,1.0,0.0,0.0,0.0,0.0,1.0,4.0,0.0,0.0,0.0,0.0,0.0,1.0,0.0,6.0,04:00.0,126.8904633,37.46503156,인근좌표
2,4,금천구,11545000340,구립독산롯데캐슬어린이집,국공립,정상,8606,서울특별시 금천구 벚꽃로 100 독산역 롯데캐슬아파트 단지내,02-805-7605,,,5,258.0,1,14,12,69,44,37.56647,126.977963,,2021-07-01,,,,2021-07-23,야간연장,0,3,2,1,0,0,0,1,0,7,0,15,14,8,0,0,0,7,0,44,1.0,0.0,0.0,0.0,0.0,1.0,9.0,0.0,0.0,0.0,0.0,0.0,1.0,0.0,12.0,04:00.0,126.8904633,37.46503156,인근좌표
3,5,은평구,11380000677,구립 푸른들어린이집,국공립,정상,3473,서울특별시 은평구 은평로 240,02-6748-0202,02-6748-0203,,4,343.0,1,20,12,49,38,37.600415,126.9344898,미운영,2021-07-01,,,,2021-07-23,야간연장,3,3,2,0,0,0,0,0,0,8,9,15,14,0,0,0,0,0,0,38,1.0,0.0,0.0,0.0,0.0,1.0,10.0,0.0,0.0,0.0,0.0,0.0,1.0,0.0,12.0,03:01.0,126.9346713,37.60234334,인근좌표
4,6,마포구,11440000471,근로복지공단 마포어린이집,법인?단체등,정상,3977,서울특별시 마포구 연남로 49-1,02-322-7333,,https://www.kcomwel.or.kr/kidsㅡmapo/index.jsp,6,210.0,2,16,10,60,25,37.56365368,126.9203781,미운영,2021-07-01,,,,2021-07-23,일반,2,0,0,0,0,0,5,0,0,7,5,0,0,0,0,0,20,0,0,25,0.0,0.0,0.0,0.0,0.0,1.0,7.0,0.0,0.0,0.0,0.0,0.0,1.0,1.0,10.0,03:20.0,126.9205421,37.56372324,인근좌표
5,7,송파구,11710000811,위례아이숲어린이집,국공립,정상,5846,서울특별시 송파구 위례북로 30 (거여동 위례포레샤인 17단지),02-448-1718,,,9,393.0,1,0,0,140,0,37.56647,126.977963,,2021-06-16,,,,2021-07-23,야간연장,0,0,0,0,0,0,0,0,0,0,0,0,0,0,0,0,0,0,0,0,,,,,,,,,,,,,,,,05:02.0,127.1505795,37.48821933,인근좌표
6,8,광진구,11215000359,구립 중곡하나어린이집,국공립,정상,4905,서울특별시 광진구 동일로76길 59,02-465-1004,02-465-1005,,5,110.0,1,14,9,38,23,37.56807936,127.0819513,미운영,2021-06-01,,,,2021-07-23,야간연장,3,2,1,0,0,0,0,1,0,7,6,8,5,0,0,0,0,4,0,23,1.0,0.0,0.0,0.0,0.0,1.0,7.0,0.0,0.0,0.0,0.0,0.0,1.0,0.0,9.0,01:50.0,127.0819348,37.56810628,정좌표
7,9,은평구,11380000676,구립 꿈여울어린이집,국공립,정상,3328,서울특별시 은평구 통일로89길 5-6,02-358-2525,02-359-2525,,5,171.0,1,32,7,64,17,37.6244889,126.9191196,미운영,2021-06-01,,,,2021-07-23,장애아통합야간연장,2,0,0,0,0,0,1,1,0,4,6,0,0,0,0,0,5,6,0,17,0.0,0.0,0.0,0.0,0.0,1.0,5.0,0.0,0.0,0.0,0.0,0.0,1.0,0.0,7.0,03:01.0,126.9190205,37.62437822,정좌표
8,10,광진구,11215000360,구립 자양도담어린이집,국공립,정상,5054,서울특별시 광진구 아차산로44가길 5 (자양동 231-51),02-455-7000,02-455-7887,,11,280.0,3,24,10,85,55,37.53617752,127.0799463,미운영,2021-06-01,,,,2021-07-23,일반,0,1,2,1,1,1,0,0,0,6,0,4,11,8,14,18,0,0,0,55,1.0,0.0,0.0,0.0,0.0,1.0,8.0,0.0,0.0,0.0,0.0,0.0,1.0,0.0,10.0,01:50.0,127.0799341,37.53620482,정좌표
9,11,강서구,11500000745,근로복지공단 곰달래어린이집,법인?단체등,정상,7740,서울특별시 강서구 곰달래로53길 30-20,02-2646-7142,02-2646-7144,https://www.kcomwel.or.kr/kids-gomdallae/index.jsp,5,216.0,1,32,14,70,38,37.533652,126.860232,미운영,2021-05-31,,,,2021-07-23,야간연장,2,2,2,1,0,0,0,1,0,8,6,6,10,8,0,0,0,8,0,38,0.0,0.0,0.0,0.0,0.0,1.0,11.0,0.0,0.0,0.0,0.0,0.0,1.0,1.0,14.0,03:41.0,126.8601987,37.53364924,정좌표
10,12,구로구,11530000643,원진어린이집,국공립,정상,8241,서울특별시 구로구 고척로55길 21 (고척동 원진어린이집),02-2684-7444,02-2625-1608,wonjin7475,9,598.0,5,16,10,79,66,37.5058078,126.8556752,미운영,2021-05-01,,,,2021-07-23,일반,0,1,1,1,1,1,0,0,0,5,0,5,6,15,20,20,0,0,0,66,0.0,0.0,0.0,0.0,0.0,1.0,7.0,0.0,0.0,0.0,0.0,0.0,1.0,0.0,10.0,03:51.0,126.8556513,37.50587983,정좌표
11,13,강서구,11500000744,성민가정어린이집,가정,정상,7550,서울특별시 강서구 화곡로68길 115 101동 111호,02-6093-8643,,,3,47.0,0,4,3,17,5,37.56647,126.977963,,2021-04-19,,,,2021-07-23,일반,1,0,0,0,0,0,1,0,0,2,2,0,0,0,0,0,3,0,0,5,0.0,0.0,0.0,0.0,0.0,1.0,1.0,0.0,0.0,0.0,0.0,0.0,0.0,0.0,3.0,03:41.0,126.8603395,37.55733168,정좌표
12,14,마포구,11440000469,산들어린이집,국공립,정상,4124,서울특별시 마포구 대흥로24길 24 마포프레스티지자이 1단지 내 104동 앞,02-2088-7212,02-2088-2629,,6,206.0,1,17,13,65,65,37.55386761,126.9485751,미운영,2021-04-09,,,,2021-07-23,일반,2,2,2,1,0,0,0,1,0,8,6,10,14,15,0,0,0,20,0,65,1.0,0.0,0.0,0.0,0.0,1.0,10.0,0.0,0.0,0.0,0.0,0.0,1.0,0.0,13.0,03:20.0,126.9472462,37.55457977,인근좌표
13,15,마포구,11440000470,해들어린이집,국공립,정상,4121,서울특별시 마포구 숭문16다길 10-5 마포프레스티지자이 2단지 내 203동 옆,02-716-2007,,,2,80.0,1,11,8,30,19,37.56647,126.977963,미운영,2021-04-09,,,,2021-07-23,일반,2,2,2,0,0,0,0,0,0,6,2,6,11,0,0,0,0,0,0,19,0.0,0.0,0.0,0.0,0.0,1.0,6.0,0.0,0.0,0.0,0.0,0.0,1.0,0.0,8.0,03:21.0,126.9485993,37.55523173,인근좌표
14,16,종로구,11110000180,로카키즈어린이집,직장,정상,3184,서울특별시 종로구 새문안로2길 10 1층,02-739-8042,,,3,67.0,0,12,6,25,8,37.56870364,126.971979,미운영,2021-04-01,,,,2021-07-23,일반,1,1,1,0,0,0,0,0,0,3,1,3,4,0,0,0,0,0,0,8,1.0,0.0,0.0,0.0,0.0,1.0,4.0,0.0,0.0,0.0,0.0,0.0,1.0,0.0,6.0,01:10.0,126.971984,37.56870227,정좌표
15,17,송파구,11710000809,위례봄어린이집,가정,정상,5853,서울특별시 송파구 위례광장로 121 2414동 101호,02-400-8544,,dana3918.wixsite.com/webom,3,55.0,0,4,7,20,19,37.47531087,127.1387746,미운영,2021-04-01,,,,2021-07-23,일반,2,0,1,0,0,0,2,0,0,5,6,0,7,0,0,0,6,0,0,19,0.0,0.0,0.0,0.0,0.0,1.0,5.0,0.0,0.0,0.0,0.0,0.0,0.0,0.0,7.0,05:02.0,127.1386229,37.47478412,정좌표
16,18,양천구,11470000623,구립 아이샘어린이집,국공립,정상,8072,서울특별시 양천구 중앙로43길 14 래미안목동아델리체,02-6953-2911,02-6956-3723,,3,80.0,1,12,8,30,24,37.51704502,126.8515927,,2021-04-01,,,,2021-07-23,일반,3,2,0,0,0,0,1,0,0,6,9,10,0,0,0,0,5,0,0,24,0.0,0.0,0.0,0.0,0.0,1.0,6.0,0.0,0.0,0.0,0.0,0.0,1.0,0.0,8.0,03:30.0,126.8507665,37.51697358,정좌표
17,19,양천구,11470000624,구립 아이숲어린이집,국공립,정상,8072,서울특별시 양천구 중앙로43길 14 래미안목동아델리체,02-2605-0061,02-2605-1161,,4,120.0,1,12,12,45,40,37.51913402,126.8523352,미운영,2021-04-01,,,,2021-07-23,일반,2,2,4,0,0,0,0,0,0,8,6,10,24,0,0,0,0,0,0,40,1.0,0.0,0.0,0.0,0.0,1.0,10.0,0.0,0.0,0.0,0.0,0.0,1.0,0.0,12.0,03:30.0,126.8507665,37.51697358,정좌표
18,20,서대문구,11410000374,숲속별어린이집,국공립,정상,3610,서울특별시 서대문구 홍은중앙로3길 9 북한산두산위브아파트,02-395-9565,,,4,80.0,1,9,8,25,23,37.59821304,126.9452097,미운영,2021-04-01,,,,2021-07-23,일반,1,3,1,0,0,0,0,0,0,5,3,14,6,0,0,0,0,0,0,23,1.0,0.0,0.0,0.0,0.0,1.0,6.0,0.0,0.0,0.0,0.0,0.0,1.0,0.0,8.0,03:10.0,126.9459012,37.59706517,정좌표
19,21,강남구,11680000499,도토리소풍넥슨 대치어린이집,직장,정상,6187,서울특별시 강남구 역삼로90길 25,02-565-7900,,https://blog.naver.com/dotorisopoong,5,198.0,1,35,10,49,8,37.56647,126.977963,미운영,2021-03-30,,,,2021-07-23,일반,0,1,2,0,2,0,0,0,0,5,0,1,4,0,3,0,0,0,0,8,0.0,0.0,0.0,0.0,0.0,1.0,5.0,0.0,0.0,1.0,0.0,0.0,1.0,0.0,10.0,04:51.0,127.0627513,37.50262433,정좌표
20,22,강남구,11680000498,쿠키즈(coukids) 어린이집,직장,정상,6212,서울특별시 강남구 테헤란로 332 HJ타워 3층,02-6204-2114,,,4,188.0,0,18,12,49,13,37.50389042,127.0481674,미운영,2021-03-26,,,,2021-07-23,일반,0,3,2,1,0,0,0,1,0,7,0,4,3,3,0,0,0,3,0,13,0.0,0.0,0.0,0.0,0.0,1.0,7.0,0.0,0.0,0.0,0.0,0.0,2.0,0.0,12.0,04:51.0,127.048192,37.50377402,정좌표
21,23,영등포구,11560000486,라온어린이집,국공립,정상,7440,서울특별시 영등포구 신길로 29,02-842-9376,,,4,97.0,0,16,11,35,25,37.49381366,126.9023439,미운영,2021-03-24,,,,2021-07-23,일반,3,3,1,0,0,0,0,0,0,7,6,15,4,0,0,0,0,0,0,25,0.0,0.0,0.0,0.0,0.0,1.0,8.0,0.0,0.0,0.0,0.0,0.0,1.0,0.0,11.0,04:10.0,126.9076275,37.49431606,정좌표
22,24,서대문구,11410000373,늘푸른어린이집,국공립,정상,3609,서울특별시 서대문구 홍은중앙로1길 100,02-6956-1530,070-4855-1530,,3,149.0,1,10,7,20,20,37.59990685,126.9451009,미운영,2021-03-12,,,,2021-07-23,일반,2,2,1,0,0,0,0,0,0,5,6,7,7,0,0,0,0,0,0,20,1.0,0.0,0.0,0.0,0.0,1.0,5.0,0.0,0.0,0.0,0.0,0.0,1.0,0.0,7.0,03:10.0,126.9443,37.59988785,정좌표
23,25,강서구,11500000742,근로복지공단 등촌어린이집,법인?단체등,정상,7580,서울특별시 강서구 강서로56나길 128,02-2659-3370,010-2659-3310,https://www.kcomwel.or.kr/kids-deungchon/,5,198.0,1,20,10,73,22,37.56647,126.977963,미운영,2021-03-05,,,,2021-07-23,일반,2,2,1,0,0,0,0,0,0,5,6,9,7,0,0,0,0,0,0,22,0.0,0.0,0.0,0.0,0.0,1.0,7.0,0.0,0.0,0.0,0.0,0.0,1.0,1.0,10.0,03:41.0,126.8440764,37.56481822,인근좌표
24,26,동작구,11590000443,해오름어린이집,가정,정상,7026,서울특별시 동작구 상도로 421 현대아파트 108-103,02-888-8646,02-878-8646,,3,54.0,1,4,5,19,10,37.49276103,126.9585397,미운영,2021-03-02,,,,2021-07-23,일반,0,0,0,0,0,0,3,0,0,3,0,0,0,0,0,0,10,0,0,10,0.0,0.0,0.0,0.0,0.0,1.0,3.0,0.0,0.0,0.0,0.0,0.0,0.0,0.0,5.0,04:21.0,126.9585989,37.49311623,정좌표
25,27,노원구,11350001056,포레나아이어린이집,국공립,정상,1677,서울특별시 노원구 노원로38길 76,02-937-3263,02-937-3264,,6,255.0,0,16,16,79,74,37.66451267,127.062665,미운영,2021-03-01,,,,2021-07-23,일반,0,3,2,3,0,0,0,1,0,9,0,15,14,30,0,0,0,15,0,74,1.0,0.0,0.0,0.0,0.0,1.0,12.0,0.0,0.0,0.0,0.0,0.0,1.0,0.0,16.0,02:52.0,127.061883,37.66448619,정좌표
26,28,구로구,11530000642,현대열린어린이집,국공립,정상,8329,서울특별시 구로구 개봉로20길 6 현대아파트 1단지내(개봉역입구쪽),02-6091-1004,,,5,164.0,1,10,13,62,62,37.4930849,126.8588207,미운영,2021-03-01,,,,2021-07-23,야간연장,0,1,2,1,1,0,0,1,0,6,0,5,13,13,13,0,0,18,0,62,1.0,0.0,0.0,0.0,0.0,1.0,10.0,0.0,0.0,0.0,0.0,0.0,1.0,0.0,13.0,03:52.0,126.8570629,37.49192558,정좌표
27,29,금천구,11545000339,구립지혜어린이집,국공립,정상,8624,서울특별시 금천구 시흥대로76길 19 골드빌 101호,02-891-7942,02-891-7942,,3,85.0,1,4,7,20,13,37.45831234,126.9004912,미운영,2021-03-01,,,,2021-07-23,야간연장,2,3,0,0,0,0,1,0,0,6,6,7,0,0,0,0,0,0,0,13,1.0,0.0,0.0,0.0,0.0,1.0,5.0,0.0,0.0,0.0,0.0,0.0,1.0,0.0,7.0,04:00.0,126.9005454,37.45835782,정좌표
28,30,중랑구,11260000472,신나라어린이집,국공립,정상,2132,서울특별시 중랑구 봉우재로2길 22,02-432-5799,02-434-5799,,6,301.0,2,11,10,54,40,37.58835452,127.0743197,미운영,2021-03-01,,,,2021-07-23,일반,0,2,2,1,0,0,0,1,0,6,0,10,12,7,0,0,0,11,0,40,1.0,0.0,0.0,0.0,0.0,1.0,8.0,0.0,0.0,0.0,0.0,0.0,1.0,0.0,10.0,02:11.0,127.0743034,37.58836385,정좌표
29,31,양천구,11470000621,구립 해든어린이집,국공립,정상,8102,서울특별시 양천구 목동남로4길 100,02-6956-2454,,,3,87.0,1,9,11,30,30,37.51031608,126.8701213,미운영,2021-03-01,,,,2021-07-23,야간연장,3,3,1,0,0,0,0,0,0,7,9,14,7,0,0,0,0,0,0,30,1.0,0.0,0.0,0.0,0.0,1.0,9.0,0.0,0.0,0.0,0.0,0.0,1.0,0.0,11.0,03:31.0,126.8698619,37.51026044,정좌표
30,32,서초구,11650000453,서초구립 허니비어린이집,국공립,정상,6567,서울특별시 서초구 서초대로1길 30 105동 101호(방배동 현대아파트),02-535-7957,050-8907-0633,,3,56.0,0,4,9,19,19,37.48827118,126.983859,미운영,2021-03-01,,,,2021-07-23,야간연장,1,0,1,0,0,0,2,0,0,4,3,0,7,0,0,0,9,0,0,19,1.0,0.0,0.0,0.0,0.0,1.0,7.0,0.0,0.0,0.0,0.0,0.0,1.0,0.0,9.0,04:40.0,126.984093,37.48925532,정좌표
31,33,동작구,11590000441,구립트윈파크어린이집,국공립,정상,6902,서울특별시 동작구 노량진로23가길 23 래미안트윈파크아파트 관리동,02-3280-2320,,,6,180.0,1,14,14,49,43,37.5143213,126.9506213,미운영,2021-03-01,,,,2021-07-23,일반,2,3,3,1,0,0,0,0,0,9,6,14,18,5,0,0,0,0,0,43,1.0,0.0,0.0,0.0,0.0,1.0,12.0,0.0,0.0,0.0,0.0,0.0,1.0,0.0,14.0,04:20.0,126.9498896,37.51464425,정좌표
32,34,양천구,11470000622,구립 아인어린이집,국공립,정상,7963,서울특별시 양천구 목동중앙남로3길 23-1,02-2647-8798,,,3,120.0,0,11,4,42,7,37.53561205,126.8663862,미운영,2021-03-01,,,,2021-07-23,장애아통합,0,1,0,0,0,0,1,0,0,2,0,4,0,0,0,0,3,0,0,7,0.0,0.0,0.0,0.0,0.0,1.0,2.0,0.0,0.0,0.0,0.0,0.0,1.0,0.0,4.0,03:30.0,126.8663625,37.53572069,인근좌표
33,35,마포구,11440000467,새빛어린이집,국공립,정상,4147,서울특별시 마포구 백범로31길 8 202동 1층,02-6951-1317,02-6951-1316,,3,120.0,1,9,9,30,30,37.5451735,126.9497919,미운영,2021-03-01,,,,2021-07-23,일반,2,2,2,0,0,0,0,0,0,6,6,10,14,0,0,0,0,0,0,30,0.0,0.0,0.0,0.0,0.0,1.0,7.0,0.0,0.0,0.0,0.0,0.0,1.0,0.0,9.0,03:20.0,126.9498046,37.54518849,정좌표
34,36,서초구,11650000452,서초구립 서초3동하나어린이집,국공립,정상,6667,서울특별시 서초구 명달로11길 16,02-523-6777,02-523-6777,,6,232.0,2,20,13,70,53,37.48336174,127.0034174,미운영,2021-03-01,,,,2021-07-23,일반,0,3,3,2,0,0,0,1,0,9,0,15,20,11,0,0,0,7,0,53,1.0,0.0,0.0,0.0,0.0,1.0,10.0,0.0,0.0,0.0,0.0,0.0,1.0,0.0,13.0,04:40.0,127.0031189,37.48346334,정좌표
35,37,동작구,11590000442,구립아름어린이집,국공립,정상,7032,서울특별시 동작구 양녕로 220 상도역롯데캐슬아파트 관리동,02-821-2021,02-821-2022,http://구립아름어린이집.com,5,142.0,1,16,13,48,43,37.5006959,126.9455864,미운영,2021-03-01,,,,2021-07-23,일반,4,2,2,1,0,0,0,0,0,9,9,10,14,10,0,0,0,0,0,43,1.0,0.0,0.0,0.0,0.0,1.0,11.0,0.0,0.0,0.0,0.0,0.0,1.0,0.0,13.0,04:20.0,126.9472777,37.50123126,정좌표
36,38,도봉구,11320000550,늘봄어린이집,국공립,정상,1367,서울특별시 도봉구 우이천로 487-1,02-996-5311,,,9,459.0,3,16,9,79,41,37.6565704,127.0153218,미운영,2021-03-01,,,,2021-07-23,일반,0,2,1,0,0,1,1,1,0,6,0,7,6,0,0,16,2,10,0,41,1.0,0.0,0.0,0.0,0.0,1.0,7.0,0.0,0.0,0.0,0.0,0.0,1.0,0.0,9.0,02:40.0,127.0152977,37.65658854,정좌표
37,39,도봉구,11320000554,도봉숲어린이집,국공립,정상,1330,서울특별시 도봉구 마들로 684-10,02-956-7474,,,8,368.0,1,13,14,79,70,37.56647,126.977963,미운영,2021-03-01,,,,2021-07-23,일반,0,2,2,1,2,1,0,0,0,8,0,4,13,12,21,20,0,0,0,70,1.0,0.0,0.0,0.0,0.0,1.0,11.0,0.0,0.0,0.0,0.0,0.0,1.0,0.0,14.0,02:40.0,127.0470021,37.67102089,정좌표
38,40,서초구,11650000451,서초구립 한신서래어린이집,국공립,정상,6578,서울특별시 서초구 사평대로28길 31 101동 108호,02-533-9631,,,4,58.0,1,8,7,20,15,37.49860683,127.0008708,미운영,2021-03-01,,,,2021-07-23,일반,2,2,0,0,0,0,0,0,0,4,5,10,0,0,0,0,0,0,0,15,0.0,0.0,0.0,0.0,0.0,1.0,5.0,0.0,0.0,0.0,0.0,0.0,1.0,0.0,7.0,04:40.0,127.0009981,37.49897581,정좌표
39,41,도봉구,11320000551,느티나무어린이집,국공립,정상,1355,서울특별시 도봉구 도당로13바길 19,02-3493-0228,02-3493-2228,,5,276.0,3,8,12,58,46,37.66753799,127.0347142,미운영,2021-03-01,,,,2021-07-23,일반,1,2,2,1,0,0,0,1,0,7,3,10,10,11,0,0,0,12,0,46,1.0,0.0,0.0,0.0,0.0,1.0,9.0,0.0,0.0,0.0,0.0,0.0,1.0,0.0,12.0,02:40.0,127.0346893,37.66756592,정좌표
40,42,마포구,11440000468,해솔어린이집,국공립,정상,4065,서울특별시 마포구 서강로 75-16 창전동 청년주택 1층,02-6956-0015,02-6956-0150,,3,129.0,0,9,11,30,26,37.54960616,126.931377,미운영,2021-03-01,,,,2021-07-23,일반,2,2,1,0,0,0,2,0,0,7,6,10,0,0,0,0,10,0,0,26,1.0,0.0,0.0,0.0,0.0,1.0,9.0,0.0,0.0,0.0,0.0,0.0,1.0,0.0,11.0,03:21.0,126.9313203,37.5496392,정좌표
41,43,구로구,11530000641,꿈동산어린이집,국공립,정상,8328,서울특별시 구로구 남부순환로95길 16 101동 101호(개봉동 삼호아파트),02-2618-9382,,,3,85.0,0,4,8,19,18,37.49407618,126.8589658,미운영,2021-03-01,,,,2021-07-23,야간연장,0,3,1,0,0,0,2,0,0,6,0,9,7,0,0,0,2,0,0,18,0.0,0.0,0.0,0.0,0.0,1.0,6.0,0.0,0.0,0.0,0.0,0.0,1.0,0.0,8.0,03:51.0,126.8573068,37.49456571,정좌표
42,44,양천구,11470000620,구립 목3동공원어린이집,국공립,정상,7952,서울특별시 양천구 목동중앙남로16나길 46,02-2645-3220,02-2652-3220,,4,166.0,0,19,13,59,48,37.54438373,126.864809,미운영,2021-03-01,,,,2021-07-23,야간연장,3,3,2,1,0,0,0,0,0,9,9,14,14,11,0,0,0,0,0,48,1.0,0.0,0.0,0.0,0.0,1.0,11.0,0.0,0.0,0.0,0.0,0.0,1.0,0.0,13.0,03:30.0,126.8647978,37.5443708,정좌표
43,45,도봉구,11320000552,봄날어린이집,국공립,정상,1467,서울특별시 도봉구 덕릉로53길 55,02-6368-0825,02-6397-0825,https://cafe.naver.com/dobomnal,4,133.0,0,9,1,43,0,37.63947236,127.0348031,미운영,2021-03-01,,,,2021-07-23,일반,0,0,0,0,0,0,1,0,0,1,0,0,0,0,0,0,0,0,0,0,,,,,,1.0,0.0,0.0,0.0,0.0,0.0,0.0,0.0,0.0,1.0,02:41.0,127.0348242,37.63947975,정좌표
44,46,강서구,11500000741,구립 라온어린이집,국공립,정상,7735,서울특별시 강서구 곰달래로53길 112,02-2655-0644,070-7836-9078,,6,180.0,1,8,11,67,44,37.53603636,126.8565433,미운영,2021-03-01,,,,2021-07-23,일반,0,2,2,0,0,0,1,2,0,7,0,9,13,0,0,0,0,22,0,44,0.0,0.0,0.0,0.0,0.0,1.0,8.0,0.0,0.0,0.0,0.0,0.0,1.0,0.0,11.0,03:41.0,126.8565464,37.53604618,정좌표
45,47,도봉구,11320000553,온유한어린이집,국공립,정상,1475,서울특별시 도봉구 덕릉로60자길 22,02-906-1842,02-906-1843,,6,246.0,1,10,9,43,19,37.56647,126.977963,미운영,2021-03-01,,,,2021-07-23,일반,0,0,0,0,0,0,4,1,0,5,0,0,0,0,0,0,9,10,0,19,1.0,0.0,0.0,0.0,0.0,1.0,6.0,0.0,0.0,0.0,0.0,0.0,2.0,0.0,9.0,02:41.0,127.0416066,37.63807425,정좌표
46,48,동대문구,11230000142,태양하나어린이집,국공립,정상,2592,서울특별시 동대문구 황물로 32,02-2245-9544,02-2245-9544,,7,570.0,1,25,10,125,78,37.57399227,127.045324,미운영,2021-03-01,,,,2021-07-23,야간연장휴일보육,0,0,0,2,2,1,0,0,0,5,0,0,0,25,34,19,0,0,0,78,0.0,0.0,0.0,0.0,0.0,1.0,8.0,0.0,0.0,0.0,0.0,0.0,1.0,0.0,10.0,02:01.0,127.0453499,37.57406868,정좌표
47,49,강동구,11740000541,자이숲어린이집,가정,정상,5275,서울특별시 강동구 상일로 55 119동 103호(상일동 고덕자이),02-441-9002,,,4,51.0,0,0,6,19,19,37.55239443,127.1710319,,2021-02-26,,,,2021-07-23,일반,1,2,1,0,0,0,0,0,0,4,3,10,6,0,0,0,0,0,0,19,0.0,0.0,0.0,0.0,0.0,1.0,3.0,0.0,0.0,0.0,0.0,0.0,1.0,0.0,6.0,05:11.0,127.1720427,37.55177111,정좌표
48,50,강남구,11680000497,삼성서울병원2 어린이집,직장,정상,6341,서울특별시 강남구 양재대로55길 12,02-3411-3140,02-3411-3143,,7,362.0,2,38,22,120,51,37.49233424,127.0884638,미운영,2021-02-25,,,,2021-07-23,일반,0,9,4,2,0,0,0,0,0,15,0,25,17,9,0,0,0,0,0,51,1.0,0.0,0.0,0.0,0.0,1.0,15.0,0.0,0.0,1.0,1.0,0.0,2.0,1.0,22.0,04:51.0,127.0884534,37.49233632,정좌표
49,51,영등포구,11560000485,KB여의도어린이집,직장,정상,7331,서울특별시 영등포구 국제금융로8길 26 1층,02-6332-5051,02-6332-5052,http://www.puruni.com/kbyeouido,4,160.0,1,16,12,49,33,37.52084865,126.9279023,미운영,2021-02-24,,,,2021-07-23,일반,0,3,2,0,0,2,0,2,0,9,0,9,10,0,0,4,0,10,0,33,0.0,0.0,0.0,0.0,0.0,1.0,9.0,0.0,0.0,0.0,0.0,0.0,2.0,0.0,12.0,04:10.0,126.9278941,37.52086843,정좌표
50,52,송파구,11710000808,서울아산병원제2어린이집,직장,정상,5535,서울특별시 송파구 강동대로 13,02-2045-3935,,,16,463.0,1,42,36,144,134,37.529563,127.1107075,미운영,2021-02-19,,,,2021-07-23,일반,0,13,8,4,0,0,0,0,0,25,0,46,48,40,0,0,0,0,0,134,1.0,0.0,0.0,0.0,0.0,1.0,30.0,0.0,0.0,1.0,0.0,1.0,3.0,0.0,36.0,05:02.0,127.1099712,37.52892791,정좌표
51,53,은평구,11380000675,구립 은빛나래어린이집,국공립,정상,3403,서울특별시 은평구 서오릉로9길 18,02-3157-2777,02-388-2777,,6,287.0,4,14,13,89,62,37.60661621,126.920093,미운영,2021-02-15,,,,2021-07-23,장애아통합야간연장,0,1,1,1,0,1,1,1,1,7,0,5,7,14,0,20,3,10,3,62,1.0,0.0,0.0,0.0,0.0,1.0,9.0,0.0,0.0,0.0,0.0,0.0,2.0,0.0,13.0,03:01.0,126.9200424,37.60661338,정좌표
52,54,강동구,11740000539,구립도로롱어린이집,국공립,정상,5286,서울특별시 강동구 고덕로98길 160 강동리엔파크14단지아파트 관리동,02-441-0103,02-441-0107,,6,190.0,1,21,14,71,61,37.55072962,127.1817336,미운영,2021-02-01,,,,2021-07-23,야간연장,3,2,2,1,1,1,0,0,0,10,9,10,11,9,13,9,0,0,0,61,1.0,0.0,0.0,0.0,0.0,1.0,12.0,0.0,0.0,0.0,0.0,0.0,1.0,0.0,14.0,05:10.0,127.1813832,37.5503309,정좌표
53,55,송파구,11710000807,삼전하늘어린이집,국공립,정상,5600,서울특별시 송파구 삼전로10길 21,02-418-3721,02-419-3721,,5,344.0,1,20,12,75,69,37.50535558,127.0920021,미운영,2021-02-01,,,,2021-07-23,야간연장,0,2,2,1,1,1,0,0,0,7,0,10,14,14,18,13,0,0,0,69,0.0,0.0,0.0,0.0,0.0,1.0,10.0,0.0,0.0,0.0,0.0,0.0,1.0,0.0,12.0,05:01.0,127.0919484,37.50541259,정좌표
54,56,강동구,11740000540,구립가래여울어린이집,국공립,정상,5415,서울특별시 강동구 아리수로93나길 88 강동리버스트8단지아파트관리동,02-441-3690,02-442-1478,,6,275.0,1,16,13,91,66,37.5713319,127.1750993,,2021-02-01,,,,2021-07-23,장애아통합,2,2,2,1,1,1,0,0,0,9,6,10,14,15,16,5,0,0,0,66,1.0,0.0,0.0,0.0,0.0,1.0,10.0,0.0,0.0,0.0,0.0,0.0,1.0,0.0,13.0,05:10.0,127.177365,37.5721496,정좌표
55,57,송파구,11710000806,석촌새싹어린이집,국공립,정상,5690,서울특별시 송파구 가락로11길 9-18,02-423-1860,,,6,212.0,1,11,13,70,53,37.50090618,127.1037072,미운영,2021-02-01,,,,2021-07-23,야간연장,0,3,2,1,1,0,0,1,0,8,0,13,7,9,11,0,0,13,0,53,0.0,0.0,0.0,0.0,0.0,1.0,11.0,0.0,0.0,0.0,0.0,0.0,1.0,0.0,13.0,05:02.0,127.103681,37.5009086,정좌표
56,58,강동구,11740000538,구립해뜨는어린이집,국공립,정상,5416,서울특별시 강동구 고덕로98길 101 강동리엔파크11단지아파트 관리동,02-3426-7775,02-3426-7774,,6,210.0,1,16,10,71,26,37.55424173,127.1806938,미운영,2021-01-28,,,,2021-07-23,장애아통합,3,2,1,0,0,0,0,0,0,6,9,10,7,0,0,0,0,0,0,26,0.0,0.0,0.0,0.0,0.0,1.0,8.0,0.0,0.0,0.0,0.0,0.0,1.0,0.0,10.0,05:11.0,127.1808931,37.55359356,정좌표
57,59,마포구,11440000466,꿈빛어린이집,국공립,정상,4147,서울특별시 마포구 백범로31길 7 공덕SK리더스뷰 103동 1층,02-6953-3800,02-6953-3900,,3,120.0,1,9,10,30,27,37.54538935,126.9488865,미운영,2021-01-19,,,,2021-07-23,일반,2,2,2,0,0,0,0,0,0,6,6,10,11,0,0,0,0,0,0,27,1.0,0.0,0.0,0.0,0.0,1.0,8.0,0.0,0.0,0.0,0.0,0.0,1.0,0.0,10.0,03:20.0,126.9487024,37.54526213,정좌표
58,60,서대문구,11410000372,한나어린이집,가정,정상,3710,서울특별시 서대문구 가재울로 45 103동 105호,02-374-1005,02-6351-0864,,3,81.0,0,6,7,20,19,37.57495324,126.9203052,미운영,2021-01-01,,,,2021-07-23,일반,2,2,1,0,0,0,1,0,0,6,3,9,7,0,0,0,0,0,0,19,1.0,0.0,0.0,0.0,0.0,1.0,5.0,0.0,0.0,0.0,0.0,0.0,0.0,0.0,7.0,03:10.0,126.920843,37.57567203,정좌표
59,61,중랑구,11260000471,동심어린이집,국공립,정상,2180,서울특별시 중랑구 용마공원로3길 40,02-432-6461,,,6,180.0,3,14,12,60,43,37.56647,126.977963,,2021-01-01,,,,2021-07-23,장애아통합,0,1,1,1,0,0,0,1,2,6,0,4,7,12,0,0,0,17,3,43,1.0,0.0,0.0,0.0,0.0,1.0,9.0,0.0,0.0,0.0,0.0,0.0,1.0,0.0,12.0,02:10.0,127.1013065,37.59617584,정좌표
60,62,구로구,11530000639,푸르니어린이집,국공립,정상,8211,서울특별시 구로구 신도림로 16 302동 104호,02-2633-3389,,http://cafe.daum.net/puruni79,4,60.0,0,5,7,19,19,37.50598445,126.8807601,미운영,2021-01-01,,,,2021-07-23,일반,2,5,2,0,0,0,2,0,0,11,3,9,7,0,0,0,0,0,0,19,0.0,0.0,0.0,0.0,0.0,1.0,5.0,0.0,0.0,0.0,0.0,0.0,1.0,0.0,7.0,03:52.0,126.880598,37.50635922,정좌표
61,63,구로구,11530000640,하영어린이집,국공립,정상,8211,서울특별시 구로구 신도림로 16 406동102호,02-2672-3331,,,4,60.0,0,5,7,20,20,37.50574821,126.8799108,,2021-01-01,,,,2021-07-23,일반,4,4,1,0,0,0,2,0,0,11,3,9,6,0,0,0,2,0,0,20,0.0,0.0,0.0,0.0,0.0,1.0,5.0,0.0,0.0,0.0,0.0,0.0,1.0,0.0,7.0,03:52.0,126.880598,37.50635922,정좌표
62,64,동작구,11590000439,구립은솔어린이집,국공립,정상,7039,서울특별시 동작구 상도로 346-1 힐스테이트상도 111동 101호,02-824-2021,02-824-2022,,3,66.0,1,6,7,19,19,37.56647,126.977963,미운영,2021-01-01,,,,2021-07-23,일반,2,2,1,0,0,0,0,0,0,5,5,8,6,0,0,0,0,0,0,19,0.0,0.0,0.0,0.0,0.0,1.0,5.0,0.0,0.0,0.0,0.0,0.0,1.0,0.0,7.0,04:20.0,126.9519949,37.4945257,정좌표
63,65,동작구,11590000440,구립새봄어린이집,국공립,정상,7003,서울특별시 동작구 사당로9길 11-13,02-532-3330,02-532-3370,,5,400.0,1,16,9,57,41,37.48661974,126.9704663,미운영,2021-01-01,,,,2021-07-23,휴일보육,0,0,2,1,1,1,0,0,0,5,0,0,12,7,10,12,0,0,0,41,1.0,0.0,0.0,0.0,0.0,1.0,7.0,0.0,0.0,0.0,0.0,0.0,1.0,0.0,9.0,04:20.0,126.9704415,37.48660469,정좌표
64,66,강서구,11500000739,구립 우장숲어린이집,국공립,정상,7695,서울특별시 강서구 화곡로41길 19,02-2691-3690,,,5,215.0,1,24,9,72,47,37.54709325,126.8427915,미운영,2021-01-01,,,,2021-07-23,일반,0,2,2,1,0,0,0,1,0,6,0,10,14,14,0,0,0,9,0,47,0.0,0.0,0.0,0.0,0.0,1.0,7.0,0.0,0.0,0.0,0.0,0.0,1.0,0.0,9.0,03:41.0,126.8439839,37.54647322,정좌표
65,67,강서구,11500000740,마곡9 나인어린이집,국공립,정상,7600,서울특별시 강서구 공항대로 103 엠밸리9단지 관리동,02-6956-5573,,,7,380.0,1,20,24,122,116,37.56232571,126.8199106,미운영,2020-12-31,,,,2021-07-23,장애아통합야간연장,2,2,4,3,1,1,0,0,1,14,6,10,28,30,19,20,0,0,3,116,1.0,0.0,0.0,0.0,0.0,1.0,17.0,1.0,0.0,1.0,1.0,0.0,2.0,0.0,24.0,03:41.0,126.8191921,37.56089063,정좌표
66,68,강북구,11305000344,도토리집공동육아어린이집,협동,정상,1019,서울특별시 강북구 삼각산로4길 36 나호,02-907-1300,02-907-1303,http://cafe.daum.net/dotorizip,3,52.0,0,0,6,16,14,37.6382406,127.0082028,미운영,2020-12-24,,,,2021-07-23,일반,0,0,0,1,0,0,1,1,0,3,0,0,0,7,0,0,4,3,0,14,0.0,0.0,0.0,0.0,0.0,1.0,3.0,0.0,0.0,0.0,0.0,0.0,1.0,0.0,6.0,02:30.0,127.0081841,37.63825856,정좌표
67,69,송파구,11710000805,송파든든어린이집,국공립,정상,5791,서울특별시 송파구 위례서이로 25,02-407-0301,02-404-0302,,6,217.0,2,7,15,77,63,37.48254668,127.1381633,미운영,2020-12-16,,,,2021-07-23,장애아통합야간연장,3,2,2,1,0,0,0,1,1,10,6,10,14,12,0,0,0,18,3,63,1.0,0.0,0.0,0.0,0.0,1.0,13.0,0.0,0.0,0.0,0.0,0.0,1.0,0.0,15.0,05:02.0,127.1376726,37.48290143,정좌표
68,70,강동구,11740000537,구립또바기어린이집,국공립,정상,5275,서울특별시 강동구 상일로 55 고덕자이아파트 관리동,02-441-3215,,,8,336.0,1,38,21,104,93,37.55108149,127.1708478,미운영,2020-12-14,,,,2021-07-23,장애아통합야간연장시간제보육,4,3,2,1,1,1,0,0,1,13,12,14,14,15,17,20,0,0,1,93,1.0,0.0,0.0,0.0,0.0,1.0,16.0,1.0,0.0,0.0,0.0,0.0,2.0,0.0,21.0,05:10.0,127.1720427,37.55177111,정좌표
69,71,성북구,11290000646,자연아이어린이집,국공립,정상,2762,서울특별시 성북구 돌곶이로40길 46,02-909-3567,02-909-3569,https://cafe.daum.net/jayeon-i,6,256.0,1,16,17,85,85,37.61826456,127.0496994,미운영,2020-12-10,,,,2021-07-23,야간연장,3,4,3,1,0,0,0,1,0,12,9,20,21,15,0,0,0,20,0,85,1.0,0.0,0.0,0.0,0.0,1.0,13.0,0.0,0.0,0.0,0.0,0.0,2.0,0.0,17.0,02:21.0,127.0491284,37.61731275,정좌표
70,72,서초구,11650000450,서초구립 래미안리더스원어린이집,국공립,정상,6629,서울특별시 서초구 서운로 62,02-522-6260,02-525-6260,,9,654.0,1,20,17,80,75,37.48914729,127.0286584,미운영,2020-12-10,,,,2021-07-23,일반,3,3,3,1,0,0,0,1,0,11,9,15,21,15,0,0,0,15,0,75,1.0,0.0,0.0,0.0,0.0,1.0,15.0,0.0,0.0,0.0,0.0,0.0,1.0,0.0,17.0,04:40.0,127.0282971,37.49051604,정좌표
71,73,강동구,11740000536,구립가람슬기어린이집,국공립,정상,5262,서울특별시 강동구 올림픽로98가길 12-16,02-6012-8957,02-6012-8957,,6,270.0,3,30,12,85,51,37.54959854,127.1309483,미운영,2020-12-07,,,,2021-07-23,장애아통합,2,2,2,1,0,0,0,1,0,8,6,10,14,11,0,0,0,10,0,51,0.0,0.0,0.0,0.0,0.0,1.0,9.0,0.0,0.0,0.0,0.0,0.0,1.0,0.0,12.0,05:10.0,127.1309254,37.54960024,인근좌표
72,74,영등포구,11560000483,신길파크자이솔숲어린이집,국공립,정상,7389,서울특별시 영등포구 신길로28길 25,02-6269-1900,02-6269-1906,,3,77.0,0,11,11,29,29,37.50232333,126.9134696,미운영,2020-12-04,,,,2021-07-23,일반,3,2,2,0,0,0,0,0,0,7,6,9,14,0,0,0,0,0,0,29,0.0,0.0,0.0,0.0,0.0,1.0,8.0,0.0,0.0,0.0,0.0,0.0,1.0,0.0,11.0,04:11.0,126.9142323,37.50339968,정좌표
73,75,강서구,11500000743,구립 염창별하어린이집,국공립,정상,7562,서울특별시 강서구 공항대로 543,02-3662-7942,02-3662-7943,,5,138.0,0,16,10,45,26,37.55074889,126.8664412,미운영,2020-12-01,,,,2021-07-23,야간연장,2,3,1,0,0,0,0,0,0,6,6,14,6,0,0,0,0,0,0,26,0.0,0.0,0.0,0.0,0.0,1.0,8.0,0.0,0.0,0.0,0.0,0.0,1.0,0.0,10.0,03:41.0,126.8664122,37.55073846,정좌표
74,76,구로구,11530000638,보배사랑어린이집,국공립,정상,8218,서울특별시 구로구 중앙로12길 7 101동 101호,02-2619-3377,02-2619-3377,,3,84.0,0,4,7,19,18,37.50572017,126.8614999,미운영,2020-12-01,,,,2021-07-23,일반,1,2,1,0,0,0,1,0,0,5,3,6,7,0,0,0,2,0,0,18,0.0,0.0,0.0,0.0,0.0,1.0,5.0,0.0,0.0,0.0,0.0,0.0,1.0,0.0,7.0,03:51.0,126.861307,37.50604467,정좌표
75,77,동대문구,11230000494,삼성어린이집,국공립,정상,2624,서울특별시 동대문구 한천로26길 43,02-2243-5033,02-2245-4821,,6,310.0,1,6,12,66,66,37.56486896,126.9782227,미운영,2020-12-01,,,,2021-07-23,야간연장,0,2,2,1,1,0,0,1,0,7,0,7,11,14,17,0,0,17,0,66,1.0,0.0,0.0,0.0,0.0,1.0,9.0,0.0,0.0,0.0,0.0,0.0,1.0,0.0,12.0,02:00.0,127.0682403,37.5712804,정좌표
76,78,송파구,11710000810,거여하나어린이집,국공립,정상,5744,서울특별시 송파구 오금로 475,02-402-2010,,,9,394.0,2,53,21,137,114,37.56647,126.977963,,2020-11-23,,,,2021-07-23,장애아통합야간연장,2,2,4,2,1,1,0,1,1,14,2,8,21,29,20,15,0,16,3,114,1.0,0.0,0.0,0.0,0.0,1.0,18.0,0.0,0.0,0.0,0.0,0.0,2.0,0.0,21.0,05:01.0,127.1421577,37.49454495,정좌표
77,79,강서구,11500000738,구립 이든아이어린이집,국공립,정상,7674,서울특별시 강서구 까치산로18나길 22-1,02-2605-0241,,,6,186.0,1,8,9,59,39,37.54634017,126.8491244,미운영,2020-11-19,,,,2021-07-23,일반,0,1,1,1,0,0,0,1,0,4,0,5,7,8,0,0,0,19,0,39,0.0,0.0,0.0,0.0,0.0,1.0,7.0,0.0,0.0,0.0,0.0,0.0,1.0,0.0,9.0,03:41.0,126.8491314,37.54635515,정좌표
78,80,강동구,11740000535,구립사랑그린어린이집,국공립,정상,5416,서울특별시 강동구 고덕로98길 29 강동리엔파크9단지 관리동,02-441-9829,02-441-9830,,4,106.0,0,16,11,37,30,37.55709214,127.1807644,미운영,2020-11-16,,,,2021-07-23,야간연장,3,3,1,0,0,0,0,0,0,7,9,14,7,0,0,0,0,0,0,30,0.0,0.0,0.0,0.0,0.0,1.0,8.0,0.0,0.0,0.0,0.0,0.0,1.0,0.0,11.0,05:11.0,127.1811296,37.55686837,정좌표
79,81,서대문구,11410000371,한별어린이집,국공립,정상,3763,서울특별시 서대문구 이화여대8길 123 힐스테이트신촌아파트 단지 내,02-392-6001,02-392-6002,,4,104.0,1,12,9,26,26,37.56251595,126.9509658,미운영,2020-11-13,,,,2021-07-23,야간연장,3,2,1,0,0,0,0,0,0,6,9,10,7,0,0,0,0,0,0,26,1.0,0.0,0.0,0.0,0.0,1.0,7.0,0.0,0.0,0.0,0.0,0.0,1.0,0.0,9.0,03:10.0,126.9511853,37.56183262,정좌표
80,82,강동구,11740000534,구립해봄어린이집,국공립,정상,5201,서울특별시 강동구 아리수로93가길 70 강동리버스트7단지아파트 관리동,02-426-9370,,,6,269.0,1,20,15,92,77,37.57076498,127.1746226,미운영,2020-11-10,,,,2021-07-23,야간연장,3,3,2,1,1,1,0,0,0,11,9,14,14,12,12,16,0,0,0,77,1.0,0.0,0.0,0.0,0.0,1.0,13.0,0.0,0.0,0.0,0.0,0.0,1.0,0.0,15.0,05:11.0,127.1735491,37.57027105,정좌표
81,83,강동구,11740000533,구립강동해밀어린이집,국공립,정상,5201,서울특별시 강동구 아리수로93가길 77 강동리버스트6단지아파트 관리동,02-426-8861,,,6,289.0,1,13,18,98,83,37.5709432,127.1698008,미운영,2020-11-10,,,,2021-07-23,장애아통합,3,3,2,1,1,1,0,0,0,11,9,14,14,15,16,15,0,0,0,83,1.0,0.0,0.0,0.0,0.0,1.0,14.0,0.0,0.0,0.0,0.0,0.0,2.0,0.0,18.0,05:10.0,127.170539,37.57074266,정좌표
82,84,서초구,11650000449,서초구립 센트럴아이파크어린이집,국공립,정상,6652,서울특별시 서초구 반포대로18길 36,02-2088-7137,02-2088-7139,,3,92.0,1,8,11,31,31,37.48671743,127.0120532,미운영,2020-11-01,,,,2021-07-23,일반,3,2,2,0,0,0,0,0,0,7,9,10,12,0,0,0,0,0,0,31,1.0,0.0,0.0,0.0,0.0,1.0,9.0,0.0,0.0,0.0,0.0,0.0,1.0,0.0,11.0,04:40.0,127.0116181,37.48696794,정좌표
83,85,강서구,11500000737,구립대우주어린이집,국공립,정상,7703,서울특별시 강서구 화곡로13길 107 135동 101호,02-2605-7313,02-2605-7312,daewooju2002@,4,97.0,0,5,8,20,20,37.5444628,126.8316879,미운영,2020-11-01,,,,2021-07-23,야간연장,2,2,1,0,0,0,0,0,0,5,4,9,7,0,0,0,0,0,0,20,0.0,0.0,0.0,0.0,0.0,1.0,6.0,0.0,0.0,0.0,0.0,0.0,1.0,0.0,8.0,03:41.0,126.8322463,37.54724901,정좌표
84,86,송파구,11710000804,위례푸른숲어린이집,국공립,정상,5776,서울특별시 송파구 위례북로4길 12,02-409-7942,02-406-7942,,5,188.0,1,12,13,67,67,37.56647,126.977963,미운영,2020-10-23,,,,2021-07-23,야간연장,0,1,1,1,1,1,0,0,0,5,0,5,7,15,20,20,0,0,0,67,0.0,0.0,0.0,0.0,0.0,1.0,10.0,0.0,0.0,0.0,0.0,0.0,1.0,0.0,13.0,05:02.0,127.151724,37.48842957,정좌표
85,87,영등포구,11560000484,신길힐스테이트나래어린이집,국공립,정상,7388,서울특별시 영등포구 신길로28길 9,02-6672-8330,02-6672-8334,,5,198.0,2,13,12,65,52,37.50420063,126.9117286,미운영,2020-10-23,,,,2021-07-23,일반,2,2,2,2,1,0,0,0,0,9,6,10,14,15,7,0,0,0,0,52,1.0,0.0,0.0,0.0,0.0,1.0,10.0,0.0,0.0,0.0,0.0,0.0,1.0,0.0,12.0,04:11.0,126.912973,37.50393992,정좌표
86,88,강남구,11680000495,도토리소풍넥슨 강남어린이집,직장,정상,6124,서울특별시 강남구 강남대로110길 36 (역삼동),02-538-1026,,https://blog.naver.com/dotorisopoong,5,240.0,2,37,15,74,24,37.57112345,126.9899255,운영,2020-10-23,,,,2021-07-23,일반,0,1,1,1,1,1,0,0,0,5,0,2,5,8,7,2,0,0,0,24,1.0,0.0,0.0,0.0,0.0,1.0,9.0,0.0,0.0,1.0,0.0,0.0,3.0,0.0,15.0,04:51.0,127.0277979,37.50377872,정좌표
87,89,강남구,11680000494,현대오토에버 늘해랑어린이집,직장,정상,6185,서울특별시 강남구 삼성로84길 13,02-3453-0053,,,3,71.0,0,29,7,20,9,37.50558517,127.0587247,미운영,2020-10-14,,,,2021-07-23,일반,0,2,1,0,0,0,0,0,0,3,0,5,4,0,0,0,0,0,0,9,0.0,0.0,0.0,0.0,0.0,1.0,4.0,0.0,0.0,0.0,0.0,0.0,1.0,0.0,7.0,04:51.0,127.0587216,37.50560411,정좌표
88,90,송파구,11710000802,쿠팡(위례)어린이집,직장,정상,5849,서울특별시 송파구 위례광장로 188 아이온스퀘어 2F,02-400-7790,,,6,291.0,0,18,5,49,3,37.56647,126.977963,미운영,2020-10-13,,,,2021-07-23,일반,0,2,0,1,0,0,0,1,0,4,0,3,0,0,0,0,0,0,0,3,0.0,0.0,0.0,0.0,0.0,1.0,2.0,0.0,0.0,0.0,0.0,0.0,1.0,0.0,5.0,05:02.0,127.1423951,37.48108605,정좌표
89,91,광진구,11215000358,구립 샘물어린이집,국공립,정상,5105,서울특별시 광진구 뚝섬로58길 56 101호,02-3437-7737,02-3437-7737,,3,54.0,0,4,8,20,18,37.52978908,127.0852667,미운영,2020-10-01,,,,2021-07-23,일반,3,1,1,0,0,0,2,0,0,7,9,0,0,0,0,0,9,0,0,18,1.0,0.0,0.0,0.0,0.0,1.0,5.0,0.0,0.0,0.0,0.0,0.0,1.0,0.0,8.0,01:50.0,127.0852701,37.52982857,정좌표
90,92,강남구,11680000496,포레스트어린이집,국공립,정상,6310,서울특별시 강남구 개포로 264,02-2058-3788,,,6,191.0,1,19,16,72,58,37.47943719,127.053163,미운영,2020-10-01,,,,2021-07-23,야간연장,2,4,4,1,0,0,0,0,0,11,6,20,23,9,0,0,0,0,0,58,1.0,0.0,0.0,0.0,0.0,1.0,13.0,0.0,0.0,0.0,0.0,0.0,2.0,0.0,16.0,04:51.0,127.0546921,37.47826532,정좌표
91,93,강남구,11680000493,빛의숲어린이집,가정,정상,6025,서울특별시 강남구 논현로158길 19 1층,02-542-5857,,,3,76.0,0,6,6,20,12,37.52217218,127.029996,미운영,2020-09-29,,,,2021-07-23,일반,2,0,0,0,0,0,2,0,0,4,6,0,0,0,0,0,6,0,0,12,0.0,0.0,0.0,0.0,0.0,1.0,4.0,0.0,0.0,0.0,0.0,0.0,0.0,0.0,6.0,04:51.0,127.02995,37.52221888,정좌표
92,94,송파구,11710000803,거여사과나무어린이집,국공립,정상,5735,서울특별시 송파구 거마로 41 302동 101호(거여동 현대3차아파트),02-3402-3425,02-3402-3425,,3,59.0,0,6,9,19,19,37.49704433,127.1453031,미운영,2020-09-29,,,,2021-07-23,야간연장,0,0,0,0,0,0,5,0,0,5,0,0,0,0,0,0,19,0,0,19,0.0,0.0,0.0,0.0,0.0,1.0,7.0,0.0,0.0,0.0,0.0,0.0,1.0,0.0,9.0,05:01.0,127.1448496,37.49672869,정좌표
93,95,송파구,11710000801,송파아이숲어린이집,가정,정상,5764,서울특별시 송파구 오금로 551 205동 104호,02-400-6079,02-400-6079,,3,48.0,0,4,6,17,14,37.49397485,127.1501483,미운영,2020-09-28,,,,2021-07-23,일반,2,1,0,0,0,0,3,0,0,6,3,0,0,0,0,0,11,0,0,14,0.0,0.0,0.0,0.0,0.0,1.0,4.0,0.0,0.0,0.0,0.0,0.0,0.0,0.0,6.0,05:02.0,127.1508278,37.49415058,정좌표
94,96,용산구,11170000209,큰나래어린이집,국공립,정상,4387,서울특별시 용산구 서빙고로 17 102동 123층,02-797-7703,02-797-7702,,5,191.0,3,25,16,70,51,37.5252553,126.9678958,미운영,2020-09-11,,,,2021-07-23,장애아통합,3,3,2,1,0,0,0,0,1,10,9,14,14,11,0,0,0,0,3,51,1.0,0.0,0.0,0.0,0.0,1.0,11.0,1.0,0.0,0.0,0.0,0.0,1.0,0.0,16.0,01:30.0,126.9678829,37.52527144,정좌표
95,97,강동구,11740000532,구립늘해랑어린이집,국공립,정상,5222,서울특별시 강동구 고덕로 399 고덕센트럴푸르지오아파트 관리동,02-429-7942,02-429-7952,,7,215.0,0,13,11,72,65,37.55780333,127.1697865,미운영,2020-09-03,,,,2021-07-23,장애아통합야간연장,2,1,1,1,1,1,0,0,0,7,5,5,7,15,17,16,0,0,0,65,0.0,0.0,0.0,0.0,0.0,1.0,9.0,0.0,0.0,0.0,0.0,0.0,1.0,0.0,11.0,05:10.0,127.1696015,37.55787774,정좌표
96,98,은평구,11380000674,신아푸르지오 어린이집,민간,정상,3305,서울특별시 은평구 연서로 455 제각말 5단지 푸르지오 관리동(진관동),02-358-0404,,,5,209.0,0,8,5,48,4,37.56647,126.977963,미운영,2020-09-01,,,,2021-07-23,일반,1,1,1,2,0,0,2,1,0,8,0,3,1,0,0,0,0,0,0,4,0.0,0.0,0.0,0.0,0.0,1.0,3.0,0.0,0.0,0.0,0.0,0.0,0.0,0.0,5.0,03:01.0,126.9327014,37.6355368,정좌표
97,99,중랑구,11260000470,사가정 아이파크어린이집,국공립,정상,2226,서울특별시 중랑구 동일로92길 40,02-496-8077,,,5,204.0,1,11,10,48,48,37.56647,126.977963,미운영,2020-09-01,,,,2021-07-23,야간연장,2,1,1,1,0,0,0,1,0,6,5,6,7,12,0,0,0,18,0,48,1.0,0.0,0.0,0.0,0.0,1.0,8.0,0.0,0.0,0.0,0.0,0.0,1.0,0.0,10.0,02:10.0,127.081425,37.58230406,정좌표
98,100,성북구,11290000645,꿈빛 어린이집,국공립,정상,2802,서울특별시 성북구 종암로21길 127 101동 101호,02-6227-4960,02-6499-1422,,3,68.0,0,5,8,19,19,37.60251074,127.0296927,미운영,2020-09-01,,,,2021-07-23,일반,3,1,1,0,0,0,1,0,0,6,7,0,7,0,0,0,5,0,0,19,0.0,0.0,0.0,0.0,0.0,1.0,6.0,0.0,0.0,0.0,0.0,0.0,1.0,0.0,8.0,02:21.0,127.03,37.6030217,정좌표
99,101,중랑구,11260000469,라온어린이집,국공립,정상,2234,서울특별시 중랑구 동일로91길 23,02-432-5592,02-432-5598,,3,100.0,0,8,8,23,23,37.58212575,127.0787968,미운영,2020-09-01,,,,2021-07-23,야간연장,2,2,1,0,0,0,2,0,0,7,6,0,7,0,0,0,10,0,0,23,0.0,0.0,0.0,0.0,0.0,1.0,6.0,0.0,0.0,0.0,0.0,0.0,1.0,0.0,8.0,02:10.0,127.0791949,37.5819784,정좌표
100,102,영등포구,11560000482,새솔아델포레어린이집,국공립,정상,7440,서울특별시 영등포구 신길로 29,02-6334-0202,02-6334-0203,,5,148.0,2,14,13,51,51,37.49435801,126.9069795,미운영,2020-09-01,,,,2021-07-23,일반,2,1,2,1,0,0,0,1,0,7,5,5,10,12,0,0,0,19,0,51,1.0,0.0,0.0,0.0,0.0,1.0,10.0,0.0,0.0,0.0,0.0,0.0,1.0,0.0,13.0,04:11.0,126.9076275,37.49431606,정좌표
101,103,도봉구,11320000549,서울도봉경찰서어린이집,직장,정상,1415,서울특별시 도봉구 노해로 403 서울도봉경찰서어린이집,02-906-8190,02-906-8192,https://hansol-sdbpolice.kidsnote.ac,6,462.0,1,35,20,100,46,37.6533814,127.0527343,미운영,2020-08-31,,,,2021-07-23,일반,2,3,2,2,1,0,0,0,0,10,6,15,9,13,3,0,0,0,0,46,1.0,0.0,0.0,0.0,0.0,1.0,15.0,0.0,0.0,0.0,0.0,0.0,1.0,1.0,20.0,02:41.0,127.0522747,37.6539427,정좌표
102,104,마포구,11440000465,중앙그룹직장어린이집,직장,정상,3908,서울특별시 마포구 월드컵북로 375 12층,070-8672-9249,070-8230-9249,,6,229.0,0,32,19,49,32,37.57701937,126.8901902,미운영,2020-08-26,,,,2021-07-23,일반,4,3,3,0,0,0,0,2,0,12,5,8,10,0,0,0,0,9,0,32,1.0,0.0,0.0,0.0,0.0,1.0,14.0,0.0,0.0,0.0,0.0,0.0,2.0,1.0,19.0,03:21.0,126.8907234,37.57757431,정좌표
103,105,관악구,11620000564,카페24직장어린이집,직장,정상,8708,서울특별시 관악구 보라매로3길 23 2층(카페24직장어린이집),02-6279-2411,,,3,96.0,0,20,12,30,19,37.49110726,126.9255393,미운영,2020-08-25,,,,2021-07-23,일반,0,2,2,1,1,0,0,0,0,6,0,5,6,3,5,0,0,0,0,19,1.0,0.0,0.0,0.0,0.0,1.0,9.0,0.0,0.0,0.0,0.0,0.0,1.0,0.0,12.0,04:31.0,126.9255362,37.49104245,정좌표
104,106,구로구,11530000637,별하어린이집,국공립,정상,8368,서울특별시 구로구 항동로 68 하버라인9단지 관리동 내,02-2682-0996,,,4,166.0,2,7,9,49,47,37.56647,126.977963,미운영,2020-08-18,,,,2021-07-23,일반,0,0,2,1,0,0,0,1,0,4,0,0,14,15,0,0,0,18,0,47,0.0,0.0,0.0,0.0,0.0,1.0,7.0,0.0,0.0,0.0,0.0,0.0,1.0,0.0,9.0,03:51.0,126.8258879,37.48032049,정좌표
105,107,영등포구,11560000481,당산2동센트럴아이파크별하어린이집,국공립,정상,7215,서울특별시 영등포구 영신로 247 107동 관리동,02-2135-2653,,,5,98.0,2,14,11,30,30,37.56647,126.977963,미운영,2020-08-04,,,,2021-07-23,일반,3,2,2,0,0,0,0,0,0,7,6,10,14,0,0,0,0,0,0,30,0.0,0.0,0.0,0.0,0.0,1.0,9.0,0.0,0.0,0.0,0.0,0.0,1.0,0.0,11.0,04:10.0,126.9035218,37.53020869,정좌표
106,108,송파구,11710000800,방이즐거운어린이집,국공립,정상,5629,서울특별시 송파구 가락로39길 6 (방이동),02-413-5277,02-413-5278,,6,210.0,1,6,10,73,65,37.51180573,127.1184574,미운영,2020-08-03,,,,2021-07-23,야간연장,0,1,2,1,1,1,0,0,0,6,0,5,14,14,19,13,0,0,0,65,0.0,0.0,0.0,0.0,0.0,1.0,8.0,0.0,0.0,0.0,0.0,0.0,1.0,0.0,10.0,05:01.0,127.1184548,37.51181413,정좌표
107,109,송파구,11710000799,송파파크센트럴어린이집,국공립,정상,5764,서울특별시 송파구 오금로 551,02-403-7700,,,5,192.0,1,7,13,65,56,37.4937722,127.1500913,미운영,2020-07-28,,,,2021-07-23,야간연장,2,2,2,1,0,0,0,1,0,8,6,10,11,10,0,0,0,19,0,56,0.0,0.0,0.0,0.0,0.0,1.0,11.0,0.0,0.0,0.0,0.0,0.0,1.0,0.0,13.0,05:02.0,127.1508278,37.49415058,정좌표
108,110,관악구,11620000563,구립키즈맘어린이집,국공립,정상,8719,서울특별시 관악구 봉천로23나길 35 101호,02-874-0761,02-872-0761,,3,94.0,0,5,9,22,20,37.48705736,126.9373987,미운영,2020-07-27,,,,2021-07-23,일반,3,2,1,0,0,0,0,0,0,6,8,9,3,0,0,0,0,0,0,20,1.0,0.0,0.0,0.0,0.0,1.0,7.0,0.0,0.0,0.0,0.0,0.0,1.0,0.0,9.0,04:30.0,126.9374012,37.48706039,정좌표
109,111,강남구,11680000492,현대모비스모아어린이집,직장,정상,6131,서울특별시 강남구 테헤란로13길 34,02-3454-0062,,,3,143.0,1,24,10,49,19,37.56647,126.977963,미운영,2020-07-23,,,,2021-07-23,일반,0,2,2,0,0,0,0,0,0,4,0,9,10,0,0,0,0,0,0,19,0.0,0.0,0.0,0.0,0.0,1.0,6.0,0.0,0.0,0.0,0.0,0.0,1.0,1.0,10.0,04:51.0,127.0317848,37.50193554,정좌표
110,112,구로구,11530000636,해바라기어린이집,국공립,정상,8368,서울특별시 구로구 항동로 8 관리동,02-2060-5887,,,4,130.0,2,6,10,45,45,37.47697264,126.8206328,미운영,2020-07-23,,,,2021-07-23,야간연장,0,0,1,1,1,1,0,0,0,4,0,0,7,9,16,13,0,0,0,45,0.0,0.0,0.0,0.0,0.0,1.0,7.0,0.0,0.0,0.0,0.0,0.0,1.0,0.0,10.0,03:52.0,126.8208334,37.47659031,정좌표
111,113,구로구,11530000635,참누리어린이집,국공립,정상,8274,서울특별시 구로구 경인로 302 관리동 (개봉동개봉역센트레빌레우스 임대아파트),02-2612-2021,02-2612-2022,,7,259.0,2,19,21,94,83,37.56647,126.977963,미운영,2020-07-22,,,,2021-07-23,일반,5,3,4,2,0,0,0,1,0,15,15,15,14,27,0,0,0,12,0,83,1.0,0.0,0.0,0.0,0.0,1.0,18.0,0.0,0.0,0.0,0.0,0.0,1.0,0.0,21.0,03:52.0,126.8530666,37.49704598,정좌표
112,114,강동구,11740000531,구립강동든든어린이집,국공립,정상,5201,서울특별시 강동구 아리수로93가길 110 관리동,02-442-2807,,,6,270.0,0,11,20,95,84,37.56518552,126.9786626,미운영,2020-07-17,,,,2021-07-23,장애아통합야간연장,3,3,2,3,1,1,0,0,1,14,9,10,13,15,18,16,0,0,3,84,1.0,0.0,0.0,0.0,0.0,1.0,16.0,0.0,0.0,0.0,0.0,0.0,2.0,0.0,20.0,05:10.0,127.172958,37.57321792,정좌표
113,115,영등포구,11560000480,당산2동은솔어린이집,국공립,정상,7215,서울특별시 영등포구 당산로42길 23,02-2636-5630,02-2635-5630,,12,465.0,2,29,26,150,149,37.56647,126.977963,미운영,2020-07-03,,,,2021-07-23,일반,2,2,4,2,2,2,0,0,0,14,6,10,28,30,38,37,0,0,0,149,1.0,0.0,0.0,0.0,0.0,1.0,20.0,0.0,0.0,1.0,0.0,1.0,2.0,0.0,26.0,04:10.0,126.9015935,37.53003219,정좌표
114,116,서초구,11650000448,서초구립 반포센트럴자이어린이집,국공립,정상,6509,서울특별시 서초구 반포대로 310-6 (반포센트럴자이어린이집),02-533-8801,02-533-8803,,6,247.0,1,16,15,62,49,37.50605363,127.0018152,미운영,2020-07-01,,,,2021-07-23,일반,3,3,3,0,0,0,0,1,0,10,9,14,20,0,0,0,0,6,0,49,1.0,0.0,0.0,0.0,0.0,1.0,12.0,0.0,0.0,0.0,0.0,0.0,1.0,0.0,15.0,04:40.0,127.0016692,37.50757993,정좌표
115,117,종로구,11110000179,서울지방국세청 우리누리어린이집,직장,정상,3151,서울특별시 종로구 종로5길 86,02-739-5100,,,4,152.0,2,16,8,55,18,37.57413147,126.9797709,미운영,2020-07-01,,,,2021-07-23,일반,0,1,2,0,0,0,0,1,0,4,0,2,6,0,0,0,0,10,0,18,1.0,0.0,0.0,0.0,0.0,1.0,6.0,0.0,0.0,0.0,0.0,0.0,1.0,0.0,8.0,01:10.0,126.9799004,37.57414999,정좌표
116,118,성북구,11290000644,아이누리어린이집,국공립,정상,2726,서울특별시 성북구 숭인로 16 103동 101호,02-982-3949,02-6959-3949,,4,54.0,0,4,8,20,20,37.56647,126.977963,미운영,2020-07-01,,,,2021-07-23,일반,2,2,1,0,0,0,0,0,0,5,5,9,6,0,0,0,0,0,0,20,0.0,0.0,0.0,0.0,0.0,1.0,5.0,0.0,0.0,0.0,0.0,0.0,1.0,0.0,8.0,02:21.0,127.0238768,37.6117774,정좌표
117,119,중랑구,11260000468,새우개 하나어린이집,국공립,정상,2052,서울특별시 중랑구 용마산로139다길 17,02-438-1318,02-438-1319,,5,196.0,1,19,11,74,36,37.56647,126.977963,미운영,2020-07-01,,,,2021-07-23,야간연장,2,2,2,0,0,0,0,1,0,7,4,9,14,0,0,0,0,9,0,36,1.0,0.0,0.0,0.0,0.0,1.0,9.0,0.0,0.0,0.0,0.0,0.0,1.0,0.0,11.0,02:11.0,127.1012133,37.61800051,정좌표
118,120,양천구,11470000619,서울남부지방법원 직장어린이집,직장,정상,8088,서울특별시 양천구 신월로 386 별관 5층,02-2192-1930,,,5,377.0,2,10,10,60,35,37.52115248,126.8637621,미운영,2020-06-24,,,,2021-07-23,일반,0,2,2,1,0,0,0,1,0,6,0,8,9,7,0,0,0,11,0,35,0.0,0.0,0.0,0.0,0.0,1.0,7.0,0.0,0.0,0.0,0.0,0.0,1.0,0.0,10.0,03:31.0,126.8639436,37.52216494,정좌표
119,121,강서구,11500000736,두빛나래터발도르프어린이집,협동,정상,7669,서울특별시 강서구 등촌로39마길 52,02-2653-6986,02-2653-6986,,2,52.0,0,0,4,15,15,37.5441165,126.8578306,미운영,2020-06-24,,,,2021-07-23,일반,0,0,0,0,0,0,2,1,0,3,0,0,0,0,0,0,7,8,0,15,0.0,0.0,0.0,0.0,0.0,1.0,3.0,0.0,0.0,0.0,0.0,0.0,0.0,0.0,4.0,03:41.0,126.8574445,37.54646828,정좌표
120,122,영등포구,11560000478,아이키움문래어린이집,민간,정상,7282,서울특별시 영등포구 선유로9길 30 102동 1층(문래동6가),02-6397-7955,,,7,280.0,1,15,14,75,70,37.51816857,126.8856161,미운영,2020-06-19,,,,2021-07-23,일반,2,3,2,1,0,0,0,1,0,9,6,15,14,15,0,0,0,20,0,70,1.0,0.0,0.0,0.0,0.0,1.0,11.0,0.0,0.0,0.0,0.0,0.0,1.0,0.0,14.0,04:11.0,126.8849918,37.5180389,정좌표
121,123,은평구,11380000673,구립 물빛캐슬어린이집,국공립,정상,3487,서울특별시 은평구 수색로 300,02-6951-2081,02-6951-2082,,6,247.0,1,12,17,88,76,37.58539584,126.8920743,미운영,2020-06-17,,,,2021-07-23,장애아통합야간연장,3,2,2,1,1,1,0,1,1,12,9,10,14,13,17,11,0,0,2,76,1.0,0.0,0.0,0.0,0.0,1.0,14.0,0.0,0.0,0.0,0.0,0.0,1.0,0.0,17.0,03:01.0,126.8927904,37.58514504,정좌표
122,124,마포구,11440000463,다올어린이집,국공립,정상,4044,서울특별시 마포구 양화로 72 1층,02-332-2322,02-332-3733,,6,240.0,2,8,13,52,41,37.55064135,126.9159629,미운영,2020-06-10,,,,2021-07-23,일반,2,4,2,0,0,0,0,1,0,9,6,19,12,0,0,0,0,4,0,41,1.0,0.0,0.0,0.0,0.0,1.0,10.0,0.0,0.0,0.0,0.0,0.0,1.0,0.0,13.0,03:20.0,126.9167158,37.55080163,정좌표
123,125,동대문구,11230000493,늘봄어린이집,민간,정상,2437,서울특별시 동대문구 외대역동로1길 60-3 휘경해모로 관리동,02-3390-3094,02-2212-3094,,4,94.0,0,8,11,32,25,37.59111843,127.0624449,미운영,2020-06-04,,,,2021-07-23,일반,2,1,2,0,0,0,1,0,0,6,5,3,13,0,0,0,4,0,0,25,1.0,0.0,0.0,0.0,0.0,1.0,8.0,0.0,0.0,0.0,0.0,0.0,0.0,1.0,11.0,02:00.0,127.0625706,37.59145313,정좌표
124,126,양천구,11470000617,구립 나래어린이집,국공립,정상,8068,서울특별시 양천구 남부순환로83길 18 목동센트럴아이파크위브아파트 2단지,02-2603-4110,02-2607-4110,,6,197.0,1,12,13,68,68,37.51588255,126.8427552,미운영,2020-06-01,,,,2021-07-23,일반,0,2,3,1,1,1,0,0,0,8,0,10,16,15,13,14,0,0,0,68,1.0,0.0,0.0,0.0,0.0,1.0,11.0,0.0,0.0,0.0,0.0,0.0,1.0,0.0,13.0,03:30.0,126.8413881,37.51541297,정좌표
125,127,양천구,11470000616,구립 가온어린이집,국공립,정상,8066,서울특별시 양천구 남부순환로83길 17 목동센트럴아이파크위브아파트 1단지,02-2602-2484,02-2606-2484,sej7799,6,195.0,1,11,12,65,57,37.51608318,126.8411882,미운영,2020-06-01,,,,2021-07-23,일반,2,2,2,1,0,0,0,1,0,8,6,10,14,13,0,0,0,14,0,57,1.0,0.0,0.0,0.0,0.0,1.0,10.0,0.0,0.0,0.0,0.0,0.0,1.0,0.0,12.0,03:30.0,126.8423269,37.5165832,정좌표
126,128,구로구,11530000634,날아라어린이집,국공립,정상,8362,서울특별시 구로구 부광로 96-16,02-2066-7114,02-2066-7115,https://iseoul.seoul.go.kr/portal/mainCall.do,5,118.0,1,10,12,30,30,37.47573519,126.8157123,미운영,2020-06-01,,,,2021-07-23,야간연장,4,2,1,1,0,0,1,0,0,9,9,9,7,0,0,0,5,0,0,30,1.0,0.0,0.0,0.0,0.0,1.0,10.0,0.0,0.0,0.0,0.0,0.0,1.0,0.0,12.0,03:51.0,126.8155555,37.47563597,정좌표
127,129,양천구,11470000618,구립 마루어린이집,국공립,정상,8067,서울특별시 양천구 남부순환로83길 47 목동센트럴아이파크위브아파트 4단지,02-2604-4301,02-2602-4301,,5,181.0,1,11,14,65,61,37.51700144,126.8439971,미운영,2020-06-01,,,,2021-07-23,일반,2,2,2,1,0,0,0,1,0,8,6,10,14,15,0,0,0,16,0,61,1.0,0.0,0.0,0.0,0.0,1.0,12.0,0.0,0.0,0.0,0.0,0.0,1.0,0.0,14.0,03:30.0,126.8445766,37.51884574,정좌표
128,130,도봉구,11320000378,한나무어린이집,가정,정상,1422,서울특별시 도봉구 노해로66길 21 103동 105호(창동 삼성래미안아파트),02-995-2447,,no042018@naver.com,3,71.0,0,4,7,17,13,37.64890177,127.0484761,미운영,2020-06-01,,,,2021-07-23,야간연장,1,1,1,0,0,0,0,0,0,3,2,5,6,0,0,0,0,0,0,13,0.0,0.0,0.0,0.0,0.0,1.0,5.0,0.0,0.0,0.0,0.0,0.0,0.0,0.0,7.0,02:41.0,127.0476209,37.64940592,정좌표
129,131,강동구,11740000530,구립에코포레어린이집,국공립,정상,5300,서울특별시 강동구 천중로 253 이편한세상강동에코포레아파트 관리동 1층,02-470-0633,,,3,125.0,0,8,9,30,30,37.56647,126.977963,미운영,2020-06-01,,,,2021-07-23,야간연장,2,2,2,0,0,0,0,0,0,6,6,10,14,0,0,0,0,0,0,30,0.0,0.0,0.0,0.0,0.0,1.0,7.0,0.0,0.0,0.0,0.0,0.0,1.0,0.0,9.0,05:11.0,127.1484473,37.54146724,정좌표
130,132,동작구,11590000438,구립다움어린이집,국공립,정상,7029,서울특별시 동작구 사당로 90 사당롯데캐슬골든포레 관리동 1층,02-582-2990,02-582-2991,https://iseoul.seoul.go.kr/homepage/main.do?stCode=11590000438,6,300.0,1,16,13,33,33,37.49150539,126.9622945,미운영,2020-05-29,,,,2021-07-23,휴일보육,3,3,2,0,0,0,0,0,0,8,6,13,14,0,0,0,0,0,0,33,1.0,0.0,0.0,0.0,0.0,1.0,11.0,0.0,0.0,0.0,0.0,0.0,1.0,0.0,13.0,04:20.0,126.9627966,37.49151863,정좌표
131,133,송파구,11710000798,거여키즈어린이집,국공립,정상,5735,서울특별시 송파구 거마로 41 303동 102호(거여동 현대3차아파트),02-408-6198,02-408-6198,,3,59.0,0,4,8,20,20,37.49698159,127.1450316,미운영,2020-05-29,,,,2021-07-23,야간연장,2,2,1,0,0,0,0,0,0,5,4,9,7,0,0,0,0,0,0,20,0.0,0.0,0.0,0.0,0.0,1.0,6.0,0.0,0.0,0.0,0.0,0.0,1.0,0.0,8.0,05:01.0,127.1448496,37.49672869,정좌표
132,134,영등포구,11560000479,영등포든든어린이집,국공립,정상,7412,서울특별시 영등포구 대림로35가길 9,02-842-2021,02-842-2022,http://cafe.daum.net/ydpdd,5,185.0,1,24,12,65,57,37.49808746,126.8979364,미운영,2020-05-28,,,,2021-07-23,일반,2,2,2,2,0,0,0,1,0,9,5,10,13,15,0,0,0,14,0,57,0.0,0.0,0.0,0.0,0.0,1.0,9.0,0.0,0.0,0.0,0.0,0.0,1.0,0.0,12.0,04:11.0,126.8979394,37.49806179,정좌표
133,135,은평구,11380000671,구립 응암샛별어린이집,국공립,정상,3472,서울특별시 은평구 은평로 220,02-354-5208,02-354-5207,,7,299.0,3,20,14,111,85,37.59763877,126.9323974,미운영,2020-05-21,,,,2021-07-23,장애아통합야간연장,2,2,2,1,2,1,0,0,1,11,6,9,12,11,28,19,0,0,0,85,1.0,0.0,0.0,0.0,0.0,1.0,10.0,0.0,0.0,0.0,0.0,0.0,2.0,0.0,14.0,03:01.0,126.9312992,37.59718499,정좌표
134,136,은평구,11380000672,구립 응암행복어린이집,국공립,정상,3472,서울특별시 은평구 은평로 220,02-353-0701,02-353-0702,,6,261.0,2,17,20,98,90,37.59921412,126.9300179,미운영,2020-05-21,,,,2021-07-23,장애아통합야간연장,3,3,2,1,1,1,0,0,2,13,8,12,14,13,18,20,0,0,5,90,1.0,0.0,0.0,0.0,0.0,1.0,17.0,0.0,0.0,0.0,0.0,0.0,2.0,0.0,20.0,03:01.0,126.9312992,37.59718499,정좌표
135,137,마포구,11440000462,신촌그랑어린이집,국공립,정상,4105,서울특별시 마포구 대흥로 175 관리동,02-6949-0277,,,6,320.0,1,13,15,71,51,37.55465868,126.9445909,미운영,2020-05-07,,,,2021-07-23,장애아통합,3,3,2,1,1,0,0,0,0,10,9,15,14,9,4,0,0,0,0,51,1.0,0.0,0.0,0.0,0.0,1.0,13.0,0.0,0.0,0.0,0.0,0.0,1.0,0.0,15.0,03:20.0,126.9455656,37.55458432,정좌표
136,138,강동구,11740000529,이삭숲어린이집,민간,정상,5219,서울특별시 강동구 동남로82길 29-8 이삭숲어린이집,02-441-2914,02-442-2914,,6,182.0,1,12,15,62,48,37.56093959,127.1586976,운영,2020-05-06,,,,2021-07-23,일반,2,3,4,0,0,0,0,0,0,9,6,15,27,0,0,0,0,0,0,48,1.0,0.0,0.0,0.0,0.0,1.0,11.0,0.0,0.0,0.0,0.0,0.0,1.0,1.0,15.0,05:11.0,127.1586576,37.56102955,정좌표
137,139,서초구,11650000447,한샘어린이집,직장,정상,6552,서울특별시 서초구 방배로 285 한샘빌딩,02-6908-4051,02-591-3996,,3,125.0,0,10,8,42,15,37.49814658,126.9867519,미운영,2020-05-01,,,,2021-07-23,일반,0,2,2,0,0,0,0,2,0,6,0,5,4,0,0,0,0,6,0,15,0.0,0.0,0.0,0.0,0.0,1.0,6.0,0.0,0.0,0.0,0.0,0.0,1.0,0.0,8.0,04:41.0,126.9867048,37.49800987,정좌표
138,140,서대문구,11410000369,서대문든든어린이집,국공립,정상,3689,서울특별시 서대문구 거북골로 100 래미안루센티아아파트,02-306-2020,02-306-2021,,6,378.0,1,13,16,71,68,37.57617621,126.9168511,미운영,2020-05-01,,,,2021-07-23,야간연장시간제보육,3,2,2,2,0,0,0,2,0,11,8,9,13,15,0,0,0,23,0,68,1.0,0.0,0.0,0.0,0.0,1.0,14.0,0.0,0.0,0.0,0.0,0.0,1.0,0.0,16.0,03:10.0,126.9168238,37.57644209,정좌표
139,141,마포구,11440000464,행복타운어린이집,직장,정상,4212,서울특별시 마포구 마포대로 144 마포T타운 2층,070-7470-3598,02-465-0110,,5,201.0,1,12,10,35,19,37.54699963,126.9537286,미운영,2020-04-28,,,,2021-07-23,일반,0,0,2,1,0,0,1,1,0,5,0,0,7,5,0,0,1,6,0,19,1.0,0.0,0.0,0.0,0.0,1.0,8.0,0.0,0.0,0.0,0.0,0.0,1.0,0.0,10.0,03:21.0,126.9537569,37.54700052,정좌표
140,142,성동구,11200000396,모두의 숲 어린이집,직장,정상,4790,서울특별시 성동구 상원6나길 22-7,02-463-0312,02-463-0316,,5,152.0,0,55,15,49,31,37.54753876,127.0498872,미운영,2020-04-27,,,,2021-07-23,일반,0,0,2,2,0,0,3,1,0,8,0,0,6,11,0,0,6,8,0,31,1.0,0.0,0.0,0.0,0.0,1.0,11.0,0.0,0.0,0.0,0.0,0.0,2.0,1.0,15.0,01:40.0,127.0500458,37.54775932,정좌표
141,143,영등포구,11560000477,신길센트럴자이 솔빛 어린이집,국공립,정상,7397,서울특별시 영등포구 신길로29길 17,02-848-1531,02-848-1532,,6,242.0,1,12,18,75,66,37.50299027,126.9077831,미운영,2020-04-06,,,,2021-07-23,일반,2,2,2,1,1,1,0,0,0,9,6,10,13,14,18,5,0,0,0,66,1.0,0.0,0.0,0.0,0.0,1.0,15.0,0.0,0.0,0.0,0.0,0.0,1.0,0.0,18.0,04:11.0,126.9081217,37.50273376,정좌표
142,144,은평구,11380000670,한국환경산업기술원 초록꿈나무 직장어린이집,직장,정상,3367,서울특별시 은평구 진흥로 215 A동,02-356-7071,,,5,196.0,1,29,11,40,28,37.60984284,126.9326751,미운영,2020-04-01,,,,2021-07-23,일반,1,3,2,0,0,0,0,4,0,10,0,9,8,0,0,0,0,11,0,28,0.0,0.0,0.0,0.0,0.0,1.0,8.0,0.0,0.0,0.0,0.0,0.0,1.0,0.0,11.0,03:02.0,126.9329377,37.6104943,정좌표
143,145,광진구,11215000357,구립아이와나무어린이집,국공립,정상,4931,서울특별시 광진구 천호대로123길 4-4,02-452-5579,,www.kidtree.or.kr,5,222.0,0,8,11,49,41,37.55523866,127.0871885,미운영,2020-04-01,,,,2021-07-23,일반,1,2,2,1,0,0,0,1,0,7,0,10,14,6,0,0,0,11,0,41,1.0,0.0,0.0,0.0,0.0,1.0,8.0,0.0,0.0,0.0,0.0,0.0,1.0,0.0,11.0,01:50.0,127.0871561,37.55521496,정좌표
144,146,구로구,11530000633,엔젤어린이집,국공립,정상,8371,서울특별시 구로구 디지털로31길 90 108동 103호,02-838-6157,,,3,86.0,2,5,8,20,20,37.56647,126.977963,미운영,2020-04-01,,,,2021-07-23,일반,2,2,1,0,0,0,0,0,0,5,6,7,7,0,0,0,0,0,0,20,0.0,0.0,0.0,0.0,0.0,1.0,6.0,0.0,0.0,0.0,0.0,0.0,1.0,0.0,8.0,03:51.0,126.8922785,37.48726387,정좌표
145,147,강서구,11500000735,구립 신태양어린이집,국공립,정상,7745,서울특별시 강서구 곰달래로31다길 25,02-2699-1921,02-844-3377,,7,306.0,1,30,16,99,91,37.53359999,126.8526489,미운영,2020-04-01,,,,2021-07-23,야간연장,2,2,2,2,1,0,0,1,0,10,6,10,13,24,18,0,0,20,0,91,0.0,0.0,0.0,0.0,0.0,1.0,13.0,0.0,0.0,0.0,0.0,0.0,2.0,0.0,16.0,03:41.0,126.8526276,37.53363169,정좌표
146,148,중랑구,11260000467,꼬마사랑어린이집,국공립,정상,2131,서울특별시 중랑구 봉우재로6길 9,02-432-0097,02-434-1097,,4,143.0,1,12,13,42,41,37.58955609,127.0762882,미운영,2020-04-01,,,,2021-07-23,야간연장휴일보육,2,2,1,0,0,0,1,1,0,7,6,10,7,0,0,0,5,13,0,41,1.0,0.0,0.0,0.0,0.0,1.0,11.0,0.0,0.0,0.0,0.0,0.0,1.0,0.0,13.0,02:10.0,127.076293,37.58955286,정좌표
147,149,관악구,11620000562,구립인헌어린이집,국공립,정상,8798,서울특별시 관악구 낙성대역14길 6,02-889-8586,02-889-8587,,4,162.0,1,12,10,59,29,37.47389804,126.9642761,미운영,2020-03-30,,,,2021-07-23,장애아통합,0,2,1,0,0,0,0,1,1,5,0,10,6,0,0,0,0,10,3,29,1.0,0.0,0.0,0.0,0.0,1.0,8.0,0.0,0.0,0.0,0.0,0.0,1.0,0.0,10.0,04:30.0,126.9642663,37.47391158,정좌표
148,150,은평구,11380000669,구립 이든어린이집,국공립,정상,3465,서울특별시 은평구 응암로30길 15,02-356-9616,02-356-9617,,4,112.0,0,12,14,42,42,37.57306905,126.9847633,미운영,2020-03-19,,,,2021-07-23,야간연장,2,2,2,1,0,0,0,0,0,7,5,10,14,13,0,0,0,0,0,42,1.0,0.0,0.0,0.0,0.0,1.0,11.0,0.0,0.0,0.0,0.0,0.0,1.0,0.0,14.0,03:01.0,126.9227106,37.5963366,정좌표
149,151,영등포구,11560000476,서비스에이스 하람어린이집,직장,정상,7298,서울특별시 영등포구 문래로28길 25 에스타워 3층(문래동3가),02-6256-0190,02-6256-0193,,6,182.0,0,8,14,49,35,37.515769,126.8997702,미운영,2020-03-16,,,,2021-07-23,일반,2,2,2,1,0,0,0,1,0,8,5,7,7,5,0,0,0,11,0,35,0.0,0.0,0.0,0.0,0.0,1.0,11.0,0.0,0.0,0.0,0.0,0.0,1.0,0.0,14.0,04:11.0,126.8998769,37.51571562,정좌표
150,152,송파구,11710000797,우아한어린이집,직장,정상,5547,서울특별시 송파구 올림픽로32길 37-22,02-422-9941,02-422-9943,,5,491.0,0,62,16,49,40,37.51386945,127.1110717,미운영,2020-03-06,,,,2021-07-23,일반,2,2,2,1,0,0,0,2,0,9,4,8,8,8,0,0,0,12,0,40,0.0,0.0,0.0,0.0,0.0,1.0,12.0,0.0,0.0,0.0,0.0,0.0,2.0,0.0,16.0,05:02.0,127.1109922,37.51388995,정좌표
151,153,용산구,11170000207,국립중앙박물관 해누림 어린이집,직장,정상,4383,서울특별시 용산구 서빙고로 137 국립중앙박물관,02-2077-9048,02-2077-9969,,4,246.0,0,20,10,39,16,37.52349496,126.9776012,미운영,2020-03-06,,,,2021-07-23,일반,0,3,2,1,0,0,0,1,0,7,0,3,7,2,0,0,0,4,0,16,0.0,0.0,0.0,0.0,0.0,1.0,7.0,0.0,0.0,0.0,0.0,0.0,1.0,0.0,10.0,01:30.0,126.9825451,37.52465048,정좌표
152,154,용산구,11170000208,목멱어린이집,국공립,정상,4346,서울특별시 용산구 회나무로12나길 10,02-6954-2057,070-7543-1750,,3,163.0,2,12,7,20,16,37.53904801,126.9909255,미운영,2020-03-05,,,,2021-07-23,일반,1,0,0,0,0,0,3,0,0,4,3,0,0,0,0,0,13,0,0,16,0.0,0.0,0.0,0.0,0.0,1.0,4.0,0.0,0.0,0.0,0.0,0.0,1.0,0.0,7.0,01:30.0,126.9906613,37.53820605,정좌표
153,155,강남구,11680000488,신동아어린이집,국공립,정상,6365,서울특별시 강남구 헌릉로590길 10 관리동,02-451-1828,,,4,87.0,0,5,8,28,28,37.46414591,127.102707,미운영,2020-03-01,,,,2021-07-23,야간연장,2,3,1,0,0,0,0,0,0,6,6,15,7,0,0,0,0,0,0,28,0.0,0.0,0.0,0.0,0.0,1.0,6.0,0.0,0.0,0.0,0.0,0.0,1.0,0.0,8.0,04:51.0,127.1026817,37.46450701,정좌표
154,156,도봉구,11320000271,나무어린이집,가정,정상,1422,서울특별시 도봉구 노해로66길 21 103동 106호(창동 삼성래미안아파트),02-900-8520,02-900-8520,서울시보육포털서비스,3,70.0,0,4,6,17,16,37.64890177,127.0484761,미운영,2020-03-01,,,,2021-07-23,야간연장,2,1,1,0,0,0,0,0,0,4,5,5,6,0,0,0,0,0,0,16,0.0,0.0,0.0,0.0,0.0,1.0,5.0,0.0,0.0,0.0,0.0,0.0,0.0,0.0,6.0,02:40.0,127.0476209,37.64940592,정좌표
155,157,마포구,11440000460,월드컵어린이집,국공립,정상,3902,서울특별시 마포구 월드컵북로 501 관리동 1층,02-383-3201,,,5,114.0,2,9,13,42,39,37.58339153,126.8785706,미운영,2020-03-01,,,,2021-07-23,야간연장,1,1,2,1,0,0,2,1,0,8,0,4,13,9,0,0,6,7,0,39,0.0,0.0,0.0,0.0,0.0,1.0,10.0,0.0,0.0,0.0,0.0,0.0,1.0,0.0,13.0,03:21.0,126.8781732,37.58480305,정좌표
156,158,도봉구,11320000548,무지개어린이집,국공립,정상,1480,서울특별시 도봉구 덕릉로60길 121-20,02-999-8096,,https://WWW.kisnote.com,5,115.0,0,6,10,43,32,37.56647,126.977963,미운영,2020-03-01,,,,2021-07-23,일반,2,1,1,0,0,0,3,1,0,8,2,5,7,0,0,0,2,16,0,32,1.0,0.0,0.0,0.0,0.0,1.0,8.0,0.0,0.0,0.0,0.0,0.0,1.0,0.0,10.0,02:41.0,127.0428867,37.63494491,정좌표
157,159,노원구,11350001055,호호어린이집,국공립,정상,1901,서울특별시 노원구 석계로 49 현대아파트 단지내,02-943-8133,,,5,123.0,1,6,10,44,36,37.61904228,127.0626013,미운영,2020-03-01,,,,2021-07-23,일반,2,2,2,1,0,0,0,0,0,7,5,7,13,11,0,0,0,0,0,36,0.0,0.0,0.0,0.0,0.0,1.0,8.0,0.0,0.0,0.0,0.0,0.0,1.0,0.0,10.0,02:52.0,127.0624592,37.61843895,정좌표
158,160,마포구,11440000457,신촌숲어린이집,국공립,정상,4094,서울특별시 마포구 광성로 17 관리동 1층,02-717-1357,02-718-1357,,6,426.0,1,11,18,79,70,37.55051397,126.9354841,미운영,2020-03-01,,,,2021-07-23,장애아통합,3,3,2,1,0,0,0,1,2,12,9,15,14,11,0,0,0,16,5,70,1.0,0.0,0.0,0.0,0.0,1.0,15.0,0.0,0.0,0.0,0.0,0.0,1.0,0.0,18.0,03:20.0,126.9353451,37.55073329,정좌표
159,161,성동구,11200000394,구립 왕십리하나어린이집,국공립,정상,4714,서울특별시 성동구 무학봉16길 9-3,02-2296-3990,02-2292-9326,,10,364.0,2,15,20,135,125,37.56085494,127.0320389,운영,2020-03-01,,,,2021-07-23,일반,0,0,4,3,2,2,0,1,0,12,0,0,28,28,37,32,0,0,0,125,0.0,1.0,0.0,0.0,0.0,1.0,14.0,0.0,0.0,1.0,0.0,2.0,2.0,0.0,21.0,01:40.0,127.0320396,37.56088853,정좌표
160,162,서대문구,11410000368,삼성영재어린이집,국공립,정상,3686,서울특별시 서대문구 증가로 191 DMC래미안클라시스 108동 104호,02-374-6703,,,3,84.0,1,4,7,19,19,37.57798691,126.9164331,미운영,2020-03-01,,,,2021-07-23,야간연장,2,2,1,0,0,0,0,0,0,5,4,8,7,0,0,0,0,0,0,19,0.0,0.0,0.0,0.0,0.0,1.0,5.0,0.0,0.0,0.0,0.0,0.0,1.0,0.0,7.0,03:10.0,126.9160668,37.57757512,정좌표
161,163,노원구,11350001052,노원든든어린이집,국공립,정상,1879,서울특별시 노원구 초안산로2라길 26 월계센트럴아이파크A 월계동,02-998-0632,,,4,121.0,0,9,13,45,39,37.56647,126.977963,미운영,2020-03-01,,,,2021-07-23,일반,3,2,2,1,0,0,0,0,0,8,6,10,14,9,0,0,0,0,0,39,0.0,0.0,0.0,0.0,0.0,1.0,11.0,0.0,0.0,0.0,0.0,0.0,1.0,0.0,13.0,02:51.0,127.0577451,37.62996413,정좌표
162,164,도봉구,11320000214,단비어린이집,가정,정상,1318,서울특별시 도봉구  마들로 859-19 110동 106호(도봉동 도봉한신아파트),02-3494-0541,02-3494-0541,,3,56.0,0,4,4,19,11,37.68715703,127.0470669,미운영,2020-03-01,,,,2021-07-23,일반,2,0,1,0,0,0,6,0,0,9,0,0,7,0,0,0,4,0,0,11,0.0,0.0,0.0,0.0,0.0,1.0,3.0,0.0,0.0,0.0,0.0,0.0,0.0,0.0,4.0,02:40.0,127.0476836,37.68752581,정좌표
163,165,서초구,11650000443,CJ키즈빌어린이집,직장,정상,6761,서울특별시 서초구 전원말4길 7,02-586-2022,,,7,356.0,1,82,22,120,49,37.46552581,126.9893123,미운영,2020-03-01,,,,2021-07-23,일반,0,6,2,0,0,1,0,4,0,13,0,10,7,0,0,5,0,27,0,49,0.0,1.0,0.0,0.0,0.0,1.0,16.0,0.0,0.0,1.0,0.0,0.0,4.0,0.0,22.0,04:40.0,126.9898138,37.46567353,정좌표
164,166,서대문구,11410000366,늘품자연어린이집,국공립,정상,3687,서울특별시 서대문구 거북골로 84 DMC에코자이아파트 단지 내,02-306-0972,02-306-0973,,8,593.0,2,16,18,91,88,37.57747559,126.9196685,미운영,2020-03-01,,,,2021-07-23,장애아통합시간제보육,3,2,2,1,1,1,0,0,1,11,6,10,14,15,20,20,0,0,3,88,1.0,0.0,0.0,0.0,0.0,1.0,14.0,0.0,0.0,0.0,0.0,0.0,3.0,0.0,18.0,03:10.0,126.9187374,37.57675348,정좌표
165,167,마포구,11440000461,GS예원어린이집,국공립,정상,4093,서울특별시 마포구 창전로 26 관리동 1층,02-712-7974,02-716-7974,,4,72.0,1,6,7,21,17,37.54410985,126.93102,미운영,2020-03-01,,,,2021-07-23,일반,3,2,1,0,0,0,2,0,0,8,2,0,7,0,0,0,8,0,0,17,0.0,0.0,0.0,0.0,0.0,1.0,5.0,0.0,0.0,0.0,0.0,0.0,1.0,0.0,7.0,03:20.0,126.9307811,37.54387248,정좌표
166,168,마포구,11440000459,아름드리어린이집,국공립,정상,3911,서울특별시 마포구 월드컵로 338 관리동 1층,02-322-0714,,,7,138.0,1,10,11,49,37,37.57271199,126.8895173,미운영,2020-03-01,,,,2021-07-23,일반,2,2,3,1,0,0,0,0,0,8,6,10,13,8,0,0,0,0,0,37,0.0,1.0,0.0,0.0,0.0,1.0,9.0,0.0,0.0,0.0,0.0,0.0,1.0,0.0,11.0,03:20.0,126.8892258,37.57349367,정좌표
167,169,노원구,11350001054,진주어린이집,국공립,정상,1618,서울특별시 노원구 동일로227길 86 1614동 103호,02-930-0240,,,3,52.0,0,3,7,15,15,37.56647,126.977963,미운영,2020-03-01,,,,2021-07-23,일반,0,0,1,0,0,0,5,0,0,6,0,0,6,0,0,0,9,0,0,15,0.0,0.0,0.0,0.0,0.0,1.0,5.0,0.0,0.0,0.0,0.0,0.0,1.0,0.0,7.0,02:52.0,127.053177,37.66831457,정좌표
168,170,중랑구,11260000466,보림어린이집,국공립,정상,2007,서울특별시 중랑구 중랑천로 286 101동 101호(묵동 현대아이파크),02-948-0533,02-948-0533,,4,85.0,0,6,9,20,20,37.60997834,127.0742506,미운영,2020-03-01,,,,2021-07-23,야간연장,2,2,2,0,0,0,0,0,0,6,3,9,8,0,0,0,0,0,0,20,0.0,0.0,0.0,0.0,0.0,1.0,7.0,0.0,0.0,0.0,0.0,0.0,1.0,0.0,9.0,02:10.0,127.0740224,37.61083103,정좌표
169,171,중랑구,11260000463,푸른숲어린이집,국공립,정상,2191,서울특별시 중랑구 용마산로94길 94,02-2208-3004,02-2208-3033,,6,594.0,1,18,15,75,58,37.58734254,127.1022504,미운영,2020-03-01,,,,2021-07-23,야간연장,0,4,3,0,0,0,4,3,0,14,0,15,21,0,0,0,3,19,0,58,0.0,0.0,0.0,0.0,0.0,1.0,12.0,0.0,0.0,0.0,0.0,0.0,1.0,0.0,15.0,02:11.0,127.1015448,37.58758681,정좌표
170,172,강서구,11500000733,구립 해담어린이집,국공립,정상,7609,서울특별시 강서구 금낭화로11길 36,02-2662-3265,,,5,206.0,1,11,12,73,66,37.57003671,126.8103157,미운영,2020-03-01,,,,2021-07-23,장애아통합,0,1,2,1,1,1,0,0,1,7,0,5,13,14,16,16,0,0,2,66,0.0,0.0,0.0,0.0,0.0,1.0,10.0,0.0,0.0,0.0,0.0,0.0,1.0,0.0,12.0,03:41.0,126.8103264,37.57005195,정좌표
171,173,종로구,11110000178,라이나생명 키즈나루 어린이집,직장,정상,3156,서울특별시 종로구 삼봉로 48 시그나 빌딩 2층,02-3779-8170,02-3779-8177,,4,170.0,1,8,11,49,14,37.57209526,126.9800091,미운영,2020-03-01,,,,2021-07-23,일반,0,0,1,0,0,1,2,1,0,5,0,0,2,0,0,3,5,4,0,14,1.0,0.0,0.0,0.0,0.0,1.0,6.0,0.0,0.0,0.0,0.0,0.0,2.0,0.0,11.0,01:10.0,126.9799863,37.57206709,정좌표
172,174,강남구,11680000491,포스코 제2 어린이집,직장,정상,6194,서울특별시 강남구 테헤란로 440 포스코센터 4층,02-3457-6591,02-3457-6593,www.puruni.com/posco4,4,321.0,1,22,22,100,80,37.50627215,127.056493,미운영,2020-03-01,,,,2021-07-23,일반,0,0,0,0,0,3,0,9,0,12,0,0,0,0,0,14,0,66,0,80,0.0,1.0,0.0,0.0,0.0,1.0,15.0,0.0,0.0,1.0,1.0,0.0,2.0,0.0,22.0,04:51.0,127.0561308,37.50581523,정좌표
173,175,성동구,11200000395,구립 성수아이파크어린이집,국공립,정상,4795,서울특별시 성동구 성수이로 137 관리동 1층 (성수동2가 성수동아이파크),02-469-5575,02-474-6432,,4,82.0,0,6,10,31,30,37.54708974,127.0565804,미운영,2020-03-01,,,,2021-07-23,일반,2,2,2,0,0,0,0,0,0,6,6,10,14,0,0,0,0,0,0,30,1.0,0.0,0.0,0.0,0.0,1.0,8.0,0.0,0.0,0.0,0.0,0.0,1.0,0.0,10.0,01:40.0,127.0561025,37.5473586,정좌표
174,176,중랑구,11260000465,수자인어린이집,국공립,정상,2260,서울특별시 중랑구 사가정로72길 26 한양수자인사가정파크 단지내,02-432-8366,02-432-8365,,3,66.0,0,7,9,23,23,37.57991627,127.0939193,미운영,2020-03-01,,,,2021-07-23,야간연장,1,2,2,0,0,0,0,0,0,5,3,10,10,0,0,0,0,0,0,23,0.0,0.0,0.0,0.0,0.0,1.0,7.0,0.0,0.0,0.0,0.0,0.0,1.0,0.0,9.0,02:11.0,127.0941149,37.57904944,정좌표
175,177,동대문구,11230000163,한빛어린이집,국공립,정상,2451,서울특별시 동대문구 이문로9길 93 101호 (이문동 반도하이츠빌라),02-2135-5861,02-2135-5863,,3,64.0,0,7,6,20,11,37.59650811,127.0567522,미운영,2020-03-01,,,,2021-07-23,일반,2,3,3,0,0,0,3,0,0,11,5,0,0,0,0,0,6,0,0,11,0.0,0.0,0.0,0.0,0.0,1.0,4.0,0.0,0.0,0.0,0.0,0.0,1.0,0.0,6.0,02:01.0,127.0565619,37.5961571,정좌표
176,178,도봉구,11320000492,웃음가득어린이집,가정,정상,1318,서울특별시 도봉구 마들로 859-19 106동 104호(도봉동 도봉한신아파트),02-955-1255,02-955-1255,,3,57.0,0,4,5,19,14,37.686043,127.04676,운영,2020-03-01,,,,2021-07-23,일반,0,1,1,0,0,0,3,0,0,5,0,5,7,0,0,0,2,0,0,14,0.0,0.0,0.0,0.0,0.0,1.0,3.0,0.0,0.0,0.0,0.0,0.0,0.0,0.0,5.0,02:41.0,127.0476836,37.68752581,정좌표
177,179,노원구,11350001053,상계해솔어린이집,국공립,정상,1639,서울특별시 노원구 수락산로 12 (상계역센트럴푸르지오A 상계동),02-931-0219,02-3391-1141,,7,188.0,3,16,14,65,64,37.66525308,127.0753257,미운영,2020-03-01,,,,2021-07-23,일반,3,2,2,1,1,0,1,1,0,11,6,10,14,14,0,0,3,17,0,64,0.0,1.0,0.0,0.0,0.0,1.0,11.0,0.0,0.0,0.0,0.0,0.0,1.0,0.0,14.0,02:51.0,127.0737847,37.66534884,정좌표
178,180,서초구,11650000441,서초구립 대우효령어린이집,국공립,정상,6696,서울특별시 서초구 효령로 84,02-525-1116,,,3,50.0,1,7,7,18,18,37.47984316,126.9934454,미운영,2020-03-01,,,,2021-07-23,일반,2,1,1,0,0,0,0,0,0,4,6,5,7,0,0,0,0,0,0,18,0.0,0.0,0.0,0.0,0.0,1.0,5.0,0.0,0.0,0.0,0.0,0.0,1.0,0.0,7.0,04:40.0,126.9944461,37.4799181,정좌표
179,181,광진구,11215000356,구립우리아이어린이집,국공립,정상,5036,서울특별시 광진구 구의로4길 21 구의동,010-4697-9933,02-454-6169,,4,182.0,1,11,10,42,25,37.54012729,127.0908384,미운영,2020-03-01,,,,2021-07-23,일반,2,3,2,0,0,0,0,0,0,7,5,8,12,0,0,0,0,0,0,25,0.0,0.0,0.0,0.0,0.0,1.0,8.0,0.0,0.0,0.0,0.0,0.0,1.0,0.0,10.0,01:50.0,127.0908394,37.54016617,정좌표
180,182,강북구,11305000343,구립삼성어린이집,국공립,정상,1040,서울특별시 강북구 한천로159길 8 삼성아파트 관리동,02-996-3737,02-996-3737,,4,127.0,1,8,14,45,43,37.64482342,127.0182201,미운영,2020-03-01,,,,2021-07-23,야간연장,3,1,1,0,0,0,2,2,0,9,6,5,5,0,0,0,7,20,0,43,1.0,1.0,0.0,0.0,0.0,1.0,11.0,0.0,0.0,0.0,0.0,0.0,1.0,0.0,14.0,02:30.0,127.0181598,37.6449313,정좌표
181,183,은평구,11380000668,구립 내일어린이집,국공립,정상,3469,서울특별시 은평구 응암로16길 20-9 구립 내일어린이집,02-306-3850,02-306-3854,https://iseoul.seoul.go.kr/homepage/main.do?stCode=11380000668,5,481.0,4,12,16,68,61,38.27356622,126.1234999,미운영,2020-03-01,,,,2021-07-23,야간연장,0,4,5,1,0,0,3,2,0,15,0,15,27,8,0,0,3,8,0,61,0.0,0.0,0.0,0.0,0.0,1.0,13.0,0.0,0.0,0.0,0.0,0.0,1.0,0.0,16.0,03:01.0,126.9194976,37.59097355,정좌표
182,184,서초구,11650000444,서초구립 롯데캐슬킨더어린이집,국공립,정상,6608,서울특별시 서초구 서운로 197 1층,02-591-3009,02-591-3911,,4,215.0,1,10,15,48,43,37.50048804,127.0211649,미운영,2020-03-01,,,,2021-07-23,일반,4,2,3,0,0,0,0,0,0,9,12,10,21,0,0,0,0,0,0,43,0.0,0.0,0.0,0.0,0.0,1.0,12.0,0.0,0.0,0.0,0.0,0.0,1.0,0.0,15.0,04:40.0,127.0223745,37.49996896,정좌표
183,185,강서구,11500000734,구립 새하늘어린이집,국공립,정상,7768,서울특별시 강서구 강서로17다길 15-14,02-2603-2225,02-2603-2273,,7,245.0,1,32,15,92,89,37.53329264,126.8414345,미운영,2020-03-01,,,,2021-07-23,야간연장,0,1,3,2,0,0,0,2,0,8,0,5,20,24,0,0,0,40,0,89,0.0,0.0,0.0,0.0,0.0,1.0,12.0,0.0,0.0,0.0,0.0,0.0,2.0,0.0,15.0,03:41.0,126.8414105,37.53329926,정좌표
184,186,강남구,11680000490,다람패스트파이브공동직장어린이집,직장,정상,6128,서울특별시 강남구 봉은사로18길 45-1,02-3453-7734,02-501-3137,http://hansol-fastfive.kidsnote.ac,3,86.0,1,37,7,30,11,37.50342806,127.0293933,미운영,2020-02-28,,,,2021-07-23,일반,0,0,1,1,0,0,1,0,0,3,0,0,5,3,0,0,3,0,0,11,0.0,0.0,0.0,0.0,0.0,1.0,4.0,0.0,0.0,0.0,0.0,0.0,1.0,0.0,7.0,04:51.0,127.0293756,37.50342564,정좌표
185,187,은평구,11380000667,서울소방학교 직장어린이집,직장,정상,3312,서울특별시 은평구 통일로 1031-21,02-354-3601,,,4,88.0,0,16,7,30,18,37.63390479,126.9135977,미운영,2020-02-28,,,,2021-07-23,일반,0,1,2,0,0,0,0,1,0,4,0,4,7,0,0,0,0,7,0,18,0.0,0.0,0.0,0.0,0.0,1.0,5.0,0.0,0.0,0.0,0.0,0.0,1.0,0.0,7.0,03:01.0,126.9124113,37.63396048,정좌표
186,188,강남구,11680000489,블랭크어린이집,직장,정상,6148,서울특별시 강남구 선릉로93길 40 1층,02-6230-0100,02-6230-0201,www.puruni.com/blank,3,93.0,1,18,6,25,8,37.50464382,127.0454875,미운영,2020-02-27,,,,2021-07-23,일반,2,0,0,0,0,0,1,1,0,4,2,0,0,0,0,0,2,4,0,8,0.0,0.0,0.0,0.0,0.0,1.0,4.0,0.0,0.0,0.0,0.0,0.0,1.0,0.0,6.0,04:51.0,127.045487,37.50464355,정좌표
187,189,마포구,11440000458,SK스토아 행복어린이집,직장,정상,3925,서울특별시 마포구 월드컵북로 402 2층(상암동KGIT센터),02-6393-5320,02-6393-5321,,4,216.0,0,10,11,35,25,37.58015377,126.8890535,미운영,2020-02-27,,,,2021-07-23,일반,1,4,1,0,0,0,0,1,0,7,0,13,6,0,0,0,0,6,0,25,0.0,0.0,0.0,0.0,0.0,1.0,9.0,0.0,0.0,0.0,0.0,0.0,1.0,0.0,11.0,03:20.0,126.888982,37.58010709,정좌표
188,190,용산구,11170000206,용산소방서직장어린이집,직장,정상,4375,서울특별시 용산구 한강대로 167 용산소방서,02-749-6034,,,3,99.0,0,11,7,25,15,37.56647,126.977963,미운영,2020-02-27,,,,2021-07-23,일반,0,1,1,1,0,0,5,1,0,9,0,0,7,0,0,0,6,2,0,15,0.0,0.0,0.0,0.0,0.0,1.0,5.0,0.0,0.0,0.0,0.0,0.0,1.0,0.0,7.0,01:30.0,126.9715071,37.53410853,정좌표
189,191,강서구,11500000732,LG이노텍 서울어린이집,직장,정상,7796,서울특별시 강서구 마곡중앙10로 30 E3,02-2135-1236,02-2136-1936,,4,97.0,0,16,12,30,25,37.56198781,126.8321238,미운영,2020-02-26,,,,2021-07-23,일반,0,0,0,0,0,1,2,2,0,5,0,0,0,0,0,5,10,10,0,25,0.0,0.0,0.0,0.0,0.0,1.0,9.0,0.0,0.0,0.0,0.0,0.0,2.0,0.0,12.0,03:41.0,126.8329522,37.56203384,정좌표
190,192,중구,11140000117,키즈일레븐어린이집,직장,정상,4637,서울특별시 중구 한강대로 416 2층,02-6456-8560,,,3,161.0,0,10,7,49,13,37.55583997,126.9733362,미운영,2020-02-25,,,,2021-07-23,일반,0,2,2,0,0,0,0,2,0,6,0,3,7,0,0,0,0,3,0,13,0.0,1.0,0.0,0.0,0.0,1.0,5.0,0.0,0.0,0.0,0.0,0.0,1.0,0.0,7.0,01:20.0,126.9737513,37.55550425,정좌표
191,193,강동구,11740000526,아이뜰어린이집,가정,정상,5276,서울특별시 강동구 고덕로80길 99 517동 103호(상일동 고덕센트럴아이파크아파트),02-427-0511,,,3,63.0,0,4,7,20,20,37.55253857,127.1679087,미운영,2020-02-25,,,,2021-07-23,일반,1,2,1,0,0,0,1,0,0,5,3,5,7,0,0,0,5,0,0,20,0.0,0.0,0.0,0.0,0.0,1.0,5.0,0.0,0.0,0.0,0.0,0.0,0.0,0.0,7.0,05:11.0,127.1670682,37.55198252,정좌표
192,194,강동구,11740000528,구립아르테온보예어린이집,국공립,정상,5274,서울특별시 강동구 고덕로 360 고덕아르테온아파트 319동 1층(상일동),02-6925-5642,02-6925-5641,,7,350.0,2,15,18,85,84,37.55543467,127.168334,미운영,2020-02-20,,,,2021-07-23,장애아통합야간연장,3,2,2,1,1,1,0,0,1,11,8,10,14,15,15,19,0,0,3,84,1.0,0.0,0.0,0.0,0.0,1.0,15.0,0.0,0.0,0.0,0.0,0.0,2.0,0.0,18.0,05:11.0,127.1716389,37.55414163,정좌표
193,195,광진구,11215000355,KB구의 어린이집,직장,정상,4977,서울특별시 광진구 광나루로 525 3층,02-6235-7977,02-6235-7976,https://www.puruni.com/kbguui,4,174.0,1,16,13,49,31,37.54511534,127.0880028,미운영,2020-02-20,,,,2021-07-23,일반,0,3,2,0,0,1,0,2,0,8,0,9,9,0,0,4,0,9,0,31,0.0,1.0,0.0,0.0,0.0,1.0,10.0,0.0,0.0,0.0,0.0,0.0,2.0,0.0,13.0,01:50.0,127.0879826,37.54517795,정좌표
194,196,동작구,11590000437,유한버들새싹어린이집,직장,정상,6927,서울특별시 동작구 노량진로 74 유한양행,02-828-2506,02-828-2058,,3,148.0,0,12,10,49,13,37.51270279,126.9342612,미운영,2020-02-20,,,,2021-07-23,일반,0,2,1,0,0,0,0,1,0,4,0,4,4,0,0,0,0,5,0,13,0.0,0.0,0.0,0.0,0.0,1.0,7.0,0.0,0.0,0.0,0.0,0.0,2.0,0.0,10.0,04:21.0,126.9326425,37.51296511,정좌표
195,197,강서구,11500000731,구립 엠밸리큰나무어린이집,국공립,정상,7795,서울특별시 강서구 마곡중앙8로1길 10,02-3663-9599,02-3662-9599,,5,230.0,0,13,14,70,43,37.56184474,126.8361025,미운영,2020-02-20,,,,2021-07-23,장애아통합,2,3,2,0,0,0,0,1,0,8,5,14,14,0,0,0,0,10,0,43,0.0,0.0,0.0,0.0,0.0,1.0,11.0,0.0,0.0,0.0,0.0,0.0,1.0,0.0,14.0,03:41.0,126.836076,37.56186109,정좌표
196,198,강동구,11740000527,구립아르테온보나어린이집,국공립,정상,5274,서울특별시 강동구 고덕로 360 고덕아르테온 339동 인근 관리동,02-442-2022,02-442-2022,서울시보육포털서비스,4,56.0,1,8,8,21,21,37.5556412,127.1640253,미운영,2020-02-20,,,,2021-07-23,야간연장,2,1,1,0,0,0,1,0,0,5,6,5,7,0,0,0,3,0,0,21,0.0,0.0,0.0,0.0,0.0,1.0,6.0,0.0,0.0,0.0,0.0,0.0,1.0,0.0,8.0,05:11.0,127.1716389,37.55414163,정좌표
197,199,동작구,11590000436,구립가온어린이집,국공립,정상,7046,서울특별시 동작구 성대로16길 21,02-3280-0217,02-3280-0218,https://iseoul.seoul.go.kr/homepage/main.do?stCode=11590000436,7,231.0,1,21,10,79,49,37.50193921,126.9323537,미운영,2020-02-17,,,,2021-07-23,야간연장,0,2,2,1,1,1,0,0,0,7,0,4,13,14,6,12,0,0,0,49,0.0,0.0,0.0,0.0,0.0,1.0,8.0,0.0,0.0,0.0,0.0,0.0,1.0,0.0,10.0,04:20.0,126.9372987,37.49761586,정좌표
198,200,영등포구,11560000475,늘봄보라매SK뷰어린이집,국공립,정상,7391,서울특별시 영등포구 여의대방로35가길 19,02-2135-7941,02-832-7941,,5,182.0,2,13,14,68,67,37.50352258,126.9179129,미운영,2020-02-07,,,,2021-07-23,일반,0,0,2,1,1,1,2,0,0,7,0,0,14,14,15,18,6,0,0,67,0.0,0.0,0.0,0.0,0.0,1.0,11.0,0.0,0.0,0.0,0.0,0.0,1.0,0.0,14.0,04:10.0,126.9173965,37.50187744,정좌표
199,201,서초구,11650000442,동고어린이집,가정,정상,6762,서울특별시 서초구 바우뫼로7길 29 105동 102호,02-6241-1852,,,3,86.0,0,4,6,20,18,37.47106295,127.0233412,미운영,2020-02-07,,,,2021-07-23,일반,1,2,1,0,0,0,0,0,0,4,3,8,7,0,0,0,0,0,0,18,0.0,0.0,0.0,0.0,0.0,1.0,4.0,0.0,0.0,0.0,0.0,0.0,0.0,0.0,6.0,04:40.0,127.0232558,37.47178021,정좌표
200,202,용산구,11170000205,용산캐슬어린이집,국공립,정상,4317,서울특별시 용산구 백범로 313 키즈클럽(효창동롯데캐슬센터포레),02-712-7942,,,3,171.0,1,7,9,24,24,37.53981745,126.9630736,미운영,2020-02-04,,,,2021-07-23,일반,2,1,0,0,0,0,3,0,0,6,6,5,0,0,0,0,13,0,0,24,0.0,0.0,0.0,0.0,0.0,1.0,7.0,0.0,0.0,0.0,0.0,0.0,1.0,0.0,9.0,01:30.0,126.9638932,37.54016067,정좌표
201,203,금천구,11545000338,구립독산e편한어린이집,국공립,정상,8603,서울특별시 금천구 범안로 1212,02-892-0700,,,5,281.0,1,8,12,65,49,37.56647,126.977963,미운영,2020-02-01,,,,2021-07-23,일반,2,2,2,1,0,0,0,1,0,8,6,10,14,11,0,0,0,8,0,49,0.0,1.0,0.0,0.0,0.0,1.0,10.0,0.0,0.0,0.0,0.0,0.0,1.0,0.0,12.0,04:00.0,126.8963705,37.46545397,정좌표
202,204,송파구,11710000794,가락아이들어린이집,국공립,정상,5832,서울특별시 송파구 중대로12길 34 (가락동),02-400-3188,,,7,220.0,1,20,13,66,50,37.49196785,127.12501,미운영,2020-02-01,,,,2021-07-23,야간연장,2,2,3,2,0,0,0,0,0,9,6,10,21,13,0,0,0,0,0,50,0.0,0.0,0.0,0.0,0.0,1.0,11.0,0.0,0.0,0.0,0.0,0.0,1.0,0.0,13.0,05:01.0,127.1250016,37.49195557,정좌표
203,205,동작구,11590000435,구립꿈담어린이집,국공립,정상,6969,서울특별시 동작구 상도로47아길 44-1 2층,02-813-4246,02-813-4247,https://iseoul.seoul.go.kr/homepage/main.do?stCode=11590000435,3,103.0,0,13,10,39,28,37.50401952,126.953594,미운영,2020-02-01,,,,2021-07-23,일반,2,2,2,0,0,0,0,0,0,6,6,10,12,0,0,0,0,0,0,28,0.0,0.0,0.0,0.0,0.0,1.0,8.0,0.0,0.0,0.0,0.0,0.0,1.0,0.0,10.0,04:20.0,126.9534867,37.50424472,정좌표
204,206,성동구,11200000393,구립 행당한신어린이집,국공립,정상,4746,서울특별시 성동구 고산자로 164 관리동 2층(행당동 행당한신),02-2291-0079,,,4,106.0,1,7,9,40,33,37.5562048,127.0354944,미운영,2020-01-31,,,,2021-07-23,일반,0,2,2,1,0,0,0,0,0,5,0,10,14,9,0,0,0,0,0,33,0.0,0.0,0.0,0.0,0.0,1.0,6.0,0.0,0.0,0.0,0.0,0.0,1.0,0.0,9.0,01:40.0,127.0368012,37.55556446,정좌표
205,207,구로구,11530000632,새빛어린이집,국공립,정상,8362,서울특별시 구로구 연동로 233,02-2688-3688,02-2689-3688,,4,141.0,1,15,12,44,42,37.48052286,126.8207939,미운영,2020-01-31,,,,2021-07-23,일반,2,2,2,1,0,0,0,0,0,7,6,10,14,12,0,0,0,0,0,42,0.0,0.0,0.0,0.0,0.0,1.0,9.0,0.0,0.0,0.0,0.0,0.0,1.0,0.0,12.0,03:51.0,126.820512,37.48023327,정좌표
206,208,구로구,11530000631,항동하랑어린이집,국공립,정상,8368,서울특별시 구로구 항동로 42,02-2612-0081,02-2612-0087,,4,285.0,3,9,11,69,69,37.47820771,126.8256072,미운영,2020-01-22,,,,2021-07-23,일반,0,0,2,1,1,1,0,0,0,5,0,0,14,15,20,20,0,0,0,69,0.0,0.0,0.0,0.0,0.0,1.0,8.0,0.0,0.0,0.0,0.0,0.0,1.0,0.0,11.0,03:52.0,126.8255039,37.47829809,정좌표
207,209,송파구,11710000795,삼성아트어린이집,국공립,정상,5794,서울특별시 송파구 문정로 83,02-401-7245,,,5,108.0,0,7,12,40,40,37.49032779,127.1314412,미운영,2020-01-21,,,,2021-07-23,야간연장,2,3,3,0,0,0,0,0,0,8,6,14,20,0,0,0,0,0,0,40,0.0,0.0,0.0,0.0,0.0,1.0,10.0,0.0,0.0,0.0,0.0,0.0,1.0,0.0,12.0,05:01.0,127.1298651,37.48954173,정좌표
208,210,송파구,11710000796,파인13어린이집,국공립,정상,5813,서울특별시 송파구 송파대로8길 10 (장지동 송파파인타운13단지),02-400-0609,02-409-0609,,3,59.0,0,4,8,22,21,37.56647,126.977963,미운영,2020-01-20,,,,2021-07-23,야간연장,0,2,2,0,0,0,0,0,0,4,0,8,13,0,0,0,0,0,0,21,0.0,0.0,0.0,0.0,0.0,1.0,6.0,0.0,0.0,0.0,0.0,0.0,1.0,0.0,8.0,05:02.0,127.1280976,37.47671085,정좌표
209,211,중구,11140000116,아이다움어린이집,가정,정상,4581,서울특별시 중구 난계로 130 102동 102호,02-2233-7942,,cafe.naver.com/idaum2020,3,42.0,0,4,5,15,11,37.5635023,127.0244778,미운영,2020-01-18,,,,2021-07-23,일반,3,1,0,0,0,0,2,0,0,6,3,5,0,0,0,0,3,0,0,11,0.0,0.0,0.0,0.0,0.0,1.0,3.0,0.0,0.0,0.0,0.0,0.0,0.0,0.0,5.0,01:20.0,127.0250686,37.56320185,정좌표
210,212,송파구,11710000793,잠실올림픽아이파크어린이집,국공립,정상,5506,서울특별시 송파구 올림픽로43길 34 관리동 1층(풍납동 잠실올림픽공원아이파크),02-473-8613,02-473-8612,,4,180.0,1,8,16,66,58,37.52526619,127.1144174,미운영,2020-01-14,,,,2021-07-23,야간연장,2,3,3,1,1,0,0,0,0,10,6,15,21,11,5,0,0,0,0,58,0.0,0.0,0.0,0.0,0.0,1.0,13.0,0.0,0.0,0.0,0.0,0.0,1.0,1.0,16.0,05:02.0,127.1134678,37.52494188,정좌표
211,213,강서구,11500000729,구립 아이나무어린이집,국공립,정상,7711,서울특별시 강서구 화곡로13가길 5,02-6949-1305,02-6949-1304,,5,130.0,1,21,12,48,42,37.54136832,126.833593,미운영,2020-01-12,,,,2021-07-23,장애아통합,1,3,3,1,0,0,0,0,0,8,3,10,18,11,0,0,0,0,0,42,0.0,0.0,0.0,0.0,0.0,2.0,9.0,0.0,0.0,0.0,0.0,0.0,1.0,0.0,12.0,03:41.0,126.8335748,37.54139553,정좌표
212,214,강서구,11500000730,구립 하늘마음어린이집,국공립,정상,7724,서울특별시 강서구 초록마을로 106,02-6959-7736,070-8228-7400,https://iseoul.seoul.go.kr/homepage/main.do?stCode=11500000730,7,154.0,1,24,11,51,43,37.53897294,126.8514418,미운영,2020-01-10,,,,2021-07-23,장애아통합야간연장,2,3,2,1,0,0,0,0,0,8,6,15,14,8,0,0,0,0,0,43,0.0,0.0,0.0,0.0,0.0,1.0,9.0,0.0,0.0,0.0,0.0,0.0,1.0,0.0,11.0,03:41.0,126.8514201,37.53901844,정좌표
213,215,은평구,11380000666,구립 가람슬기어린이집,국공립,정상,3335,서울특별시 은평구 연서로19길 28-1,02-353-2235,,,5,163.0,3,20,15,61,55,37.61432295,126.9151211,미운영,2020-01-09,,,,2021-07-23,야간연장,3,2,4,0,0,0,1,1,0,11,9,10,28,0,0,0,0,8,0,55,0.0,0.0,0.0,0.0,0.0,1.0,12.0,0.0,0.0,0.0,0.0,0.0,1.0,0.0,15.0,03:01.0,126.9146099,37.61447777,정좌표
214,216,동작구,11590000434,구립도레미어린이집,국공립,정상,6909,서울특별시 동작구 흑석로13길 25,02-813-2031,02-813-2032,https://iseoul.seoul.go.kr/homepage/main.do?stCode=11590000434,8,316.0,1,18,15,95,61,37.50988487,126.9591636,미운영,2020-01-01,,,,2021-07-23,장애아통합,3,4,2,1,1,0,0,0,0,11,6,20,13,10,12,0,0,0,0,61,0.0,1.0,0.0,0.0,0.0,1.0,12.0,0.0,0.0,0.0,0.0,0.0,1.0,0.0,15.0,04:20.0,126.9591472,37.50992452,정좌표
215,217,성북구,11290000643,바람아래발도르프어린이집,협동,정상,2721,서울특별시 성북구 길음로9길 40 108동 101호,02-942-5090,,http://cafe.daum.net/baramarae,3,85.0,1,0,6,19,16,37.60572346,127.0212499,미운영,2019-12-31,,,,2021-07-23,일반,0,0,0,0,0,0,1,2,0,3,0,0,0,0,0,0,3,13,0,16,0.0,0.0,0.0,0.0,0.0,1.0,4.0,0.0,0.0,0.0,0.0,0.0,1.0,0.0,6.0,02:21.0,127.0197784,37.60578706,정좌표
216,218,성북구,11290000642,키움누리어린이집,국공립,정상,2715,서울특별시 성북구 서경로 60 길음뉴타운 11단지 롯데캐슬골든힐스 단지 내,02-943-1525,02-943-1524,http://cafe.daum.net/kiumnuri2020,3,137.0,0,4,10,23,23,37.60948703,127.0161502,미운영,2019-12-05,,,,2021-07-23,일반,2,2,1,0,0,0,0,0,0,5,6,9,8,0,0,0,0,0,0,23,0.0,0.0,0.0,0.0,0.0,1.0,7.0,0.0,0.0,0.0,0.0,0.0,1.0,0.0,10.0,02:21.0,127.0154563,37.60992241,정좌표
217,219,강동구,11740000523,구립힐스아이어린이집,국공립,정상,5242,서울특별시 강동구 올림픽로91길 30 관리동(구립힐스아이어린이집),02-429-6351,02-429-6352,,4,116.0,1,13,11,34,34,37.56647,126.977963,미운영,2019-12-02,,,,2021-07-23,야간연장,2,3,2,0,0,0,0,0,0,7,6,14,14,0,0,0,0,0,0,34,0.0,0.0,0.0,0.0,0.0,1.0,9.0,0.0,0.0,0.0,0.0,0.0,1.0,0.0,11.0,05:11.0,127.1257454,37.54916373,정좌표
218,220,강동구,11740000524,구립센트럴아이파크어린이집,국공립,정상,5276,서울특별시 강동구 고덕로80길 99 관리동(구립센트럴아이파크어린이집),02-6013-0320,02-6013-0320,,7,285.0,1,32,22,95,92,37.55200402,127.1668211,미운영,2019-12-02,,,,2021-07-23,장애아통합야간연장,3,3,2,1,1,1,0,0,2,13,9,14,14,14,19,20,0,0,2,92,1.0,0.0,0.0,0.0,0.0,1.0,17.0,0.0,0.0,0.0,0.0,0.0,2.0,1.0,22.0,05:11.0,127.1670682,37.55198252,정좌표
219,221,강동구,11740000525,구립롯데캐슬베네루체어린이집,국공립,정상,5281,서울특별시 강동구 구천면로 630 고덕롯데캐슬베네루체 관리동(구립롯데캐슬베네루체어린이집),02-442-7675,02-442-7674,,6,276.0,1,21,18,91,90,37.56647,126.977963,미운영,2019-12-02,,,,2021-07-23,장애아통합야간연장,3,2,2,1,1,1,0,0,1,11,9,10,14,15,20,20,0,0,2,90,0.0,1.0,0.0,0.0,0.0,1.0,13.0,1.0,0.0,0.0,0.0,0.0,2.0,0.0,18.0,05:10.0,127.1679579,37.5501587,정좌표
220,222,금천구,11545000337,구립소나무어린이집,국공립,정상,8561,서울특별시 금천구 독산로58나길 81,02-802-7902,02-853-1902,,5,290.0,2,12,11,79,54,37.46656727,126.9066734,미운영,2019-12-01,,,,2021-07-23,일반,1,2,3,1,0,1,0,1,0,9,3,5,10,14,0,12,0,10,0,54,0.0,1.0,0.0,0.0,0.0,1.0,8.0,0.0,0.0,0.0,0.0,0.0,1.0,0.0,11.0,04:00.0,126.9066513,37.46657866,정좌표
221,223,중랑구,11260000464,우리들어린이집,국공립,정상,2034,서울특별시 중랑구 공릉로4길 18-13,02-973-0577,02-973-0570,,6,284.0,2,21,10,60,37,37.61262629,127.0791942,미운영,2019-12-01,,,,2021-07-23,야간연장,0,2,2,1,0,0,1,1,0,7,0,5,10,11,0,0,2,9,0,37,0.0,0.0,0.0,0.0,0.0,1.0,7.0,0.0,0.0,0.0,0.0,0.0,1.0,0.0,10.0,02:11.0,127.0791916,37.61262306,정좌표
222,224,동대문구,11230000492,데시앙어린이집,국공립,정상,2530,서울특별시 동대문구 장한로27길 37 관리동(장안동 더퍼스트데시앙아파트),02-6053-6601,02-6053-6602,,3,163.0,0,11,10,26,26,37.56647,126.977963,미운영,2019-12-01,,,,2021-07-23,일반,2,2,2,0,0,0,0,0,0,6,6,8,12,0,0,0,0,0,0,26,0.0,1.0,0.0,0.0,0.0,1.0,8.0,0.0,0.0,0.0,0.0,0.0,1.0,0.0,10.0,02:00.0,127.0696021,37.5731106,정좌표
223,225,강북구,11305000342,구립꿈의숲해링턴어린이집,국공립,정상,1155,서울특별시 강북구 오현로 45 꿈의숲해링턴플레이스아파트 114동 (지하1층),02-989-1467,02-988-1467,,4,131.0,1,8,12,45,41,37.61880825,127.0347624,미운영,2019-11-29,,,,2021-07-23,장애아통합,1,2,2,1,0,0,0,0,1,7,3,10,14,12,0,0,0,0,2,41,1.0,0.0,0.0,0.0,0.0,1.0,8.0,1.0,0.0,0.0,0.0,0.0,1.0,0.0,12.0,02:30.0,127.0343067,37.61739264,정좌표
224,226,은평구,11380000665,구립 숲속향기어린이집,국공립,정상,3308,서울특별시 은평구 연서로48길 12 510동 1층,02-384-4466,,,5,96.0,0,9,9,36,28,37.56647,126.977963,미운영,2019-11-28,,,,2021-07-23,야간연장,1,3,2,0,0,0,0,1,0,7,1,9,9,0,0,0,0,9,0,28,0.0,0.0,0.0,0.0,0.0,1.0,7.0,0.0,0.0,0.0,0.0,0.0,1.0,0.0,9.0,03:01.0,126.9354277,37.63678588,정좌표
225,227,서대문구,11410000370,자람어린이집,국공립,정상,3711,서울특별시 서대문구 가재울미래로 2 DMC파크뷰자이 4단지 내 402동 1층,02-6954-1909,,,3,64.0,0,5,8,19,19,37.57181376,126.9145581,미운영,2019-11-19,,,,2021-07-23,일반,2,2,1,0,0,0,0,0,0,5,5,8,6,0,0,0,0,0,0,19,1.0,0.0,0.0,0.0,0.0,1.0,6.0,0.0,0.0,0.0,0.0,0.0,1.0,0.0,8.0,03:10.0,126.9141889,37.57225583,정좌표
226,228,강동구,11740000522,베베키즈어린이집,가정,정상,5224,서울특별시 강동구 고덕로 333 112동 105호(고덕동 고덕그라시움아파트),02-428-1566,,,3,64.0,0,4,6,20,20,37.55690032,127.1607687,미운영,2019-11-13,,,,2021-07-23,일반,1,2,1,0,0,0,0,0,0,4,3,10,7,0,0,0,0,0,0,20,0.0,0.0,0.0,0.0,0.0,1.0,4.0,0.0,0.0,0.0,0.0,0.0,1.0,0.0,6.0,05:11.0,127.1656023,37.55825523,정좌표
227,229,양천구,11470000615,두산로다어린이집,가정,정상,8063,서울특별시 양천구 신월로20길 7 신정뉴타운 두산위브 관리동,02-6408-0705,02-6408-0702,,3,53.0,0,5,7,20,18,37.51923355,126.8456157,미운영,2019-11-08,,,,2021-07-23,일반,2,2,1,0,0,0,1,0,0,6,6,8,4,0,0,0,0,0,0,18,0.0,0.0,0.0,0.0,0.0,1.0,5.0,0.0,0.0,0.0,0.0,0.0,0.0,0.0,7.0,03:31.0,126.8451178,37.51939171,정좌표
228,230,은평구,11380000664,구립 가온누리어린이집,국공립,정상,3321,서울특별시 은평구 갈현로31길 14-9,02-356-7713,02-356-7716,,5,93.0,0,12,10,35,25,37.62044914,126.9143892,미운영,2019-11-05,,,,2021-07-23,야간연장,2,2,2,0,0,0,0,0,0,6,6,9,10,0,0,0,0,0,0,25,0.0,0.0,0.0,0.0,0.0,1.0,8.0,0.0,0.0,0.0,0.0,0.0,1.0,0.0,10.0,03:01.0,126.9145494,37.62056492,정좌표
229,231,성북구,11290000641,초롱어린이집,가정,정상,2779,서울특별시 성북구 한천로90길 49 1층,02-942-0130,02-942-0130,,4,60.0,0,6,4,17,6,37.61474362,127.0385321,미운영,2019-11-04,,,,2021-07-23,일반,3,2,1,0,0,0,1,0,0,7,3,3,0,0,0,0,0,0,0,6,0.0,0.0,0.0,0.0,0.0,1.0,2.0,0.0,0.0,0.0,0.0,0.0,0.0,0.0,4.0,02:21.0,127.0592219,37.61485759,정좌표
230,232,성북구,11290000640,하이키즈어린이집,가정,정상,2760,서울특별시 성북구 한천로 713 513동 102호 (래미안장위퍼스트하이),02-942-1101,02-942-1101,,3,57.0,0,4,8,20,20,37.61871652,127.0515431,미운영,2019-11-04,,,,2021-07-23,일반,2,2,2,0,0,0,1,0,0,7,6,5,9,0,0,0,0,0,0,20,0.0,0.0,0.0,0.0,0.0,1.0,6.0,0.0,0.0,0.0,0.0,0.0,0.0,0.0,8.0,02:21.0,127.0514788,37.61874475,정좌표
231,233,은평구,11380000663,구립 움찬어린이집,국공립,정상,3364,서울특별시 은평구 불광로 64 불광 롯데캐슬,02-6959-9950,02-6959-6885,,4,96.0,0,8,14,36,33,37.6133441,126.9342973,미운영,2019-10-30,,,,2021-07-23,야간연장,6,6,2,0,0,0,4,0,0,18,3,14,7,0,0,0,9,0,0,33,0.0,0.0,0.0,0.0,0.0,1.0,12.0,0.0,0.0,0.0,0.0,0.0,1.0,0.0,14.0,03:01.0,126.9342988,37.61338854,정좌표
232,234,은평구,11380000662,구립 한빛어린이집,국공립,정상,3468,서울특별시 은평구 백련산로 67 (백련산파크자이),02-2135-4662,02-2135-4663,키즈노트,6,109.0,0,12,13,41,34,37.59198291,126.9216458,미운영,2019-10-24,,,,2021-07-23,야간연장,2,4,2,0,0,0,0,0,0,8,6,18,10,0,0,0,0,0,0,34,0.0,0.0,0.0,0.0,0.0,1.0,11.0,0.0,0.0,0.0,0.0,0.0,1.0,0.0,13.0,03:01.0,126.9216522,37.59220886,정좌표
233,235,강동구,11740000384,어울림어린이집,가정,정상,5224,서울특별시 강동구 고덕로 333 127동 104호(고덕그라시움),02-481-0045,0504-493-4515,,3,48.0,0,4,6,17,17,37.56100375,127.1716909,미운영,2019-10-23,,,,2021-07-23,야간연장,1,2,1,0,0,0,1,0,0,5,0,9,6,0,0,0,2,0,0,17,0.0,0.0,0.0,0.0,0.0,1.0,4.0,0.0,0.0,0.0,0.0,0.0,0.0,0.0,6.0,05:11.0,127.1656023,37.55825523,정좌표
234,236,송파구,11710000792,더나은어린이집,국공립,정상,5792,서울특별시 송파구 충민로 152 306동 104호(송파파인타운3단지),02-3012-2334,,,3,69.0,0,4,8,19,19,37.48394937,127.1328179,미운영,2019-10-04,,,,2021-07-23,야간연장,3,2,1,0,0,0,0,0,0,6,8,6,5,0,0,0,0,0,0,19,0.0,0.0,0.0,0.0,0.0,1.0,6.0,0.0,0.0,0.0,0.0,0.0,1.0,0.0,8.0,05:01.0,127.1332109,37.48426116,정좌표
235,237,서초구,11650000439,서초구립 신반포리오센트어린이집,국공립,정상,6516,서울특별시 서초구 잠원로14길 32,02-595-5532,02-595-5538,https://iseoul.seoul.go.kr/homepage/community/newsLetterList.do?stCode=11650000439,5,195.0,1,9,13,68,45,37.51904534,127.0135968,미운영,2019-10-01,,,,2021-07-23,일반,3,3,2,1,0,0,0,0,0,9,6,15,14,10,0,0,0,0,0,45,0.0,0.0,0.0,0.0,0.0,1.0,10.0,0.0,0.0,0.0,0.0,0.0,1.0,0.0,13.0,04:40.0,127.0138339,37.51933474,정좌표
236,238,금천구,11545000336,구립초록빛어린이집,국공립,정상,8622,서울특별시 금천구 시흥대로68길 89,02-891-1381,,,6,232.0,1,14,8,62,23,37.45874282,126.9035,미운영,2019-10-01,,,,2021-07-23,장애아통합야간연장,2,2,2,1,0,0,0,2,0,9,3,3,6,0,0,0,0,11,0,23,0.0,1.0,0.0,0.0,0.0,1.0,6.0,0.0,0.0,0.0,0.0,0.0,1.0,0.0,8.0,04:00.0,126.903476,37.45872085,정좌표
237,239,중랑구,11260000461,꿈터어린이집,국공립,정상,2241,서울특별시 중랑구 사가정로42길 90 두산아파트 관리동(면목동),02-435-3382,02-435-3382,,3,100.0,0,8,10,30,30,37.57794352,127.0811923,미운영,2019-10-01,,,,2021-07-23,야간연장,3,2,2,0,0,0,3,0,0,10,6,10,14,0,0,0,0,0,0,30,0.0,0.0,0.0,0.0,0.0,1.0,7.0,0.0,0.0,0.0,0.0,0.0,1.0,0.0,10.0,02:10.0,127.0816057,37.57810108,정좌표
238,240,서초구,11650000440,LG전자 서초어린이집,직장,정상,6772,서울특별시 서초구 양재대로11길 19 고객센터3층,02-503-4013,,,6,216.0,1,26,23,80,70,37.4609732,127.0351808,미운영,2019-10-01,,,,2021-07-23,일반,0,3,4,3,2,3,0,0,0,15,0,9,14,15,14,18,0,0,0,70,0.0,1.0,0.0,0.0,0.0,1.0,18.0,0.0,0.0,0.0,0.0,0.0,3.0,0.0,23.0,04:40.0,127.0341264,37.46044385,정좌표
239,241,서초구,11650000438,서초구립 나래어린이집,국공립,정상,6768,서울특별시 서초구 양재대로2길 33 지상1층,02-529-2019,02-577-2019,,3,93.0,0,8,9,30,30,37.45873021,127.0240975,미운영,2019-10-01,,,,2021-07-23,일반,2,2,2,0,0,0,0,0,0,6,6,10,14,0,0,0,0,0,0,30,0.0,0.0,0.0,0.0,0.0,1.0,7.0,0.0,0.0,0.0,0.0,0.0,1.0,0.0,9.0,04:40.0,127.0230578,37.45811248,정좌표
240,242,중랑구,11260000462,서일대학교부설어린이집,국공립,정상,2192,서울특별시 중랑구 용마산로90길 28-5,02-492-3993,02-433-7591,,10,1379.0,3,22,28,162,135,37.56647,126.977963,미운영,2019-10-01,,,,2021-07-23,장애아통합야간연장,3,4,4,2,1,1,0,1,1,17,6,19,27,20,20,20,0,20,3,135,1.0,1.0,0.0,0.0,0.0,1.0,23.0,0.0,0.0,1.0,0.0,1.0,2.0,0.0,29.0,02:11.0,127.097443,37.58736108,정좌표
241,243,마포구,11440000456,마포한강아이파크어린이집,국공립,정상,4016,서울특별시 마포구 희우정로 77 102동 1층,02-334-0000,02-334-4200,,4,61.0,0,6,9,21,21,37.55239282,126.9029465,미운영,2019-09-26,,,,2021-07-23,일반,2,0,1,0,0,0,2,0,0,5,4,0,7,0,0,0,10,0,0,21,0.0,0.0,0.0,0.0,0.0,1.0,7.0,0.0,0.0,0.0,0.0,0.0,1.0,0.0,9.0,03:20.0,126.9024387,37.5527425,정좌표
242,244,마포구,11440000455,마포자이3차어린이집,국공립,정상,4127,서울특별시 마포구 숭문길 98 관리동 1층,02-714-0005,02-714-0700,,5,187.0,1,8,14,65,51,37.55051607,126.9489848,미운영,2019-09-26,,,,2021-07-23,야간연장,2,2,2,1,0,0,0,1,0,8,6,10,14,10,0,0,0,11,0,51,0.0,1.0,0.0,0.0,0.0,1.0,12.0,0.0,0.0,0.0,0.0,0.0,1.0,0.0,14.0,03:20.0,126.9496386,37.551505,정좌표
243,245,은평구,11380000661,구립 매바위어린이집,국공립,정상,3466,서울특별시 은평구 응암로30길 16 백련산SK뷰아이파크,02-6959-0097,02-6959-0720,,6,233.0,2,11,18,88,79,37.59509104,126.9212122,미운영,2019-09-18,,,,2021-07-23,장애아통합야간연장,1,2,2,1,1,1,0,0,3,11,3,10,14,15,15,13,0,0,9,79,0.0,1.0,0.0,0.0,0.0,1.0,14.0,0.0,0.0,0.0,0.0,0.0,1.0,0.0,18.0,03:01.0,126.9224732,37.59489329,정좌표
244,246,강서구,11500000728,이화의료원어린이집,직장,정상,7804,서울특별시 강서구 공항대로 260 B관 4층,02-6986-5950,02-6986-5955,,3,92.0,1,13,11,30,18,37.55704866,126.8365332,미운영,2019-09-18,,,,2021-07-23,일반,2,0,1,0,0,0,2,0,0,5,2,0,7,0,0,0,9,0,0,18,0.0,0.0,0.0,0.0,0.0,1.0,7.0,0.0,0.0,0.0,0.0,0.0,1.0,0.0,11.0,03:42.0,126.8362668,37.55726306,정좌표
245,247,성북구,11290000639,그린나래어린이집,국공립,정상,2760,서울특별시 성북구 한천로 713 506동 1층,02-6949-1609,02-6949-1608,,4,125.0,0,8,13,45,42,37.62005465,127.0511533,미운영,2019-09-16,,,,2021-07-23,일반,2,2,2,0,0,0,0,1,0,7,6,9,14,0,0,0,0,13,0,42,0.0,0.0,0.0,0.0,0.0,1.0,10.0,0.0,0.0,0.0,0.0,0.0,1.0,0.0,13.0,02:21.0,127.0514788,37.61874475,정좌표
246,248,은평구,11380000660,구립 꿈터어린이집,국공립,정상,3319,서울특별시 은평구 갈현로33길 24 갈현동현대아파트,02-2135-5448,02-2135-5449,,6,148.0,2,8,12,56,41,37.62250308,126.9139677,미운영,2019-09-09,,,,2021-07-23,야간연장,2,2,2,1,0,0,0,1,0,8,0,6,10,8,0,0,0,17,0,41,0.0,0.0,0.0,0.0,0.0,1.0,9.0,0.0,0.0,0.0,0.0,0.0,1.0,0.0,12.0,03:01.0,126.9144083,37.62266316,정좌표
247,249,동대문구,11230000491,아름다운어린이집,가정,정상,2605,서울특별시 동대문구 황물로7길 21,02-2215-6363,,https://blog.naver.com/wedbew,3,49.0,0,4,4,15,6,37.56806806,127.054788,미운영,2019-09-03,,,,2021-07-23,일반,0,2,0,0,0,0,5,0,0,7,0,0,0,0,0,0,6,0,0,6,0.0,0.0,0.0,0.0,0.0,1.0,2.0,0.0,0.0,0.0,0.0,0.0,0.0,0.0,4.0,02:00.0,127.0547757,37.56808017,정좌표
248,250,중랑구,11260000460,신사임당어린이집,국공립,정상,2076,서울특별시 중랑구 신내로 51 104동 103호(신내동 성원아파트),02-494-2179,,,3,70.0,0,4,9,20,20,37.60473837,127.0941883,미운영,2019-09-01,,,,2021-07-23,야간연장,2,2,1,0,0,0,1,0,0,6,4,5,7,0,0,0,4,0,0,20,0.0,0.0,0.0,0.0,0.0,1.0,7.0,0.0,0.0,0.0,0.0,0.0,1.0,0.0,9.0,02:11.0,127.0947995,37.6043571,정좌표
249,251,강남구,11680000487,지혜어린이집,국공립,정상,6327,서울특별시 강남구 삼성로 11,02-576-0060,02-579-0090,,6,386.0,1,24,18,88,62,37.48444245,127.0662285,미운영,2019-09-01,,,,2021-07-23,야간연장,3,2,2,1,1,1,0,0,0,10,9,10,13,14,6,10,0,0,0,62,0.0,1.0,0.0,0.0,0.0,1.0,13.0,0.0,0.0,0.0,0.0,1.0,2.0,0.0,18.0,04:51.0,127.0680926,37.48413453,정좌표
250,252,강동구,11740000520,구립그라시움별빛어린이집,국공립,정상,5224,서울특별시 강동구 고덕로 333 140동 1층(고덕동 고덕그라시움아파트),02-3013-3375,02-3013-3376,,5,220.0,0,16,12,64,62,37.55713261,127.1654518,미운영,2019-08-30,,,,2021-07-23,야간연장,2,2,2,1,0,0,0,1,0,8,5,10,14,15,0,0,0,18,0,62,0.0,0.0,0.0,0.0,0.0,1.0,10.0,0.0,0.0,0.0,0.0,0.0,1.0,0.0,12.0,05:10.0,127.1656023,37.55825523,정좌표
251,253,강동구,11740000519,구립그라시움은빛어린이집,국공립,정상,5224,서울특별시 강동구 고덕로 333 113동 1층(고덕동 고덕그라시움아파트),02-2135-7268,,,5,127.0,1,13,12,48,47,37.55691241,127.1601632,미운영,2019-08-30,,,,2021-07-23,야간연장,3,2,2,1,0,0,0,0,0,8,9,10,14,14,0,0,0,0,0,47,0.0,0.0,0.0,0.0,0.0,1.0,10.0,0.0,0.0,0.0,0.0,0.0,1.0,0.0,12.0,05:10.0,127.1656023,37.55825523,정좌표
252,254,강동구,11740000521,구립그라시움물빛어린이집,국공립,정상,5224,서울특별시 강동구 고덕로 333 119동 1층(고덕동 고덕그라시움아파트),02-3427-0257,02-3427-0258,,7,320.0,1,29,17,94,91,37.55789211,127.1635408,미운영,2019-08-30,,,,2021-07-23,장애아통합야간연장,3,2,2,1,1,1,0,0,1,11,9,10,14,15,20,20,0,0,3,91,0.0,0.0,0.0,0.0,0.0,1.0,14.0,0.0,0.0,0.0,0.0,0.0,2.0,0.0,17.0,05:10.0,127.1656023,37.55825523,정좌표
253,255,강서구,11500000727,N젤어린이집,직장,정상,7594,서울특별시 강서구 마곡중앙로 177,02-6340-8131,,,3,98.0,0,9,10,30,30,37.56988038,126.8273321,미운영,2019-08-27,,,,2021-07-23,일반,0,1,0,1,0,0,2,1,0,5,0,4,0,8,0,0,8,10,0,30,0.0,0.0,0.0,0.0,0.0,1.0,8.0,0.0,0.0,0.0,0.0,0.0,1.0,0.0,10.0,03:41.0,126.8274986,37.57001699,정좌표
254,256,중랑구,11260000459,대상어린이집,직장,정상,2154,서울특별시 중랑구 면목로 470 대상빌딩 내 1층,02-6406-9911,02-6406-9915,,4,212.0,1,18,8,60,16,37.59359871,127.0868935,미운영,2019-08-20,,,,2021-07-23,일반,0,0,0,0,0,1,2,2,0,5,0,0,0,0,0,2,6,8,0,16,0.0,0.0,0.0,0.0,0.0,1.0,5.0,0.0,0.0,0.0,0.0,0.0,1.0,0.0,8.0,02:10.0,127.086662,37.59366596,정좌표
255,257,강서구,11500000726,구립 아이편한어린이집,국공립,정상,7560,서울특별시 강서구 공항대로 583 염창동 e편한세상 염창아파트 관리동,02-2662-3401,02-3663-3401,,6,262.0,1,12,14,65,65,37.54936148,126.8706025,미운영,2019-08-06,,,,2021-07-23,장애아통합,2,2,2,2,1,0,0,0,1,10,6,10,14,15,17,0,0,0,3,65,0.0,0.0,0.0,0.0,0.0,1.0,12.0,0.0,0.0,0.0,0.0,0.0,1.0,0.0,14.0,03:41.0,126.8705756,37.54938167,정좌표
256,258,구로구,11530000627,햇살어린이집,국공립,정상,8219,서울특별시 구로구 경인로47다길 34-7 우성꿈동산 아파트 우성상가(고척동),02-2611-7618,02-6737-7618,,6,400.0,1,16,16,94,89,37.50344356,126.8659968,미운영,2019-08-01,,,,2021-07-23,야간연장,0,2,4,1,0,1,0,1,0,9,0,8,27,15,0,20,0,19,0,89,0.0,0.0,0.0,0.0,0.0,1.0,13.0,0.0,0.0,0.0,0.0,0.0,2.0,0.0,16.0,03:52.0,126.8665543,37.50298805,정좌표
257,259,구로구,11530000629,늘사랑어린이집,국공립,정상,8206,서울특별시 구로구 구로중앙로40길 24,02-3667-1235,,,5,250.0,1,15,11,50,50,37.5067108,126.8773716,미운영,2019-07-26,,,,2021-07-23,장애아통합,1,2,2,1,0,0,0,1,0,7,3,5,13,9,0,0,0,20,0,50,0.0,0.0,0.0,0.0,0.0,1.0,8.0,0.0,0.0,0.0,0.0,0.0,1.0,0.0,11.0,03:51.0,126.877376,37.50673545,정좌표
258,260,구로구,11530000630,자연숲어린이집,국공립,정상,8362,서울특별시 구로구 연동로 234 관리동(항동 하버라인 2단지),02-2688-2611,,,5,269.0,2,9,14,77,77,37.48222348,126.8222653,미운영,2019-07-25,,,,2021-07-23,장애아통합,0,2,2,1,1,1,0,0,0,7,0,10,14,15,18,20,0,0,0,77,0.0,0.0,0.0,0.0,0.0,1.0,11.0,0.0,0.0,0.0,0.0,0.0,1.0,0.0,14.0,03:52.0,126.8217568,37.48228199,정좌표
259,261,구로구,11530000628,꽃망울어린이집,국공립,정상,8368,서울특별시 구로구 항동로 72 관리동(항동 하버라인 4단지),02-2618-1007,02-2618-1008,,7,261.0,3,10,17,55,55,37.48108091,126.8264456,미운영,2019-07-25,,,,2021-07-23,야간연장,4,3,3,1,0,0,0,1,0,12,12,15,19,0,0,0,0,9,0,55,0.0,0.0,0.0,0.0,0.0,1.0,14.0,0.0,0.0,0.0,0.0,0.0,1.0,0.0,17.0,03:51.0,126.8266219,37.48123955,정좌표
260,262,금천구,11545000335,꾸미어린이집,가정,정상,8610,서울특별시 금천구 시흥대로77길 23 시흥베르빌 아파트 101동 104호,02-6348-1108,02-6348-1108,http://cafe.naver.com/ggumilove,3,70.0,0,4,8,20,20,37.45760708,126.8975987,미운영,2019-07-18,,,,2021-07-23,일반,3,1,1,0,0,0,4,0,0,9,8,0,7,0,0,0,5,0,0,20,0.0,0.0,0.0,0.0,0.0,1.0,6.0,0.0,0.0,0.0,0.0,0.0,0.0,0.0,8.0,04:00.0,126.897483,37.45716264,정좌표
261,263,종로구,11110000177,선재어린이집,국공립,정상,3144,서울특별시 종로구 우정국로 51-4,02-720-9770,02-720-9771,,6,274.0,1,19,21,97,71,37.57347189,126.9822501,미운영,2019-07-16,,,,2021-07-23,일반,4,4,2,1,0,0,0,1,0,12,12,17,14,12,0,0,0,16,0,71,1.0,2.0,0.0,0.0,0.0,1.0,18.0,0.0,0.0,0.0,0.0,0.0,1.0,0.0,21.0,01:10.0,126.9822536,37.57345729,정좌표
262,264,은평구,11380000659,구립 솔찬어린이집,국공립,정상,3437,서울특별시 은평구 가좌로 334,02-2135-7477,070-8224-7477,,4,112.0,0,8,12,42,40,37.59839807,126.9092196,미운영,2019-07-08,,,,2021-07-23,야간연장,1,2,2,1,0,0,0,0,0,6,3,10,14,13,0,0,0,0,0,40,0.0,0.0,0.0,0.0,0.0,1.0,9.0,0.0,0.0,0.0,0.0,0.0,1.0,0.0,12.0,03:01.0,126.9087682,37.59811298,정좌표
263,265,관악구,11620000561,구립e편한2단지어린이집,국공립,정상,8830,서울특별시 관악구 청룡16길 43 서울대입구e편한세상2단지 206동 앞,02-883-0903,,,4,162.0,1,12,13,59,50,37.47636957,126.9426816,미운영,2019-07-03,,,,2021-07-23,야간연장,1,2,2,1,0,0,0,1,0,7,3,10,14,14,0,0,0,9,0,50,0.0,1.0,0.0,0.0,0.0,1.0,10.0,0.0,0.0,0.0,0.0,0.0,1.0,0.0,13.0,04:30.0,126.9431484,37.47569102,정좌표
264,266,관악구,11620000559,구립신사어린이집,국공립,정상,8703,서울특별시 관악구 관천로21길 16,02-857-7490,,,4,124.0,0,10,11,46,40,37.48779999,126.9211781,미운영,2019-07-02,,,,2021-07-23,야간연장,0,1,2,1,0,0,0,1,0,5,0,5,10,13,0,0,0,12,0,40,0.0,0.0,0.0,0.0,0.0,1.0,8.0,0.0,0.0,0.0,0.0,0.0,1.0,0.0,11.0,04:30.0,126.9206969,37.48809049,정좌표
265,267,관악구,11620000560,구립e편한1단지어린이집,국공립,정상,8830,서울특별시 관악구 청룡10길 45 서울대입구e편한세상1단지 105동 앞,02-883-8083,,,4,179.0,0,8,11,60,51,37.47847804,126.9429174,미운영,2019-07-02,,,,2021-07-23,야간연장,0,2,2,1,0,0,0,1,0,6,0,10,13,13,0,0,0,15,0,51,0.0,0.0,0.0,0.0,0.0,1.0,9.0,0.0,0.0,0.0,0.0,0.0,1.0,0.0,11.0,04:30.0,126.9439278,37.47868161,정좌표
266,268,서초구,11650000437,서초구립 누리아미어린이집,국공립,정상,6609,서울특별시 서초구 서운로26길 3 서초4동 열린문화센터 내,02-3477-1232,,,4,174.0,1,9,10,65,48,37.50269081,127.0221777,미운영,2019-07-02,,,,2021-07-23,일반,0,0,0,2,1,1,0,0,0,4,0,0,0,20,18,10,0,0,0,48,0.0,0.0,0.0,0.0,0.0,1.0,8.0,0.0,0.0,0.0,0.0,0.0,1.0,0.0,10.0,04:40.0,127.0222106,37.50271635,정좌표
267,269,동대문구,11230000490,휘경SK뷰어린이집,국공립,정상,2434,서울특별시 동대문구 휘경로 60 휘경SK뷰아파트 관리동,02-6949-3393,02-6949-3394,,4,110.0,0,8,11,30,30,37.59352201,127.0662515,미운영,2019-07-01,,,,2021-07-23,일반,3,2,2,0,0,0,0,0,0,7,6,10,14,0,0,0,0,0,0,30,0.0,0.0,0.0,0.0,0.0,1.0,9.0,0.0,0.0,0.0,0.0,0.0,1.0,0.0,11.0,02:01.0,127.0654479,37.59335992,정좌표
268,270,강동구,11740000518,구립래미안솔베뉴어린이집,국공립,정상,5266,서울특별시 강동구 양재대로 1650 구립래미안솔베뉴어린이집,02-6925-0850,02-6925-0851,chungkids@hanmail.net,8,419.0,2,26,18,95,91,37.55409039,127.1459853,미운영,2019-07-01,,,,2021-07-23,장애아통합야간연장시간제보육,2,3,2,2,1,1,0,0,2,13,6,14,14,15,20,20,0,0,2,91,0.0,0.0,0.0,0.0,0.0,1.0,14.0,1.0,0.0,0.0,0.0,0.0,2.0,0.0,18.0,05:10.0,127.1455108,37.55099138,정좌표
269,273,구로구,11530000626,예크어린이집,국공립,정상,8330,서울특별시 구로구 개봉로20길 158 현대홈타운 2단지아파트 관리동 1층,070-4200-0713,,,4,112.0,1,4,9,26,26,37.56647,126.977963,미운영,2019-06-01,,,,2021-07-23,일반,1,2,2,0,0,0,1,0,0,6,3,10,13,0,0,0,0,0,0,26,0.0,0.0,0.0,0.0,0.0,1.0,7.0,0.0,0.0,0.0,0.0,0.0,1.0,0.0,9.0,03:51.0,126.8609334,37.49171908,정좌표
270,274,중구,11140000115,신당하나어린이집,국공립,정상,4580,서울특별시 중구 왕십리로 407 신당파인힐하나유보라 103동 1층,02-2256-7646,02-2256-7647,,4,130.0,1,13,11,33,30,37.56430066,127.0251501,미운영,2019-06-01,,,,2021-07-23,일반,3,3,2,0,0,0,1,0,0,9,9,10,11,0,0,0,0,0,0,30,0.0,1.0,0.0,0.0,0.0,1.0,9.0,0.0,0.0,0.0,0.0,0.0,1.0,0.0,11.0,01:20.0,127.0246782,37.56383573,정좌표
271,275,중구,11140000114,푸르지오비씨 어린이집,직장,정상,4548,서울특별시 중구 을지로4가 을지로 170,02-2288-2761,02-2288-2763,,4,229.0,1,23,16,70,43,37.5663283,126.9973768,미운영,2019-05-31,,,,2021-07-23,일반,0,4,3,0,0,1,0,3,0,11,0,11,14,0,0,3,0,15,0,43,0.0,1.0,0.0,0.0,0.0,1.0,12.0,0.0,0.0,0.0,0.0,0.0,2.0,0.0,16.0,01:20.0,126.9973275,37.56613923,정좌표
272,276,성북구,11290000637,아름드리어린이집,국공립,정상,2763,서울특별시 성북구 장월로 160 래미안장위포레카운티 104동 1층,02-943-9933,,,4,119.0,0,8,13,45,45,37.61821586,127.0529077,미운영,2019-05-29,,,,2021-07-23,일반,2,2,2,0,0,0,0,1,0,7,6,10,14,0,0,0,0,15,0,45,1.0,0.0,0.0,0.0,0.0,1.0,10.0,0.0,0.0,0.0,0.0,0.0,1.0,0.0,13.0,02:21.0,127.0522905,37.61837593,정좌표
273,278,은평구,11380000658,구립 늘봄어린이집,국공립,정상,3373,서울특별시 은평구 통일로 610 힐스테이트녹번 106동 1층,02-353-7554,02-353-7555,,5,147.0,1,8,14,55,48,37.6020647,126.9361078,미운영,2019-05-13,,,,2021-07-23,야간연장,2,3,2,1,0,0,0,0,0,8,6,14,14,14,0,0,0,0,0,48,0.0,0.0,0.0,0.0,0.0,1.0,11.0,0.0,0.0,0.0,0.0,0.0,1.0,0.0,14.0,03:01.0,126.9372723,37.60079528,정좌표
274,279,중구,11140000113,교원&하나투어 공동직장어린이집,직장,정상,4539,서울특별시 중구 을지로2가 을지로 55 교원명동빌딩 3층,02-779-6118,,,5,193.0,1,22,8,60,15,37.56647,126.977963,미운영,2019-05-13,,,,2021-07-23,일반,2,2,1,0,0,0,0,1,0,6,0,3,4,0,0,0,0,8,0,15,1.0,0.0,0.0,0.0,0.0,1.0,6.0,0.0,0.0,0.0,0.0,0.0,1.0,0.0,8.0,01:19.0,126.9840249,37.56640966,정좌표
275,280,송파구,11710000790,사랑해어린이집,가정,정상,5742,서울특별시 송파구 동남로24길 37 1층,02-2135-4591,,,3,54.0,0,4,2,20,2,37.50840958,127.1346822,미운영,2019-05-07,,,,2021-07-23,일반,1,1,1,0,0,0,1,0,0,4,0,0,0,0,0,0,2,0,0,2,0.0,0.0,0.0,0.0,0.0,1.0,1.0,0.0,0.0,0.0,0.0,0.0,0.0,0.0,2.0,05:01.0,127.139819,37.49819286,정좌표
276,281,은평구,11380000657,구립 향림어린이집,국공립,정상,3339,서울특별시 은평구 연서로41가길 24-1,02-353-1966,070-8233-3361,,3,74.0,0,12,10,27,21,37.62672774,126.9258007,미운영,2019-05-07,,,,2021-07-23,야간연장,1,2,2,0,0,0,0,0,0,5,2,8,11,0,0,0,0,0,0,21,0.0,0.0,0.0,0.0,0.0,1.0,8.0,0.0,0.0,0.0,0.0,0.0,1.0,0.0,10.0,03:01.0,126.9251866,37.62594411,정좌표
277,282,서초구,11650000436,KCC직장어린이집,직장,정상,6608,서울특별시 서초구 사평대로 334-2 1층,02-3447-9280,02-3447-9281,,3,312.0,0,20,9,47,24,37.50369111,127.021194,미운영,2019-05-02,,,,2021-07-23,일반,0,2,2,1,0,0,0,1,0,6,0,10,8,0,0,0,0,6,0,24,0.0,0.0,0.0,0.0,0.0,1.0,6.0,0.0,0.0,0.0,0.0,0.0,2.0,0.0,9.0,04:40.0,127.0194855,37.50258578,정좌표
278,283,은평구,11380000656,구립 내숲어린이집,국공립,정상,3446,서울특별시 은평구 은평터널로 121-6 이랜드타운아파트 101-102,02-302-1630,02-305-1630,,4,57.0,0,4,8,20,20,37.59048553,126.9040491,미운영,2019-05-01,,,,2021-07-23,야간연장,1,3,1,0,0,0,1,0,0,6,3,10,7,0,0,0,0,0,0,20,0.0,0.0,0.0,0.0,0.0,1.0,5.0,0.0,0.0,0.0,0.0,0.0,1.0,0.0,8.0,03:01.0,126.9039573,37.59064822,정좌표
279,284,서대문구,11410000358,예솔어린이집,국공립,정상,3670,서울특별시 서대문구 증가로 150 DMC2차아이파크 아파트,02-3152-6579,02-3152-6576,,4,206.0,0,8,14,40,34,37.57809369,126.9210264,미운영,2019-05-01,,,,2021-07-23,야간연장,3,3,2,0,0,0,0,0,0,8,6,14,14,0,0,0,0,0,0,34,1.0,0.0,0.0,0.0,0.0,1.0,11.0,0.0,0.0,0.0,0.0,0.0,1.0,0.0,14.0,03:10.0,126.9202217,37.57976441,정좌표
280,285,송파구,11710000791,헬리오마음어린이집,국공립,정상,5698,서울특별시 송파구 송파대로 345  510동 앞(가락동 헬리오시티),02-400-7751,02-400-7761,,7,298.0,1,12,18,77,64,37.49982802,127.1102876,미운영,2019-05-01,,,,2021-07-23,야간연장,4,3,2,1,1,0,0,1,0,12,12,14,14,15,9,0,0,0,0,64,0.0,1.0,0.0,0.0,0.0,1.0,15.0,0.0,0.0,0.0,0.0,0.0,1.0,0.0,18.0,05:02.0,127.1089205,37.49984551,정좌표
281,286,양천구,11470000613,구립 봄샘어린이집,국공립,정상,8102,서울특별시 양천구 목동남로4길 80 목동파크자이아파트,02-2651-1905,02-2651-1906,,4,258.0,3,8,10,30,28,37.50981538,126.8695397,미운영,2019-05-01,,,,2021-07-23,야간연장,2,2,2,0,0,0,0,0,0,6,6,10,12,0,0,0,0,0,0,28,0.0,0.0,0.0,0.0,0.0,1.0,8.0,0.0,0.0,0.0,0.0,0.0,1.0,0.0,10.0,03:30.0,126.8684684,37.50904636,정좌표
282,288,은평구,11380000655,구립 맑은별어린이집,국공립,정상,3427,서울특별시 은평구 서오릉로21길 47 갈현이편한세상 103-104,02-357-7942,02-357-7942,,3,61.0,1,4,11,20,19,37.61178415,126.9058594,미운영,2019-05-01,,,,2021-07-23,야간연장,3,2,1,0,0,0,3,0,0,9,4,9,6,0,0,0,0,0,0,19,0.0,0.0,0.0,0.0,0.0,1.0,8.0,0.0,0.0,0.0,0.0,0.0,1.0,0.0,11.0,03:01.0,126.9054152,37.61170183,정좌표
283,289,양천구,11470000614,구립 이든샘어린이집,국공립,정상,8049,서울특별시 양천구 신정로7길 75 이든채아파트,02-6347-1817,,,5,316.0,2,10,11,45,40,37.51282198,126.8349288,미운영,2019-05-01,,,,2021-07-23,장애아통합야간연장,0,2,2,1,0,0,2,0,0,7,0,10,14,10,0,0,6,0,0,40,0.0,0.0,0.0,0.0,0.0,1.0,9.0,0.0,0.0,0.0,0.0,0.0,1.0,0.0,11.0,03:30.0,126.8340112,37.51331762,정좌표
284,290,송파구,11710000789,사랑별어린이집,가정,정상,5698,서울특별시 송파구 송파대로 345 201동 102호(가락동 헬리오시티),070-8160-0000,,,3,61.0,0,4,6,20,20,37.49638008,127.1046085,미운영,2019-04-30,,,,2021-07-23,일반,1,2,2,0,0,0,0,0,0,5,3,10,7,0,0,0,0,0,0,20,0.0,0.0,0.0,0.0,0.0,1.0,4.0,0.0,0.0,0.0,0.0,0.0,0.0,0.0,6.0,05:01.0,127.1089205,37.49984551,정좌표
285,291,구로구,11530000625,느티나무어린이집,국공립,정상,8368,서울특별시 구로구 항동로 43 1층 관리동,02-2060-2010,02-2060-2226,,8,573.0,2,28,20,128,106,37.47795482,126.8236773,미운영,2019-04-29,,,,2021-07-23,일반,3,2,2,1,2,2,1,1,0,14,9,10,14,15,26,32,0,0,0,106,1.0,0.0,0.0,0.0,0.0,1.0,16.0,0.0,0.0,1.0,0.0,0.0,2.0,0.0,21.0,03:51.0,126.8241727,37.47830851,정좌표
286,292,강남구,11680000485,어린왕자어린이집,민간,정상,6372,서울특별시 강남구 자곡로7길 8-16,02-3412-0612,02-3412-0613,,5,207.0,0,11,10,45,33,37.47452983,127.1003443,운영,2019-04-22,,,,2021-07-23,일반,2,5,4,0,0,0,9,1,0,21,0,15,7,0,0,0,5,6,0,33,0.0,0.0,0.0,0.0,0.0,1.0,7.0,0.0,0.0,0.0,0.0,0.0,0.0,0.0,10.0,04:51.0,127.1001523,37.47457908,정좌표
287,293,강남구,11680000484,천사어린이집,가정,정상,6284,서울특별시 강남구 삼성로 212 17동 115호,02-576-4938,,,3,55.0,0,4,7,20,16,37.49794529,127.0618682,운영,2019-04-16,,,,2021-07-23,일반,3,3,1,0,0,0,4,0,0,11,3,5,6,0,0,0,2,0,0,16,0.0,0.0,0.0,0.0,0.0,1.0,4.0,0.0,0.0,0.0,0.0,0.0,0.0,0.0,7.0,04:51.0,127.0658765,37.49803108,정좌표
288,294,은평구,11380000654,자이안어린이집,민간,정상,3306,서울특별시 은평구 통일로 1034,02-6402-7007,,,4,142.0,0,8,11,49,42,37.63477772,126.918474,미운영,2019-04-10,,,,2021-07-23,일반,4,2,4,1,0,0,3,0,0,14,3,8,14,12,0,0,5,0,0,42,0.0,0.0,0.0,0.0,0.0,1.0,9.0,0.0,0.0,0.0,0.0,0.0,1.0,0.0,11.0,03:01.0,126.9184872,37.63491896,정좌표
289,295,영등포구,11560000473,여의도 하나금융그룹 직장어린이집,직장,정상,7327,서울특별시 영등포구 여의나루로 53-1 3층,02-780-3220,,https://www.puruni.com/hanayu,5,220.0,3,31,21,70,61,37.52297814,126.925666,미운영,2019-04-09,,,,2021-07-23,일반,0,4,4,0,0,2,0,3,0,13,0,11,15,0,0,8,0,27,0,61,0.0,1.0,0.0,0.0,0.0,1.0,17.0,0.0,0.0,1.0,0.0,0.0,1.0,0.0,21.0,04:11.0,126.9249936,37.52270211,정좌표
290,296,송파구,11710000787,오금물빛어린이집,국공립,정상,5738,서울특별시 송파구 성내천로 103,02-406-4001,,,4,100.0,1,7,10,30,28,37.56647,126.977963,미운영,2019-04-03,,,,2021-07-23,야간연장,2,2,2,0,0,0,0,0,0,6,6,9,13,0,0,0,0,0,0,28,0.0,0.0,0.0,0.0,0.0,1.0,8.0,0.0,0.0,0.0,0.0,0.0,1.0,0.0,10.0,05:02.0,127.1413523,37.50017602,정좌표
291,297,영등포구,11560000474,신길햇살아이파크어린이집,국공립,정상,7394,서울특별시 영등포구 가마산로 426,02-849-9501,02-849-9502,,5,157.0,2,13,15,57,51,37.56647,126.977963,미운영,2019-04-03,,,,2021-07-23,일반,2,2,2,1,1,0,0,0,0,8,6,10,14,14,7,0,0,0,0,51,0.0,0.0,0.0,0.0,0.0,1.0,12.0,0.0,0.0,0.0,0.0,0.0,1.0,0.0,15.0,04:11.0,126.9040354,37.5037002,정좌표
292,298,서대문구,11410000364,키움어린이집,국공립,정상,3695,서울특별시 서대문구 홍제천로 136 103동 1층(연희동 연희파크푸르지오),02-336-2146,02-336-2147,,3,45.0,0,6,7,17,17,37.57580543,126.9285116,미운영,2019-04-01,,,,2021-07-23,야간연장,2,1,1,0,0,0,0,0,0,4,5,5,7,0,0,0,0,0,0,17,0.0,0.0,0.0,0.0,0.0,1.0,5.0,0.0,0.0,0.0,0.0,0.0,1.0,0.0,7.0,03:10.0,126.9295989,37.57626566,정좌표
293,299,은평구,11380000652,은평성모병원어린이집,직장,정상,3312,서울특별시 은평구 통일로 1021 별관2층,02-2030-4988,0504-228-4498,https://moamom115.kiznet.co.kr,4,140.0,0,9,8,30,18,37.63385636,126.9151442,미운영,2019-04-01,,,,2021-07-23,일반,0,2,2,0,0,0,0,0,0,4,0,8,10,0,0,0,0,0,0,18,0.0,0.0,0.0,0.0,0.0,1.0,5.0,0.0,0.0,0.0,0.0,0.0,1.0,0.0,8.0,03:01.0,126.9161521,37.6336095,정좌표
294,300,은평구,11380000610,구립 기자촌어린이집,국공립,정상,3309,서울특별시 은평구 연서로46길 7 1105동 1층,02-389-6878,02-389-6879,,4,220.0,0,12,12,49,30,37.63402236,126.9333798,미운영,2019-04-01,,,,2021-07-23,야간연장,0,2,2,0,0,0,2,0,0,6,0,9,14,0,0,0,7,0,0,30,0.0,0.0,0.0,0.0,0.0,1.0,9.0,0.0,0.0,0.0,0.0,0.0,1.0,0.0,12.0,03:01.0,126.9326815,37.6339628,정좌표
295,301,구로구,11530000624,꿈나무어린이집,국공립,정상,8325,서울특별시 구로구 구일로4길 46 204동 105호(구로동현대연예인아파트),02-838-3934,,,3,54.0,1,5,5,19,8,37.56647,126.977963,미운영,2019-04-01,,,,2021-07-23,야간연장,2,0,1,0,0,0,3,0,0,6,2,0,4,0,0,0,2,0,0,8,0.0,0.0,0.0,0.0,0.0,1.0,3.0,0.0,0.0,0.0,0.0,0.0,1.0,0.0,5.0,03:51.0,126.8776998,37.49234372,정좌표
296,302,구로구,11530000623,푸르지오아이숲어린이집,국공립,정상,8240,서울특별시 구로구 중앙로 121 고척파크푸르지오 관리동,02-2613-9280,02-2617-9280,,4,101.0,1,7,7,23,17,37.50769408,126.8573638,미운영,2019-04-01,,,,2021-07-23,일반,3,1,1,0,0,0,0,0,0,5,6,5,6,0,0,0,0,0,0,17,0.0,0.0,0.0,0.0,0.0,1.0,5.0,0.0,0.0,0.0,0.0,0.0,1.0,0.0,7.0,03:52.0,126.8591271,37.50701425,정좌표
297,303,성북구,11290000636,가온누리어린이집,국공립,정상,2727,서울특별시 성북구 숭인로 50 122동 1층,02-988-5100,02-988-9500,,6,249.0,1,16,18,88,66,37.61088179,127.0260577,미운영,2019-03-29,,,,2021-07-23,야간연장,3,2,2,1,1,1,0,0,0,10,9,10,14,15,8,10,0,0,0,66,1.0,0.0,0.0,0.0,0.0,1.0,14.0,0.0,0.0,0.0,0.0,0.0,2.0,0.0,18.0,02:20.0,127.0254022,37.61177786,정좌표
298,304,성동구,11200000392,구립 해온어린이집,국공립,정상,4768,서울특별시 성동구 성수동1가 왕십리로5길 3,02-462-6738,02-462-6739,,3,69.0,0,8,10,26,23,37.54632011,127.0443585,미운영,2019-03-25,,,,2021-07-23,일반,2,2,2,0,0,0,0,0,0,6,6,8,9,0,0,0,0,0,0,23,0.0,1.0,0.0,0.0,0.0,1.0,8.0,0.0,0.0,0.0,0.0,0.0,1.0,0.0,10.0,01:40.0,127.0443491,37.54640122,정좌표
299,306,송파구,11710000785,헬리오바른어린이집,국공립,정상,5698,서울특별시 송파구 송파대로 345  515동 앞(가락동 헬리오시티),02-401-7715,02-430-775,,3,80.0,0,9,11,30,29,37.49793123,127.1080428,미운영,2019-03-21,,,,2021-07-23,야간연장,2,2,2,0,0,0,0,0,0,6,6,10,13,0,0,0,0,0,0,29,0.0,0.0,0.0,0.0,0.0,1.0,9.0,0.0,0.0,0.0,0.0,0.0,1.0,0.0,11.0,05:02.0,127.1089205,37.49984551,정좌표
300,307,송파구,11710000786,헬리오사랑어린이집,국공립,정상,5698,서울특별시 송파구 송파대로 345  201동 앞(가락동 헬리오시티),02-400-2021,02-400-2081,,5,119.0,0,12,14,36,35,37.49650585,127.1050271,미운영,2019-03-21,,,,2021-07-23,야간연장,3,3,2,0,0,0,0,0,0,8,8,14,13,0,0,0,0,0,0,35,0.0,0.0,0.0,0.0,0.0,1.0,12.0,0.0,0.0,0.0,0.0,0.0,1.0,0.0,14.0,05:02.0,127.1089205,37.49984551,정좌표
301,308,은평구,11380000653,구립 은뜨락어린이집,국공립,정상,3311,서울특별시 은평구 통일로 972,02-388-7676,02-385-7676,,6,130.0,0,12,14,49,41,37.62976932,126.9200654,미운영,2019-03-14,,,,2021-07-23,야간연장,2,3,2,1,0,0,0,0,0,8,6,15,12,8,0,0,0,0,0,41,0.0,0.0,0.0,0.0,0.0,1.0,11.0,0.0,0.0,0.0,0.0,0.0,1.0,0.0,14.0,03:01.0,126.9203064,37.62942409,정좌표
302,309,송파구,11710000788,거여리본타운어린이집,국공립,정상,5744,서울특별시 송파구 오금로53길 14,02-402-1900,02-402-1909,,4,344.0,1,24,7,45,15,37.49564457,127.1423772,미운영,2019-03-13,,,,2021-07-23,장애아통합야간연장,1,2,2,0,0,0,0,0,0,5,2,8,5,0,0,0,0,0,0,15,0.0,0.0,0.0,0.0,0.0,1.0,5.0,0.0,0.0,1.0,0.0,0.0,1.0,0.0,8.0,05:01.0,127.1422951,37.49567774,정좌표
303,311,송파구,11710000782,헬리오어린이집,가정,정상,5698,서울특별시 송파구 송파대로 345 206동 103호(가락동 헬리오시티),02-409-0320,02-409-0320,,3,60.0,0,5,6,20,19,37.49658346,127.1063983,미운영,2019-03-12,,,,2021-07-23,일반,1,2,1,0,0,0,1,0,0,5,3,9,7,0,0,0,0,0,0,19,0.0,0.0,0.0,0.0,0.0,1.0,4.0,0.0,0.0,0.0,0.0,0.0,0.0,0.0,6.0,05:02.0,127.1089205,37.49984551,정좌표
304,312,송파구,11710000783,동화숲어린이집,가정,정상,5698,서울특별시 송파구 송파대로 345 406동 104호(가락동 헬리오시티),02-3402-2010,,,3,60.0,0,4,6,20,18,37.49765917,127.1099423,미운영,2019-03-12,,,,2021-07-23,일반,1,2,1,0,0,0,0,0,0,4,3,10,5,0,0,0,0,0,0,18,0.0,0.0,0.0,0.0,0.0,1.0,4.0,0.0,0.0,0.0,0.0,0.0,0.0,0.0,6.0,05:01.0,127.1089205,37.49984551,정좌표
305,313,강서구,11500000723,아장닷컴어린이집,가정,정상,7678,서울특별시 강서구 화곡로42나길 30-17,02-2602-8554,02-2602-3999,,3,78.0,0,5,5,18,11,37.54948317,126.8479638,미운영,2019-03-04,,,,2021-07-23,일반,2,1,1,0,0,0,2,0,0,6,2,5,0,0,0,0,4,0,0,11,0.0,0.0,0.0,0.0,0.0,1.0,3.0,0.0,0.0,0.0,0.0,0.0,0.0,0.0,5.0,03:42.0,126.847817,37.54739463,정좌표
306,314,금천구,11545000333,구립별마루어린이집,국공립,정상,8553,서울특별시 금천구 독산로94길 17,02-830-8992,,,6,579.0,2,12,13,90,65,37.56647,126.977963,미운영,2019-03-01,,,,2021-07-23,일반,0,2,4,2,1,1,0,0,0,10,0,10,14,13,14,14,0,0,0,65,0.0,0.0,1.0,0.0,0.0,1.0,9.0,0.0,0.0,0.0,0.0,0.0,2.0,0.0,13.0,04:00.0,126.9041259,37.47469395,정좌표
307,315,도봉구,11320000538,산들어린이집,국공립,정상,1474,서울특별시 도봉구 덕릉로62길 30,02-903-2978,02-900-2977,http://blog.naver.com/sdsd2978,5,148.0,1,16,11,56,44,37.6400423,127.0415364,미운영,2019-03-01,,,,2021-07-23,일반,0,1,2,1,0,0,1,1,0,6,0,4,8,9,0,0,3,20,0,44,0.0,0.0,0.0,0.0,0.0,1.0,8.0,0.0,0.0,0.0,0.0,0.0,1.0,0.0,11.0,02:41.0,127.0415304,37.63998371,정좌표
308,316,강서구,11500000720,구립 샛별어린이집,국공립,정상,7730,서울특별시 강서구 초록마을로 166,02-2606-5070,,,3,106.0,0,5,9,19,18,37.53619105,126.8461239,미운영,2019-03-01,,,,2021-07-23,일반,3,4,2,0,0,0,0,0,0,9,3,8,7,0,0,0,0,0,0,18,0.0,0.0,0.0,0.0,0.0,1.0,7.0,0.0,0.0,0.0,0.0,0.0,1.0,0.0,9.0,03:41.0,126.8463913,37.53645226,정좌표
309,317,중랑구,11260000457,우남어린이집,국공립,정상,2068,서울특별시 중랑구 봉화산로56길 51 101동 101호(신내동우남푸르미아아파트),02-3422-5790,02-3422-5792,http://club.cyworld.com/woonam2012,4,88.0,0,6,7,20,18,37.60600409,127.0985345,미운영,2019-03-01,,,,2021-07-23,야간연장,2,3,1,0,0,0,3,0,0,9,5,8,5,0,0,0,0,0,0,18,0.0,0.0,0.0,0.0,0.0,1.0,5.0,0.0,0.0,0.0,0.0,0.0,1.0,0.0,7.0,02:11.0,127.0985413,37.60600916,정좌표
310,318,노원구,11350001043,엄마사랑i어린이집,국공립,정상,1913,서울특별시 노원구 마들로 31 103동 102호(월계동 그랑빌A),02-949-9077,,,4,80.0,1,4,7,20,20,37.6166757,127.0692962,미운영,2019-03-01,,,,2021-07-23,일반,2,1,1,0,0,0,1,0,0,5,5,4,7,0,0,0,4,0,0,20,0.0,0.0,0.0,0.0,0.0,1.0,5.0,0.0,0.0,0.0,0.0,0.0,1.0,0.0,7.0,02:52.0,127.0697294,37.61825387,정좌표
311,319,동대문구,11230000489,이화어린이집,민간,정상,2639,서울특별시 동대문구 장한로26다길 38,02-2212-6717,02-2212-6782,ew22@hanmail.net,7,199.0,0,13,8,49,25,37.56422031,127.068659,미운영,2019-03-01,,,,2021-07-23,야간연장,1,4,3,0,0,0,1,1,0,10,3,6,7,0,0,0,3,6,0,25,0.0,0.0,0.0,0.0,0.0,1.0,6.0,0.0,0.0,0.0,0.0,0.0,0.0,0.0,8.0,02:01.0,127.0727032,37.57006972,정좌표
312,320,도봉구,11320000539,새나어린이집,국공립,정상,1456,서울특별시 도봉구 도봉로110바길 38,02-906-3334,02-906-3335,http://cafe.daum.net/saenakids,4,177.0,0,13,9,41,20,37.64805458,127.0373383,미운영,2019-03-01,,,,2021-07-23,일반,1,2,2,0,0,0,3,1,0,9,2,8,5,0,0,0,0,5,0,20,0.0,0.0,0.0,0.0,0.0,1.0,7.0,0.0,0.0,0.0,0.0,0.0,1.0,0.0,9.0,02:41.0,127.0373439,37.64806588,정좌표
