,Unnamed: 0,상가업소번호,상권업종대분류명,상권업종중분류명,상권업종소분류명,지번주소,도로명주소,위도,경도
0,899,22433281,생활서비스,운송/배달/택배,우체국/우편물취급소,서울특별시 성북구 돈암동 173-1,서울특별시 성북구 보문로34다길 2,37.5916757,127.0219903
1,1083,22076783,생활서비스,운송/배달/택배,우체국/우편물취급소,서울특별시 송파구 문정동 70-13,서울특별시 송파구 새말로 103,37.4828841,127.1255692
2,1315,22473921,생활서비스,운송/배달/택배,우체국/우편물취급소,서울특별시 양천구 목동 713-5,서울특별시 양천구 목동중앙남로3가길 127,37.54126169,126.8639008
3,2197,21923752,생활서비스,운송/배달/택배,우체국/우편물취급소,서울특별시 관악구 봉천동 1666-43,서울특별시 관악구 남부순환로 1841,37.48083808,126.9546923
4,2665,20901429,생활서비스,운송/배달/택배,우체국/우편물취급소,서울특별시 서초구 서초동 1701-1,서울특별시 서초구 서초중앙로 157,37.49826359,127.0111089
5,3911,22040206,생활서비스,운송/배달/택배,우체국/우편물취급소,서울특별시 송파구 잠실동 19-6,서울특별시 송파구 올림픽로 105,37.51209354,127.0824146
6,4309,22039831,생활서비스,운송/배달/택배,우체국/우편물취급소,서울특별시 송파구 가락동 192,서울특별시 송파구 동남로18길 9,37.49579438,127.1314124
7,4473,21877133,생활서비스,운송/배달/택배,우체국/우편물취급소,서울특별시 서초구 방배동 1015,서울특별시 서초구 방배로 14,37.4764844,127.0024529
8,4622,23015816,생활서비스,운송/배달/택배,우체국/우편물취급소,서울특별시 광진구 자양동 680-65,서울특별시 광진구 자양로 76,37.53559477,127.0872864
9,5424,22039785,생활서비스,운송/배달/택배,우체국/우편물취급소,서울특별시 송파구 마천동 128-75,서울특별시 송파구 거마로20길 34,37.49649576,127.149793
10,6199,22068904,생활서비스,운송/배달/택배,우체국/우편물취급소,서울특별시 양천구 신정동 1272,서울특별시 양천구 신정로 306,37.51310879,126.8550411
11,6341,22058850,생활서비스,운송/배달/택배,우체국/우편물취급소,서울특별시 도봉구 도봉동 626,서울특별시 도봉구 마들로 749,37.67718854,127.0467726
12,8323,22576754,생활서비스,운송/배달/택배,우체국/우편물취급소,서울특별시 구로구 고척동 174-23,서울특별시 구로구 중앙로 76,37.50443359,126.861756
13,9441,20909132,생활서비스,운송/배달/택배,우체국/우편물취급소,서울특별시 송파구 거여동 289-6,서울특별시 송파구 양산로 3,37.48955032,127.1425554
14,10766,22316161,생활서비스,운송/배달/택배,우체국/우편물취급소,서울특별시 중구 신당동 369-36,서울특별시 중구 다산로 128-8,37.55488678,127.0112553
15,12572,22058134,생활서비스,운송/배달/택배,우체국/우편물취급소,서울특별시 서초구 잠원동 30-2,서울특별시 서초구 강남대로95길 41,37.51308901,127.0179604
16,13894,15575748,생활서비스,운송/배달/택배,우체국/우편물취급소,서울특별시 중구 장충동2가 192-5,서울특별시 중구 필동로1길 40,37.55858989,126.9984052
17,16377,20587435,생활서비스,운송/배달/택배,우체국/우편물취급소,서울특별시 마포구 도화동 17-1,서울특별시 마포구 마포대로 89,37.54318377,126.9498618
18,16608,16512272,생활서비스,운송/배달/택배,우체국/우편물취급소,서울특별시 관악구 신림동 763-23,서울특별시 관악구 난곡로 251-1,37.47653842,126.9155205
19,16609,16497141,생활서비스,운송/배달/택배,우체국/우편물취급소,서울특별시 광진구 자양동 680-65,서울특별시 광진구 자양로 76,37.53559477,127.0872864
20,17852,22065187,생활서비스,운송/배달/택배,우체국/우편물취급소,서울특별시 노원구 상계동 666,서울특별시 노원구 노원로 564,37.66163973,127.0561067
21,18544,22097355,생활서비스,운송/배달/택배,우체국/우편물취급소,서울특별시 서초구 반포동 505,서울특별시 서초구 반포대로 222,37.50238224,127.0058407
22,19028,22341460,생활서비스,운송/배달/택배,우체국/우편물취급소,서울특별시 도봉구 도봉동 563-2,서울특별시 도봉구 도봉로 871,37.68225928,127.0454039
23,19296,22719660,생활서비스,운송/배달/택배,우체국/우편물취급소,서울특별시 영등포구 여의도동 1,서울특별시 영등포구 의사당대로 1,37.53289782,126.9163908
24,19338,22422147,생활서비스,운송/배달/택배,우체국/우편물취급소,서울특별시 서대문구 대현동 90-101,서울특별시 서대문구 신촌로 161,37.55693422,126.9438627
25,21202,25495114,생활서비스,운송/배달/택배,우체국/우편물취급소,서울특별시 서초구 반포동 742-5,서울특별시 서초구 주흥1길 22,37.50383087,127.0196086
26,21546,21926150,생활서비스,운송/배달/택배,우체국/우편물취급소,서울특별시 양천구 신정동 1017-15,서울특별시 양천구 신월로 368,37.52187965,126.8619549
27,22019,28115781,생활서비스,운송/배달/택배,우체국/우편물취급소,서울특별시 종로구 종로6가 226,서울특별시 종로구 종로41길 39,37.57289125,127.0060815
28,23360,28077822,생활서비스,운송/배달/택배,우체국/우편물취급소,서울특별시 마포구 용강동 115-23,서울특별시 마포구 토정로 277,37.54218225,126.9406308
29,23361,28125493,생활서비스,운송/배달/택배,우체국/우편물취급소,서울특별시 은평구 갈현동 434-4,서울특별시 은평구 갈현로 277,37.62164217,126.9165426
30,24619,22399489,생활서비스,운송/배달/택배,우체국/우편물취급소,서울특별시 성북구 장위동 65-176,서울특별시 성북구 화랑로 203,37.60876425,127.0524035
31,25224,22412898,생활서비스,운송/배달/택배,우체국/우편물취급소,서울특별시 동대문구 이문동 291-31,서울특별시 동대문구 이문로 133,37.59851769,127.061208
32,26323,22489404,생활서비스,운송/배달/택배,우체국/우편물취급소,서울특별시 강남구 대치동 901-12,서울특별시 강남구 역삼로71길 12,37.50269193,127.0545374
33,27361,27781819,생활서비스,운송/배달/택배,우체국/우편물취급소,서울특별시 노원구 월계동 447-1,서울특별시 노원구 광운로 20,37.619317,127.0582279
34,27972,20900428,생활서비스,운송/배달/택배,우체국/우편물취급소,서울특별시 송파구 송파동 113-2,서울특별시 송파구 백제고분로42길 5,37.50592296,127.1097146
35,28565,20901874,생활서비스,운송/배달/택배,우체국/우편물취급소,서울특별시 서초구 서초동 1570-5,서울특별시 서초구 반포대로28길 72,37.4916332,127.0123498
36,28614,28295837,생활서비스,운송/배달/택배,우체국/우편물취급소,서울특별시 도봉구 쌍문동 380-5,서울특별시 도봉구 우이천로 328-29,37.64747321,127.026993
37,29800,20903385,생활서비스,운송/배달/택배,우체국/우편물취급소,서울특별시 송파구 풍납동 497,서울특별시 송파구 풍성로 77,37.53333765,127.1211447
38,30118,20860888,생활서비스,운송/배달/택배,우체국/우편물취급소,서울특별시 강동구 강일동 678-2,서울특별시 강동구 아리수로91길 20,37.56486307,127.173195
39,30383,20862147,생활서비스,운송/배달/택배,우체국/우편물취급소,서울특별시 강동구 길동 403,서울특별시 강동구 양재대로112길 57,37.53636498,127.1431851
40,31485,21924552,생활서비스,운송/배달/택배,우체국/우편물취급소,서울특별시 서대문구 현저동 200,서울특별시 서대문구 독립문공원길 13,37.57192063,126.9582996
41,31632,25584156,생활서비스,운송/배달/택배,우체국/우편물취급소,서울특별시 강남구 논현동 141-17,서울특별시 강남구 학동로4길 8,37.510913,127.0228527
42,31925,28346831,생활서비스,운송/배달/택배,우체국/우편물취급소,서울특별시 양천구 신정동 282-29,서울특별시 양천구 목동동로8길 31-5,37.51632752,126.8721068
43,32683,21923061,생활서비스,운송/배달/택배,우체국/우편물취급소,서울특별시 관악구 신림동 1476-53,서울특별시 관악구 난곡로 275,37.47853298,126.9148925
44,32976,21569596,생활서비스,운송/배달/택배,우체국/우편물취급소,서울특별시 성북구 하월곡동 39-1,서울특별시 성북구 화랑로14길 5,37.6012914,127.0452956
45,33223,25500336,생활서비스,운송/배달/택배,우체국/우편물취급소,서울특별시 영등포구 영등포동5가 49-1,서울특별시 영등포구 양산로 214,37.52221185,126.906658
46,34431,28302361,생활서비스,운송/배달/택배,우체국/우편물취급소,서울특별시 강남구 대치동 626,서울특별시 강남구 남부순환로 2917,37.4931595,127.0591471
47,34720,27672339,생활서비스,운송/배달/택배,우체국/우편물취급소,서울특별시 서대문구 창천동 98-3,서울특별시 서대문구 성산로20길 9,37.56083776,126.9320701
48,34780,27671919,생활서비스,운송/배달/택배,우체국/우편물취급소,서울특별시 노원구 중계동 311-14,서울특별시 노원구 중계로 123,37.64622749,127.080631
49,35112,21601368,생활서비스,운송/배달/택배,우체국/우편물취급소,서울특별시 강서구 마곡동 326-9,서울특별시 강서구 양천로30길 14,37.57256418,126.8225816
50,36450,10343165,생활서비스,운송/배달/택배,우체국/우편물취급소,서울특별시 동작구 신대방동 361-2,서울특별시 동작구 여의대방로22길 77,37.49791236,126.9245076
51,36451,27672284,생활서비스,운송/배달/택배,우체국/우편물취급소,서울특별시 중랑구 상봉동 116-20,서울특별시 중랑구 망우로 271,37.59596545,127.082688
52,39000,28195485,생활서비스,운송/배달/택배,우체국/우편물취급소,서울특별시 영등포구 신길동 192-2,서울특별시 영등포구 도신로 195,37.51173718,126.912998
53,40696,27834303,생활서비스,운송/배달/택배,우체국/우편물취급소,서울특별시 강남구 청담동 134-15,서울특별시 강남구 학동로 609,37.5228229,127.0592272
54,41802,27736533,생활서비스,운송/배달/택배,우체국/우편물취급소,서울특별시 은평구 녹번동 5-29,서울특별시 은평구 통일로 684,37.60939339,126.9349326
55,41899,28170087,생활서비스,운송/배달/택배,우체국/우편물취급소,서울특별시 송파구 풍납동 392-2,서울특별시 송파구 올림픽로45길 19,37.5270989,127.1158552
56,42049,20896317,생활서비스,운송/배달/택배,우체국/우편물취급소,서울특별시 송파구 송파동 174-1,서울특별시 송파구 송이로 26,37.50276532,127.1163911
57,42437,28337130,생활서비스,운송/배달/택배,우체국/우편물취급소,서울특별시 송파구 잠실동 101-1,서울특별시 송파구 올림픽로4길 42,37.50831792,127.0720096
58,43279,20852225,생활서비스,운송/배달/택배,우체국/우편물취급소,서울특별시 강남구 삼성동 10-6,서울특별시 강남구 학동로56길 45,37.51434288,127.0433841
59,44644,21790208,생활서비스,운송/배달/택배,우체국/우편물취급소,서울특별시 도봉구 방학동 707-1,서울특별시 도봉구 도봉로 686,37.66563591,127.0432592
60,46310,21815375,생활서비스,운송/배달/택배,우체국/우편물취급소,서울특별시 강북구 수유동 317-5,서울특별시 강북구 삼양로 468,37.64493075,127.0159439
61,46887,21838145,생활서비스,운송/배달/택배,우체국/우편물취급소,서울특별시 강북구 번동 234-1,서울특별시 강북구 오현로35길 65,37.63180323,127.0378584
62,48030,28135777,생활서비스,운송/배달/택배,우체국/우편물취급소,서울특별시 동대문구 용두동 790,서울특별시 동대문구 정릉천동로 58,37.57697545,127.0357114
63,49757,28278882,생활서비스,운송/배달/택배,우체국/우편물취급소,서울특별시 영등포구 대림동 700-4,서울특별시 영등포구 대림로 146,37.49415262,126.900757
64,50004,28053210,생활서비스,운송/배달/택배,우체국/우편물취급소,서울특별시 관악구 봉천동 729-32,서울특별시 관악구 보라매로3길 29,37.4911685,126.9250567
65,51613,20892886,생활서비스,운송/배달/택배,우체국/우편물취급소,서울특별시 노원구 중계동 510-3,서울특별시 노원구 공릉로 392,37.64167279,127.0685743
66,55186,27840310,생활서비스,운송/배달/택배,우체국/우편물취급소,서울특별시 서초구 방배동 1015,서울특별시 서초구 방배로 16,37.47651012,127.0012315
67,55390,28081770,생활서비스,운송/배달/택배,우체국/우편물취급소,서울특별시 영등포구 영등포동5가 49-1,서울특별시 영등포구 양산로 214,37.52221185,126.906658
68,57415,28334512,생활서비스,운송/배달/택배,우체국/우편물취급소,서울특별시 강남구 논현동 203-1,서울특별시 강남구 봉은사로 129,37.50591205,127.0283017
69,58245,28182136,생활서비스,운송/배달/택배,우체국/우편물취급소,서울특별시 동대문구 제기동 147-53,서울특별시 동대문구 안암로 86-1,37.58350191,127.0305662
70,59263,21908091,생활서비스,운송/배달/택배,우체국/우편물취급소,서울특별시 송파구 가락동 77,서울특별시 송파구 송파대로30길 36,37.49573579,127.1210541
71,62821,22407795,생활서비스,운송/배달/택배,우체국/우편물취급소,서울특별시 성북구 하월곡동 71-41,서울특별시 성북구 오패산로3길 58,37.60590476,127.0353267
72,65327,16706774,생활서비스,운송/배달/택배,우체국/우편물취급소,서울특별시 동대문구 장안동 440-7,서울특별시 동대문구 천호대로97길 68,37.56351609,127.0719705
73,65328,16704631,생활서비스,운송/배달/택배,우체국/우편물취급소,서울특별시 광진구 중곡동 72-90,서울특별시 광진구 긴고랑로49길 19,37.56140791,127.095223
74,65985,28091414,생활서비스,운송/배달/택배,우체국/우편물취급소,서울특별시 영등포구 신길동 370-20,서울특별시 영등포구 가마산로51길 1,37.50342354,126.9006663
75,66437,28154002,생활서비스,운송/배달/택배,우체국/우편물취급소,서울특별시 노원구 상계동 767-5,서울특별시 노원구 덕릉로 459-37,37.64690708,127.0593981
76,66616,27672443,생활서비스,운송/배달/택배,우체국/우편물취급소,서울특별시 강남구 개포동 14-4,서울특별시 강남구 개포로 619,37.49357894,127.0780612
77,66874,27672486,생활서비스,운송/배달/택배,우체국/우편물취급소,서울특별시 성북구 하월곡동 88-3,서울특별시 성북구 동소문로 310,37.60730634,127.0293399
78,66910,27672128,생활서비스,운송/배달/택배,우체국/우편물취급소,서울특별시 송파구 오금동 50-3,서울특별시 송파구 오금로 323,37.50253628,127.1280092
79,67267,21701699,생활서비스,운송/배달/택배,우체국/우편물취급소,서울특별시 금천구 시흥동 983-8,서울특별시 금천구 시흥대로 77,37.44106465,126.9029014
80,69448,21786702,생활서비스,운송/배달/택배,우체국/우편물취급소,서울특별시 성동구 마장동 523-3,서울특별시 성동구 고산자로 352,37.5708864,127.0381672
81,70589,28110834,생활서비스,운송/배달/택배,우체국/우편물취급소,서울특별시 강서구 화곡동 1098-11,서울특별시 강서구 공항대로44길 63,37.55347787,126.8497496
82,71761,16258348,생활서비스,운송/배달/택배,우체국/우편물취급소,서울특별시 강남구 삼성동 159,서울특별시 강남구 영동대로 513,37.51182033,127.0591391
83,71762,16251108,생활서비스,운송/배달/택배,우체국/우편물취급소,서울특별시 강남구 역삼동 809-8,서울특별시 강남구 강남대로 458,37.50341056,127.0254388
84,71897,27672169,생활서비스,운송/배달/택배,우체국/우편물취급소,서울특별시 동대문구 신설동 117-23,서울특별시 동대문구 천호대로 4,37.57476673,127.0235133
85,71974,16248724,생활서비스,운송/배달/택배,우체국/우편물취급소,서울특별시 중랑구 중화동 288-2,서울특별시 중랑구 동일로 784,37.60051276,127.0799934
86,73252,28182107,생활서비스,운송/배달/택배,우체국/우편물취급소,서울특별시 노원구 상계동 666,서울특별시 노원구 노원로 564,37.66163973,127.0561067
87,73461,28079975,생활서비스,운송/배달/택배,우체국/우편물취급소,서울특별시 중랑구 면목동 186-136,서울특별시 중랑구 중랑천로 64,37.59102633,127.0732822
88,73763,27870566,생활서비스,운송/배달/택배,우체국/우편물취급소,서울특별시 용산구 이촌동 206-27,서울특별시 용산구 이촌로14길 11-6,37.52782499,126.9543764
89,74260,27830137,생활서비스,운송/배달/택배,우체국/우편물취급소,서울특별시 마포구 성산동 137-4,서울특별시 마포구 월드컵북로26길 17,37.56739542,126.9111483
90,74373,11758697,생활서비스,운송/배달/택배,우체국/우편물취급소,서울특별시 용산구 원효로3가 1-157,서울특별시 용산구 원효로41길 47,37.53530725,126.9598841
91,74846,23052278,생활서비스,운송/배달/택배,우체국/우편물취급소,서울특별시 강서구 등촌동 681,서울특별시 강서구 강서로 448,37.56528392,126.8407957
92,75563,28146237,생활서비스,운송/배달/택배,우체국/우편물취급소,서울특별시 은평구 불광동 312-70,서울특별시 은평구 통일로80길 15,37.62030529,126.9220786
93,75660,28056419,생활서비스,운송/배달/택배,우체국/우편물취급소,서울특별시 강남구 역삼동 826-37,서울특별시 강남구 테헤란로4길 46,37.49550124,127.0300538
94,76701,28095839,생활서비스,운송/배달/택배,우체국/우편물취급소,서울특별시 성북구 성북동 133-56,서울특별시 성북구 성북로 59,37.59263334,127.0018444
95,77778,21014661,생활서비스,운송/배달/택배,우체국/우편물취급소,서울특별시 노원구 월계동 321-2,서울특별시 노원구 월계로 370,37.63090874,127.0610386
96,82249,23126593,생활서비스,운송/배달/택배,우체국/우편물취급소,서울특별시 양천구 신정동 1028-3,서울특별시 양천구 신월로 318,37.52128316,126.8561719
97,85656,27934817,생활서비스,운송/배달/택배,우체국/우편물취급소,서울특별시 마포구 신수동 1-1,서울특별시 마포구 백범로 35,37.55149363,126.9430454
98,85686,28144652,생활서비스,운송/배달/택배,우체국/우편물취급소,서울특별시 송파구 가락동 192,서울특별시 송파구 동남로18길 9,37.49579438,127.1314124
99,86233,19973533,생활서비스,운송/배달/택배,우체국/우편물취급소,서울특별시 광진구 화양동 18-10,서울특별시 광진구 광나루로 356,37.54789854,127.0693802
100,91525,21857173,생활서비스,운송/배달/택배,우체국/우편물취급소,서울특별시 송파구 오금동 18-11,서울특별시 송파구 마천로 61,37.50819062,127.1274231
101,94517,12597691,생활서비스,운송/배달/택배,우체국/우편물취급소,서울특별시 영등포구 영등포동7가 47-2,서울특별시 영등포구 영중로 83,37.5237453,126.9048934
102,95116,28200490,생활서비스,운송/배달/택배,우체국/우편물취급소,서울특별시 강서구 가양동 154-16,서울특별시 강서구 강서로 497,37.56984788,126.8412796
103,95961,21613388,생활서비스,운송/배달/택배,우체국/우편물취급소,서울특별시 서초구 방배동 448-19,서울특별시 서초구 방배천로2길 39-15,37.47718834,126.9846025
104,103071,20875973,생활서비스,운송/배달/택배,우체국/우편물취급소,서울특별시 서초구 반포동 1130,서울특별시 서초구 신반포로 10,37.5004752,126.9860742
105,103198,22281961,생활서비스,운송/배달/택배,우체국/우편물취급소,서울특별시 용산구 한남동 657-44,서울특별시 용산구 대사관로 49,37.53361154,127.0035707
106,103298,22325074,생활서비스,운송/배달/택배,우체국/우편물취급소,서울특별시 종로구 종로5가 98-6,서울특별시 종로구 종로 207-1,37.57117116,127.0008517
107,103462,20890338,생활서비스,운송/배달/택배,우체국/우편물취급소,서울특별시 강동구 천호동 425-6,서울특별시 강동구 구천면로 188,37.54072222,127.1254486
108,103714,22375375,생활서비스,운송/배달/택배,우체국/우편물취급소,서울특별시 성동구 성수동1가 33-29,서울특별시 성동구 뚝섬로3길 14,37.54141562,127.0496015
109,103770,20919816,생활서비스,운송/배달/택배,우체국/우편물취급소,서울특별시 강남구 도곡동 543-7,서울특별시 강남구 도곡로28길 8,37.49205835,127.0420965
110,103948,22312803,생활서비스,운송/배달/택배,우체국/우편물취급소,서울특별시 중구 장충동2가 173-3,서울특별시 중구 퇴계로 270,37.56273499,127.0016322
111,104917,22283084,생활서비스,운송/배달/택배,우체국/우편물취급소,서울특별시 용산구 용산동6가 69-167,서울특별시 용산구 이촌로 352,37.51737102,126.9851556
112,105532,20909613,생활서비스,운송/배달/택배,우체국/우편물취급소,서울특별시 송파구 문정동 150-17,서울특별시 송파구 중대로 20,37.49001278,127.1112491
113,105995,28203408,생활서비스,운송/배달/택배,우체국/우편물취급소,서울특별시 마포구 동교동 179-28,서울특별시 마포구 신촌로4길 3,37.55768101,126.9287423
114,106111,28040674,생활서비스,운송/배달/택배,우체국/우편물취급소,서울특별시 강북구 우이동 1,서울특별시 강북구 삼양로 660,37.66163369,127.0135247
115,106588,22473663,생활서비스,운송/배달/택배,우체국/우편물취급소,서울특별시 금천구 가산동 146-61,서울특별시 금천구 남부순환로 1288,37.47842745,126.8937966
116,106880,22282878,생활서비스,운송/배달/택배,우체국/우편물취급소,서울특별시 용산구 청파동2가 53-12,서울특별시 용산구 청파로47길 100,37.54546245,126.9650617
117,107017,20760235,생활서비스,운송/배달/택배,우체국/우편물취급소,서울특별시 강남구 청담동 134-20,서울특별시 강남구 학동로101길 26,37.52244052,127.0576029
118,107237,27925672,생활서비스,운송/배달/택배,우체국/우편물취급소,서울특별시 관악구 신림동 1636-45,서울특별시 관악구 문성로31길 38,37.48065717,126.9284636
119,107441,22467388,생활서비스,운송/배달/택배,우체국/우편물취급소,서울특별시 양천구 신월동 229-3,서울특별시 양천구 곰달래로10길 9,37.52914862,126.8367391
120,108156,22504854,생활서비스,운송/배달/택배,우체국/우편물취급소,서울특별시 관악구 남현동 100-14,서울특별시 관악구 과천대로 851,37.4665336,126.9872562
121,108182,21606538,생활서비스,운송/배달/택배,우체국/우편물취급소,서울특별시 관악구 봉천동 935-3,서울특별시 관악구 봉천로27길 58,37.48582195,126.9416533
122,108271,21608551,생활서비스,운송/배달/택배,우체국/우편물취급소,서울특별시 종로구 원남동 151-6,서울특별시 종로구 율곡로 160,37.57601546,126.9962133
123,108308,21604131,생활서비스,운송/배달/택배,우체국/우편물취급소,서울특별시 마포구 서교동 394-43,서울특별시 마포구 양화로 62,37.55035309,126.9156402
124,109112,20927272,생활서비스,운송/배달/택배,우체국/우편물취급소,서울특별시 송파구 잠실동 101-1,서울특별시 송파구 올림픽로4길 40,37.50718163,127.074184
125,109332,20920858,생활서비스,운송/배달/택배,우체국/우편물취급소,서울특별시 노원구 월계동 15-3,서울특별시 노원구 마들로 57-1,37.62089851,127.0690374
126,109773,20750247,생활서비스,운송/배달/택배,우체국/우편물취급소,서울특별시 강남구 청담동 120-3,서울특별시 강남구 도산대로 507,37.52474641,127.048512
127,110282,23614936,생활서비스,운송/배달/택배,우체국/우편물취급소,서울특별시 종로구 서린동 154-1,서울특별시 종로구 종로 6,37.56983193,126.9780823
128,110318,21616491,생활서비스,운송/배달/택배,우체국/우편물취급소,서울특별시 송파구 잠실동 27-12,서울특별시 송파구 잠실로 51-33,37.51314067,127.0943355
129,111092,21974053,생활서비스,운송/배달/택배,우체국/우편물취급소,서울특별시 강동구 둔촌동 67-1,서울특별시 강동구 진황도로 147,37.53288322,127.1414372
130,111270,22446773,생활서비스,운송/배달/택배,우체국/우편물취급소,서울특별시 양천구 신월동 166-7,서울특별시 양천구 남부순환로 364,37.53466458,126.8286992
131,111304,21965062,생활서비스,운송/배달/택배,우체국/우편물취급소,서울특별시 서초구 방배동 773-11,서울특별시 서초구 방배로 238,37.49437975,126.9897754
132,111407,22431276,생활서비스,운송/배달/택배,우체국/우편물취급소,서울특별시 성북구 안암동3가 135,서울특별시 성북구 안암로9길 30,37.58183087,127.0245986
133,112847,16828011,생활서비스,운송/배달/택배,우체국/우편물취급소,서울특별시 노원구 공릉동 26-21,서울특별시 노원구 화랑로 815,37.64335336,127.1088362
134,114816,21958951,생활서비스,운송/배달/택배,우체국/우편물취급소,서울특별시 강서구 염창동 282-25,서울특별시 강서구 공항대로 623,37.54722435,126.8740179
135,114881,22356170,생활서비스,운송/배달/택배,우체국/우편물취급소,서울특별시 노원구 상계동 389-163,서울특별시 노원구 한글비석로31길 19,37.66089187,127.0697169
136,115172,22387247,생활서비스,운송/배달/택배,우체국/우편물취급소,서울특별시 성동구 성수동2가 289-4,서울특별시 성동구 아차산로7길 28,37.54753494,127.0553633
137,116144,22349189,생활서비스,운송/배달/택배,우체국/우편물취급소,서울특별시 노원구 공릉동 26-19,서울특별시 노원구 화랑로 815,37.64335336,127.1088362
138,118069,25437686,생활서비스,운송/배달/택배,우체국/우편물취급소,서울특별시 강동구 둔촌동 435-3,서울특별시 강동구 양재대로102길 11,37.53282054,127.1390166
139,119936,22377189,생활서비스,운송/배달/택배,우체국/우편물취급소,서울특별시 동대문구 전농동 90,서울특별시 동대문구 서울시립대로 163,37.58256838,127.0599704
140,120261,23298398,생활서비스,운송/배달/택배,우체국/우편물취급소,서울특별시 은평구 진관동 77,서울특별시 은평구 진관2로 29-8,37.63543797,126.920591
141,120759,28295260,생활서비스,운송/배달/택배,우체국/우편물취급소,서울특별시 강남구 개포동 1247-4,서울특별시 강남구 개포로17길 6,37.47895666,127.046515
142,124685,27799910,생활서비스,운송/배달/택배,우체국/우편물취급소,서울특별시 서초구 잠원동 75-19,서울특별시 서초구 신반포로 177,37.50609197,127.0033937
143,124899,28350827,생활서비스,운송/배달/택배,우체국/우편물취급소,서울특별시 양천구 목동 233-2,서울특별시 양천구 목동중앙본로 60,37.54124848,126.8690949
144,125516,28341463,생활서비스,운송/배달/택배,우체국/우편물취급소,서울특별시 동작구 흑석동 221,서울특별시 동작구 흑석로 84,37.50479846,126.953838
145,126573,20844778,생활서비스,운송/배달/택배,우체국/우편물취급소,서울특별시 강남구 역삼동 701,서울특별시 강남구 언주로 508,37.50394838,127.042725
146,126753,28369276,생활서비스,운송/배달/택배,우체국/우편물취급소,서울특별시 서초구 반포동 505,서울특별시 서초구 반포대로 222,37.50238224,127.0058407
147,130543,27728850,생활서비스,운송/배달/택배,우체국/우편물취급소,서울특별시 서초구 서초동 1486-7,서울특별시 서초구 효령로 224,37.48328442,127.0085248
148,130669,22499188,생활서비스,운송/배달/택배,우체국/우편물취급소,서울특별시 동작구 상도동 207-3,서울특별시 동작구 장승배기로 6,37.49940128,126.9437236
149,133987,28368682,생활서비스,운송/배달/택배,우체국/우편물취급소,서울특별시 광진구 군자동 98,서울특별시 광진구 능동로 209,37.55273062,127.0742772
150,134206,22355967,생활서비스,운송/배달/택배,우체국/우편물취급소,서울특별시 도봉구 쌍문동 646,서울특별시 도봉구 도봉로125길 88,37.6563371,127.0377006
151,135851,22450135,생활서비스,운송/배달/택배,우체국/우편물취급소,서울특별시 도봉구 방학동 283-2,서울특별시 도봉구 방학로 196,37.66229605,127.0303811
152,136073,27676147,생활서비스,운송/배달/택배,우체국/우편물취급소,서울특별시 종로구 신문로2가 55,서울특별시 종로구 새문안로 43,37.56912946,126.9698283
153,136991,27736132,생활서비스,운송/배달/택배,우체국/우편물취급소,서울특별시 마포구 신수동 371-22,서울특별시 마포구 신수로 46,37.54574009,126.9344809
154,139100,25602740,생활서비스,운송/배달/택배,우체국/우편물취급소,서울특별시 구로구 신도림동 406-1,서울특별시 구로구 경인로 577,37.50406687,126.8808982
155,141281,28173623,생활서비스,운송/배달/택배,우체국/우편물취급소,서울특별시 영등포구 당산동 121-17,서울특별시 영등포구 버드나루로19길 3,37.52839363,126.9076991
156,141930,28108934,생활서비스,운송/배달/택배,우체국/우편물취급소,서울특별시 중구 수표동 56-1,서울특별시 중구 수표로 65,37.567064,126.9893945
157,145266,25383495,생활서비스,운송/배달/택배,우체국/우편물취급소,서울특별시 강동구 암사동 400-5,서울특별시 강동구 고덕로27길 28,37.5559344,127.1380264
158,147016,28263932,생활서비스,운송/배달/택배,우체국/우편물취급소,서울특별시 영등포구 여의도동 28-1,서울특별시 영등포구 여의대로 24,37.52236707,126.9205931
159,150661,16067683,생활서비스,운송/배달/택배,우체국/우편물취급소,서울특별시 영등포구 영등포동7가 47-2,서울특별시 영등포구 영중로 83,37.5237453,126.9048934
160,151324,22488158,생활서비스,운송/배달/택배,우체국/우편물취급소,서울특별시 영등포구 대림동 990-45,서울특별시 영등포구 대림로 85,37.48966464,126.9045544
161,152359,16029363,생활서비스,운송/배달/택배,우체국/우편물취급소,서울특별시 종로구 서린동 154-1,서울특별시 종로구 종로 6,37.56983193,126.9780823
162,158217,22353150,생활서비스,운송/배달/택배,우체국/우편물취급소,서울특별시 도봉구 창동 578-143,서울특별시 도봉구 덕릉로 233-5,37.63894778,127.0377776
163,159936,21852335,생활서비스,운송/배달/택배,우체국/우편물취급소,서울특별시 구로구 궁동 204-9,서울특별시 구로구 부일로 951,37.49334927,126.8329748
164,161633,21863627,생활서비스,운송/배달/택배,우체국/우편물취급소,서울특별시 강동구 상일동 318,서울특별시 강동구 상암로81길 51,37.54632783,127.1692692
165,162366,21811812,생활서비스,운송/배달/택배,우체국/우편물취급소,서울특별시 광진구 구의동 587,서울특별시 광진구 강변역로 2,37.53774175,127.0899419
166,163373,21813546,생활서비스,운송/배달/택배,우체국/우편물취급소,서울특별시 강서구 가양동 1472-2,서울특별시 강서구 허준로 95-5,37.56721804,126.8515419
167,164355,16085548,생활서비스,운송/배달/택배,우체국/우편물취급소,서울특별시 양천구 목동 905-16,서울특별시 양천구 목동서로 117,37.53283736,126.8761803
168,165143,22402054,생활서비스,운송/배달/택배,우체국/우편물취급소,서울특별시 성북구 석관동 182-40,서울특별시 성북구 한천로 584,37.61164437,127.062153
169,165276,22532792,생활서비스,운송/배달/택배,우체국/우편물취급소,서울특별시 관악구 남현동 1065-33,서울특별시 관악구 남부순환로272길 38,37.47483566,126.978224
170,166747,22534326,생활서비스,운송/배달/택배,우체국/우편물취급소,서울특별시 금천구 시흥동 852-55,서울특별시 금천구 독산로 123,37.45821367,126.9050585
171,168636,22543107,생활서비스,운송/배달/택배,우체국/우편물취급소,서울특별시 관악구 신림동 244-20,서울특별시 관악구 대학5길 38,37.46913717,126.9399442
172,171466,15939672,생활서비스,운송/배달/택배,우체국/우편물취급소,서울특별시 강남구 삼성동 106,서울특별시 강남구 영동대로112길 15,37.51560669,127.0616481
173,172285,21455319,생활서비스,운송/배달/택배,우체국/우편물취급소,서울특별시 노원구 월계동 447-1,서울특별시 노원구 광운로 20,37.619317,127.0582279
174,172444,21436993,생활서비스,운송/배달/택배,우체국/우편물취급소,서울특별시 성동구 용답동 228-5,서울특별시 성동구 천호대로 378,37.56167097,127.0608329
175,173635,21806513,생활서비스,운송/배달/택배,우체국/우편물취급소,서울특별시 노원구 상계동 724-2,서울특별시 노원구 노해로 492,37.65444766,127.0626575
176,174552,22567787,생활서비스,운송/배달/택배,우체국/우편물취급소,서울특별시 관악구 봉천동 7-270,서울특별시 관악구 관악로 249-1,37.48676664,126.9566903
177,176458,22103464,생활서비스,운송/배달/택배,우체국/우편물취급소,서울특별시 송파구 삼전동 72-4,서울특별시 송파구 백제고분로 256,37.50230428,127.0947718
178,178660,22438709,생활서비스,운송/배달/택배,우체국/우편물취급소,서울특별시 광진구 중곡동 607-10,서울특별시 광진구 용마산로 189,37.57061661,127.085863
179,179373,20844902,생활서비스,운송/배달/택배,우체국/우편물취급소,서울특별시 도봉구 창동 327,서울특별시 도봉구 노해로 309,37.65182765,127.0427111
180,181070,22549107,생활서비스,운송/배달/택배,우체국/우편물취급소,서울특별시 강남구 삼성동 166-8,서울특별시 강남구 영동대로96길 37,37.51166365,127.0655094
181,181180,22810311,생활서비스,운송/배달/택배,우체국/우편물취급소,서울특별시 관악구 신림동 504-1,서울특별시 관악구 조원로 118,37.4850082,126.9155112
182,181998,22417433,생활서비스,운송/배달/택배,우체국/우편물취급소,서울특별시 성동구 옥수동 559,서울특별시 성동구 독서당로 184,37.54201746,127.0120476
183,182451,20843489,생활서비스,운송/배달/택배,우체국/우편물취급소,서울특별시 송파구 오금동 50-3,서울특별시 송파구 오금로 323,37.50253628,127.1280092
184,183038,22582579,생활서비스,운송/배달/택배,우체국/우편물취급소,서울특별시 동작구 흑석동 221,서울특별시 동작구 흑석로 84,37.50479846,126.953838
185,184382,20851747,생활서비스,운송/배달/택배,우체국/우편물취급소,서울특별시 강남구 삼성동 112-22,서울특별시 강남구 선릉로 572,37.50953943,127.0443955
186,185558,22277384,생활서비스,운송/배달/택배,우체국/우편물취급소,서울특별시 중구 봉래동1가 5-36,서울특별시 중구 칠패로 42,37.55946657,126.973538
187,189174,21912294,생활서비스,운송/배달/택배,우체국/우편물취급소,서울특별시 강동구 천호동 121-93,서울특별시 강동구 성안로 191,37.5401094,127.1364546
188,193454,21858336,생활서비스,운송/배달/택배,우체국/우편물취급소,서울특별시 구로구 신도림동 338,서울특별시 구로구 경인로67길 23,37.5106508,126.889204
189,194007,21896924,생활서비스,운송/배달/택배,우체국/우편물취급소,서울특별시 강동구 성내동 440-28,서울특별시 강동구 양재대로 1309,37.5234141,127.1341695
190,194511,8658116,생활서비스,운송/배달/택배,우체국/우편물취급소,서울특별시 중구 을지로4가 312-1,서울특별시 중구 을지로 154-2,37.56619403,126.9951452
191,196832,22203770,생활서비스,운송/배달/택배,우체국/우편물취급소,서울특별시 종로구 숭인동 53-25,서울특별시 종로구 지봉로 88,37.57799838,127.0155462
192,198327,22564721,생활서비스,운송/배달/택배,우체국/우편물취급소,서울특별시 강서구 화곡동 349-15,서울특별시 강서구 강서로17길 6,37.53341229,126.8451813
193,198333,22404956,생활서비스,운송/배달/택배,우체국/우편물취급소,서울특별시 노원구 상계동 101-62,서울특별시 노원구 덕릉로113길 18,37.66629235,127.0770172
194,199126,22472347,생활서비스,운송/배달/택배,우체국/우편물취급소,서울특별시 구로구 고척동 76-284,서울특별시 구로구 중앙로3길 53,37.49843201,126.8616888
195,201570,21791706,생활서비스,운송/배달/택배,우체국/우편물취급소,서울특별시 은평구 갈현동 489-5,서울특별시 은평구 서오릉로 190,37.61367625,126.9125353
196,205652,21847808,생활서비스,운송/배달/택배,우체국/우편물취급소,서울특별시 서초구 반포동 4-13,서울특별시 서초구 신반포로19길 40,37.50453152,126.9946943
197,207583,22402692,생활서비스,운송/배달/택배,우체국/우편물취급소,서울특별시 성동구 행당동 284,서울특별시 성동구 왕십리로 303,37.56085629,127.0346741
198,207860,22471903,생활서비스,운송/배달/택배,우체국/우편물취급소,서울특별시 강남구 일원동 712-1,서울특별시 강남구 양재대로55길 20,37.49218567,127.0877809
199,210433,21881275,생활서비스,운송/배달/택배,우체국/우편물취급소,서울특별시 용산구 이촌동 301-160,서울특별시 용산구 이촌로 303,37.51890428,126.9811415
200,211338,21618898,생활서비스,운송/배달/택배,우체국/우편물취급소,서울특별시 구로구 구로동 98-16,서울특별시 구로구 구로중앙로18길 5,37.49491356,126.8896294
201,211598,21617313,생활서비스,운송/배달/택배,우체국/우편물취급소,서울특별시 영등포구 신길동 446-3,서울특별시 영등포구 신길로 65,37.49842737,126.9079662
202,214366,21887207,생활서비스,운송/배달/택배,우체국/우편물취급소,서울특별시 영등포구 양평동1가 209-4,서울특별시 영등포구 선유서로26길 24,37.52384401,126.8884541
203,214601,21712385,생활서비스,운송/배달/택배,우체국/우편물취급소,서울특별시 도봉구 방학동 632-28,서울특별시 도봉구 도당로13길 29-14,37.66560651,127.0341239
204,215136,22349040,생활서비스,운송/배달/택배,우체국/우편물취급소,서울특별시 강북구 미아동 776-5,서울특별시 강북구 삼양로 229,37.62386661,127.0183514
205,216173,22371551,생활서비스,운송/배달/택배,우체국/우편물취급소,서울특별시 동대문구 청량리동 286-1,서울특별시 동대문구 홍릉로 10,37.58128694,127.0451322
206,216202,22446518,생활서비스,운송/배달/택배,우체국/우편물취급소,서울특별시 마포구 아현동 330-3,서울특별시 마포구 신촌로 266,37.55707044,126.9551223
207,216881,21977327,생활서비스,운송/배달/택배,우체국/우편물취급소,서울특별시 강남구 개포동 1247-4,서울특별시 강남구 개포로17길 6,37.47895666,127.046515
208,222509,16420093,생활서비스,운송/배달/택배,우체국/우편물취급소,서울특별시 성북구 안암동3가 135,서울특별시 성북구 안암로9길 30,37.58183087,127.0245986
209,224200,22498888,생활서비스,운송/배달/택배,우체국/우편물취급소,서울특별시 금천구 시흥동 993-2,서울특별시 금천구 시흥대로 217,37.45315468,126.9007357
210,225401,27752627,생활서비스,운송/배달/택배,우체국/우편물취급소,서울특별시 동작구 노량진동 271-13,서울특별시 동작구 등용로14길 68,37.51227357,126.9352849
211,225517,22492284,생활서비스,운송/배달/택배,우체국/우편물취급소,서울특별시 구로구 구로동 819,서울특별시 구로구 디지털로26길 144,37.48329155,126.8984512
212,226093,23241809,생활서비스,운송/배달/택배,우체국/우편물취급소,서울특별시 관악구 봉천동 930-42,서울특별시 관악구 남부순환로 1722,37.48225909,126.94124
213,226938,21749772,생활서비스,운송/배달/택배,우체국/우편물취급소,서울특별시 동대문구 전농동 295-134,서울특별시 동대문구 전농로 131,37.57674602,127.0575077
214,227887,22483437,생활서비스,운송/배달/택배,우체국/우편물취급소,서울특별시 영등포구 여의도동 14-26,서울특별시 영등포구 국회대로68길 7,37.52945704,126.9194727
215,227953,20726611,생활서비스,운송/배달/택배,우체국/우편물취급소,서울특별시 동대문구 답십리동 465-5,서울특별시 동대문구 사가정로 7,37.57059567,127.0489931
216,229317,28152059,생활서비스,운송/배달/택배,우체국/우편물취급소,서울특별시 마포구 노고산동 31-8,서울특별시 마포구 백범로1길 21,37.55484381,126.9378372
217,230547,28301461,생활서비스,운송/배달/택배,우체국/우편물취급소,서울특별시 동대문구 전농동 90,서울특별시 동대문구 서울시립대로 163,37.58256838,127.0599704
218,230619,20732847,생활서비스,운송/배달/택배,우체국/우편물취급소,서울특별시 중구 신당동 52-260,서울특별시 중구 다산로36나길 7,37.5605331,127.0195112
219,231897,28335677,생활서비스,운송/배달/택배,우체국/우편물취급소,서울특별시 도봉구 쌍문동 103-245,서울특별시 도봉구 도봉로103길 10,37.64491646,127.0316383
220,236778,15783187,생활서비스,운송/배달/택배,우체국/우편물취급소,서울특별시 종로구 서린동 154-1,서울특별시 종로구 종로 6,37.56983193,126.9780823
221,237706,22581492,생활서비스,운송/배달/택배,우체국/우편물취급소,서울특별시 강남구 개포동 189,서울특별시 강남구 삼성로 14,37.48617624,127.0682354
222,239294,14271038,생활서비스,운송/배달/택배,우체국/우편물취급소,서울특별시 강동구 성내동 515-4,서울특별시 강동구 천호대로170길 106-6,37.53094172,127.131005
223,239303,14342422,생활서비스,운송/배달/택배,우체국/우편물취급소,서울특별시 동작구 사당동 249-90,서울특별시 동작구 사당로 204,37.48459142,126.970651
224,243581,16264164,생활서비스,운송/배달/택배,우체국/우편물취급소,서울특별시 송파구 가락동 600,서울특별시 송파구 양재대로 932,37.49452588,127.1086964
225,243965,28318615,생활서비스,운송/배달/택배,우체국/우편물취급소,서울특별시 성북구 돈암동 173-1,서울특별시 성북구 보문로34다길 2,37.5916757,127.0219903
226,249835,28337535,생활서비스,운송/배달/택배,우체국/우편물취급소,서울특별시 도봉구 쌍문동 419,서울특별시 도봉구 삼양로144길 33,37.64950255,127.0163709
227,250781,22683366,생활서비스,운송/배달/택배,우체국/우편물취급소,서울특별시 광진구 구의동 70-6,서울특별시 광진구 자양로 242,37.54793381,127.088924
228,252744,20877236,생활서비스,운송/배달/택배,우체국/우편물취급소,서울특별시 강동구 상일동 354-1,서울특별시 강동구 상일로 9,37.54792247,127.1730879
229,253262,21834627,생활서비스,운송/배달/택배,우체국/우편물취급소,서울특별시 광진구 광장동 330-8,서울특별시 광진구 광장로 80,37.54769468,127.1059701
230,253794,27866196,생활서비스,운송/배달/택배,우체국/우편물취급소,서울특별시 광진구 자양동 680-65,서울특별시 광진구 자양로 76,37.53559477,127.0872864
231,254327,22258988,생활서비스,운송/배달/택배,우체국/우편물취급소,서울특별시 용산구 한강로3가 40-611,서울특별시 용산구 한강대로7길 10-8,37.52456405,126.9626466
232,254660,22364353,생활서비스,운송/배달/택배,우체국/우편물취급소,서울특별시 강남구 대치동 316,서울특별시 강남구 삼성로 212,37.49961058,127.0658971
233,255247,28150239,생활서비스,운송/배달/택배,우체국/우편물취급소,서울특별시 동작구 노량진동 232-19,서울특별시 동작구 장승배기로24길 6,37.51041027,126.9405031
234,255257,27815512,생활서비스,운송/배달/택배,우체국/우편물취급소,서울특별시 서대문구 홍제동 278-100,서울특별시 서대문구 간호대로 11-24,37.59592302,126.948
235,255746,22417359,생활서비스,운송/배달/택배,우체국/우편물취급소,서울특별시 은평구 신사동 22-1,서울특별시 은평구 은평로 60,37.59860175,126.9144647
236,256811,27968929,생활서비스,운송/배달/택배,우체국/우편물취급소,서울특별시 서대문구 충정로3가 464,서울특별시 서대문구 서소문로 21,37.55988846,126.9640699
237,257051,25206756,생활서비스,운송/배달/택배,우체국/우편물취급소,서울특별시 서초구 서초동 1539-1,서울특별시 서초구 반포대로 99,37.48906106,127.0086294
238,257270,21762382,생활서비스,운송/배달/택배,우체국/우편물취급소,서울특별시 종로구 신영동 133-1,서울특별시 종로구 세검정로 258,37.60136552,126.9612527
239,257990,21778171,생활서비스,운송/배달/택배,우체국/우편물취급소,서울특별시 도봉구 쌍문동 388-33,서울특별시 도봉구 노해로40길 72,37.64673261,127.0300622
240,258024,20911662,생활서비스,운송/배달/택배,우체국/우편물취급소,서울특별시 서초구 서초동 967,서울특별시 서초구 서초대로 219,37.49240269,127.0052606
241,258326,21786594,생활서비스,운송/배달/택배,우체국/우편물취급소,서울특별시 종로구 삼청동 25-23,서울특별시 종로구 북촌로 112,37.58713267,126.9844356
242,258674,28327815,생활서비스,운송/배달/택배,우체국/우편물취급소,서울특별시 영등포구 영등포동7가 47-2,서울특별시 영등포구 영중로 83,37.5237453,126.9048934
243,258678,21791852,생활서비스,운송/배달/택배,우체국/우편물취급소,서울특별시 도봉구 쌍문동 419,서울특별시 도봉구 삼양로144길 33,37.64950255,127.0163709
244,258801,21709460,생활서비스,운송/배달/택배,우체국/우편물취급소,서울특별시 종로구 혜화동 111-3,서울특별시 종로구 혜화로 1,37.58587478,127.0006892
245,259583,28159039,생활서비스,운송/배달/택배,우체국/우편물취급소,서울특별시 광진구 군자동 48-45,서울특별시 광진구 면목로 17-1,37.55593914,127.0755278
246,259955,22454275,생활서비스,운송/배달/택배,우체국/우편물취급소,서울특별시 강서구 공항동 669-9,서울특별시 강서구 방화대로7길 40,37.55619634,126.813966
247,260096,22471901,생활서비스,운송/배달/택배,우체국/우편물취급소,서울특별시 강남구 삼성동 159,서울특별시 강남구 영동대로 513,37.5129394,127.0571003
248,261563,22492996,생활서비스,운송/배달/택배,우체국/우편물취급소,서울특별시 강남구 역삼동 732-24,서울특별시 강남구 역삼로 239,37.49769313,127.0424882
249,261726,22488806,생활서비스,운송/배달/택배,우체국/우편물취급소,서울특별시 동작구 신대방동 707,서울특별시 동작구 여의대방로 28,37.4952629,126.9116763
250,261737,22469814,생활서비스,운송/배달/택배,우체국/우편물취급소,서울특별시 영등포구 문래동6가 45,서울특별시 영등포구 문래로4길 6,37.52037348,126.8835168
251,261891,24047448,생활서비스,운송/배달/택배,우체국/우편물취급소,서울특별시 영등포구 영등포동8가 35-1,서울특별시 영등포구 영중로 119,37.52719886,126.905171
252,263639,28066059,생활서비스,운송/배달/택배,우체국/우편물취급소,서울특별시 영등포구 여의도동 44-35,서울특별시 영등포구 여의대방로 379,37.51912706,126.9309114
253,264138,22347196,생활서비스,운송/배달/택배,우체국/우편물취급소,서울특별시 성동구 홍익동 356,서울특별시 성동구 마장로 194,37.56646034,127.0313191
254,265788,21789618,생활서비스,운송/배달/택배,우체국/우편물취급소,서울특별시 강북구 미아동 1267-56,서울특별시 강북구 삼양로19길 59,37.61573849,127.0193418
255,268956,21887958,생활서비스,운송/배달/택배,우체국/우편물취급소,서울특별시 영등포구 양평동4가 153-31,서울특별시 영등포구 양평로 92,37.53650352,126.8970919
256,270151,28333311,생활서비스,운송/배달/택배,우체국/우편물취급소,서울특별시 성북구 정릉동 16-1,서울특별시 성북구 서경로 124,37.61540186,127.0135468
257,270410,15783166,생활서비스,운송/배달/택배,우체국/우편물취급소,서울특별시 동대문구 용두동 790,서울특별시 동대문구 정릉천동로 58,37.57697545,127.0357114
258,272041,20803223,생활서비스,운송/배달/택배,우체국/우편물취급소,서울특별시 관악구 봉천동 729-32,서울특별시 관악구 보라매로3길 29,37.4911685,126.9250567
259,272198,28147538,생활서비스,운송/배달/택배,우체국/우편물취급소,서울특별시 노원구 하계동 163-4,서울특별시 노원구 공릉로58길 78,37.63542512,127.0727084
260,272783,21778598,생활서비스,운송/배달/택배,우체국/우편물취급소,서울특별시 강북구 수유동 173-3,서울특별시 강북구 도봉로 383,37.64122459,127.0286382
261,273494,28357111,생활서비스,운송/배달/택배,우체국/우편물취급소,서울특별시 구로구 고척동 256-22,서울특별시 구로구 경인로33바길 5-1,37.50151248,126.8504116
262,273822,27728366,생활서비스,운송/배달/택배,우체국/우편물취급소,서울특별시 강남구 도곡동 543-7,서울특별시 강남구 도곡로28길 8,37.49205835,127.0420965
263,274711,27725212,생활서비스,운송/배달/택배,우체국/우편물취급소,서울특별시 종로구 창신동 330-1,서울특별시 종로구 종로 328,37.57236515,127.0142619
264,277769,15671102,생활서비스,운송/배달/택배,우체국/우편물취급소,서울특별시 마포구 대흥동 328-31,서울특별시 마포구 독막로 248-1,37.54633989,126.9410586
265,277904,14219698,생활서비스,운송/배달/택배,우체국/우편물취급소,서울특별시 성북구 성북동 126-3,서울특별시 성북구 성북로 81,37.59307643,126.9999022
266,280572,28322290,생활서비스,운송/배달/택배,우체국/우편물취급소,서울특별시 동작구 상도동 511,서울특별시 동작구 상도로 369,37.49642124,126.9551424
267,282404,27987474,생활서비스,운송/배달/택배,우체국/우편물취급소,서울특별시 노원구 상계동 432-1,서울특별시 노원구 노원로34길 48-4,37.66100629,127.0659526
268,283134,14219386,생활서비스,운송/배달/택배,우체국/우편물취급소,서울특별시 강동구 천호동 336-8,서울특별시 강동구 올림픽로77길 46-38,37.54428223,127.1231324
269,284366,22532154,생활서비스,운송/배달/택배,우체국/우편물취급소,서울특별시 동작구 상도동 31-7,서울특별시 동작구 상도로 236,37.50499769,126.9448323
270,285576,27722880,생활서비스,운송/배달/택배,우체국/우편물취급소,서울특별시 강남구 신사동 549-1,서울특별시 강남구 압구정로 134,37.52434396,127.0234921
271,287074,22530511,생활서비스,운송/배달/택배,우체국/우편물취급소,서울특별시 강남구 신사동 549-1,서울특별시 강남구 압구정로 134,37.52434396,127.0234921
272,289299,21788490,생활서비스,운송/배달/택배,우체국/우편물취급소,서울특별시 중구 을지로6가 58-5,서울특별시 중구 을지로 238,37.5662902,127.0043694
273,292369,23252905,생활서비스,운송/배달/택배,우체국/우편물취급소,서울특별시 송파구 문정동 41-5,서울특별시 송파구 동남로4길 10,37.4890986,127.1239701
274,292805,17223363,생활서비스,운송/배달/택배,우체국/우편물취급소,서울특별시 동대문구 답십리동 58-16,서울특별시 동대문구 답십리로52길 13-2,37.57209639,127.0586077
275,292806,17223384,생활서비스,운송/배달/택배,우체국/우편물취급소,서울특별시 도봉구 창동 16,서울특별시 도봉구 노해로 389,37.65272618,127.0513238
276,292948,17218031,생활서비스,운송/배달/택배,우체국/우편물취급소,서울특별시 서대문구 미근동 209,서울특별시 서대문구 통일로 97,37.56418387,126.9668628
277,293533,17196442,생활서비스,운송/배달/택배,우체국/우편물취급소,서울특별시 종로구 연건동 28-21,서울특별시 종로구 대학로 101,37.58044782,126.9971841
278,294019,17195736,생활서비스,운송/배달/택배,우체국/우편물취급소,서울특별시 영등포구 여의도동 18,서울특별시 영등포구 여의공원로 13,37.52596258,126.9166948
279,294852,17238137,생활서비스,운송/배달/택배,우체국/우편물취급소,서울특별시 마포구 동교동 147-6,서울특별시 마포구 연희로 1,37.55890012,126.9260651
280,295033,17237954,생활서비스,운송/배달/택배,우체국/우편물취급소,서울특별시 송파구 삼전동 71-33,서울특별시 송파구 백제고분로32길 6-58,37.50069793,127.0932757
281,295301,17223355,생활서비스,운송/배달/택배,우체국/우편물취급소,서울특별시 용산구 용산동3가 1,서울특별시 용산구 이태원로 22,37.5335884,126.9776719
282,295792,14062478,생활서비스,운송/배달/택배,우체국/우편물취급소,서울특별시 강남구 논현동 210-1,서울특별시 강남구 언주로 651,37.51492265,127.0349041
283,295899,22544560,생활서비스,운송/배달/택배,우체국/우편물취급소,서울특별시 동작구 사당동 1007-57,서울특별시 동작구 동작대로 75,37.48336903,126.9813981
284,296386,22511696,생활서비스,운송/배달/택배,우체국/우편물취급소,서울특별시 동작구 흑석동 101-3,서울특별시 동작구 서달로15길 13,37.50837883,126.962373
285,297589,28153912,생활서비스,운송/배달/택배,우체국/우편물취급소,서울특별시 강남구 삼성동 21,서울특별시 강남구 삼성로 635,37.51657624,127.0510478
286,297938,22328818,생활서비스,운송/배달/택배,우체국/우편물취급소,서울특별시 영등포구 문래동2가 14-56,서울특별시 영등포구 도림로 429,37.51388705,126.8951285
287,297989,14061224,생활서비스,운송/배달/택배,우체국/우편물취급소,서울특별시 광진구 자양동 680-81,서울특별시 광진구 자양로 72,37.53483104,127.0875672
288,298740,14061121,생활서비스,운송/배달/택배,우체국/우편물취급소,서울특별시 강남구 개포동 14-1,서울특별시 강남구 개포로109길 34,37.49419735,127.0776351
289,300570,22004422,생활서비스,운송/배달/택배,우체국/우편물취급소,서울특별시 강남구 신사동 660-7,서울특별시 강남구 압구정로 332,37.52823697,127.0378213
290,301812,25500295,생활서비스,운송/배달/택배,우체국/우편물취급소,서울특별시 중구 충무로1가 21-1,서울특별시 중구 소공로 70,37.56158656,126.9821565
291,302174,21618636,생활서비스,운송/배달/택배,우체국/우편물취급소,서울특별시 중구 신당동 304-417,서울특별시 중구 다산로29길 23,37.56122392,127.0126656
292,302587,21810011,생활서비스,운송/배달/택배,우체국/우편물취급소,서울특별시 종로구 종로2가 39-2,서울특별시 종로구 종로17길 8,37.5707004,126.9889491
293,302637,28001600,생활서비스,운송/배달/택배,우체국/우편물취급소,서울특별시 강남구 신사동 502-11,서울특별시 강남구 강남대로 620,37.51714004,127.0196833
294,302694,22468746,생활서비스,운송/배달/택배,우체국/우편물취급소,서울특별시 은평구 역촌동 50-24,서울특별시 은평구 갈현로 100,37.60673134,126.9108016
295,302784,21813173,생활서비스,운송/배달/택배,우체국/우편물취급소,서울특별시 동대문구 장안동 301-1,서울특별시 동대문구 사가정로 240,37.57856934,127.0715573
296,304168,17205728,생활서비스,운송/배달/택배,우체국/우편물취급소,서울특별시 도봉구 도봉동 594-17,서울특별시 도봉구 도봉로169길 53-15,37.67902475,127.0432007
297,306540,25475307,생활서비스,운송/배달/택배,우체국/우편물취급소,서울특별시 서초구 방배동 923-6,서울특별시 서초구 방배로13길 18,37.48312743,126.9952751
298,308661,22878215,생활서비스,운송/배달/택배,우체국/우편물취급소,서울특별시 강남구 역삼동 647-9,서울특별시 강남구 테헤란로 131,37.50005699,127.0329127
299,308875,27736022,생활서비스,운송/배달/택배,우체국/우편물취급소,서울특별시 종로구 무악동 63-9,서울특별시 종로구 통일로 266,37.57587172,126.9567729
300,310373,21924987,생활서비스,운송/배달/택배,우체국/우편물취급소,서울특별시 송파구 신천동 7,서울특별시 송파구 올림픽로35길 104,37.51981032,127.099289
301,310422,21916532,생활서비스,운송/배달/택배,우체국/우편물취급소,서울특별시 노원구 공릉동 172,서울특별시 노원구 공릉로 232,37.63306923,127.0767711
302,310541,21855422,생활서비스,운송/배달/택배,우체국/우편물취급소,서울특별시 중구 남창동 190-11,서울특별시 중구 퇴계로6길 18,37.55741822,126.9783876
303,310872,21933309,생활서비스,운송/배달/택배,우체국/우편물취급소,서울특별시 영등포구 신길동 1300,서울특별시 영등포구 영등포로 422,37.51238581,126.9247977
304,310942,22520316,생활서비스,운송/배달/택배,우체국/우편물취급소,서울특별시 관악구 봉천동 1575-7,서울특별시 관악구 쑥고개로 88,37.47912345,126.9462817
305,311031,20917776,생활서비스,운송/배달/택배,우체국/우편물취급소,서울특별시 강남구 도곡동 458-10,서울특별시 강남구 남부순환로378길 34-10,37.48395484,127.0461801
306,311274,28136280,생활서비스,운송/배달/택배,우체국/우편물취급소,서울특별시 송파구 신천동 7,서울특별시 송파구 올림픽로35길 124,37.51723323,127.1004626
307,311456,21895815,생활서비스,운송/배달/택배,우체국/우편물취급소,서울특별시 강동구 고덕동 655-5,서울특별시 강동구 고덕로61길 132,37.56054643,127.1515219
