No,교육청명,교육지원청명,유치원코드,유치원명,설립유형,대표자명,원장명,설립일,개원일,주소,전화번호,홈페이지,운영시간,만3세학급수,만4세학급수,만5세학급수,혼합학급수,특수학급수,만3세유아수,만4세유아수,만5세유아수,혼합유아수,특수유아수,공시차수,경도,위도,상태
1,서울특별시교육청,남부교육지원청,006b5238-ce41-4471-9ee3-4df8d24b5141,서울정심초등학교병설유치원,공립(병설),김향숙,김향숙,20181116,20190314,서울특별시 금천구 독산로78다길 89,02-851-7792,http://www.jungshim.es.kr,07시30분~19시30분,1,1,1,0,1,4,14,12,0,2,20211,126.908371551251,37.4716912312365,정좌표
2,서울특별시교육청,강동송파교육지원청,009c017d-43bd-4d9f-ac64-d217abdd570e,서울솔방울유치원,공립(단설),이수이,이수이,20210301,20210301,서울특별시 송파구 오금로24길 25,02-6481-6001,https://www.서울솔방울유치원.kr:497/home/,09시30분~20시00분,2,2,2,0,,30,41,40,0,,20211,127.117386396486,37.5048453202087,정좌표
3,서울특별시교육청,강동송파교육지원청,04a021da-cdd7-4e7e-a434-2b388c2f6b63,란키즈유치원,사립(사인),송미화,송미화,20170307,20170307,서울특별시 송파구 새말로8길 22-5,.02-404-4045,,09시00분~19시00분,1,1,2,0,,11,15,28,0,,20211,127.126289699997,37.4807692195293,정좌표
4,서울특별시교육청,동부교육지원청,0764f8c8-364c-495b-9fbc-b389148b7b4f,서울신현초등학교병설유치원,공립(병설),김홍미,김홍미,20201231,20210301,서울특별시 중랑구 봉화산로 188,02-6956-0147,http://shinhyun.sen.es.kr/,07시30분~19시30분,1,1,1,0,1,15,11,13,0,4,20211,127.093515581182,37.6058218772401,정좌표
5,서울특별시교육청,서부교육지원청,0783b5eb-4c00-4161-9c47-664336825e5a,다우림유치원,사립(사인),김애리,김애리,20170330,20170401,서울특별시 은평구 증산로21길 22,.02-375-2237,,08시00분~20시00분,1,1,1,0,,26,14,27,0,,20211,126.912318112176,37.5962232949956,정좌표
6,서울특별시교육청,서부교육지원청,08d485cb-06c8-4964-bf03-ed1b178ef3fd,서울소의초등학교병설유치원,공립(병설),신미애,신미애,20210301,20210308,서울특별시 마포구 마포대로24길 42,02-362-6512,http://soeui.sen.es.kr,07시30분~19시30분,1,1,1,0,,6,15,10,0,,20211,126.960496704547,37.5524215764303,정좌표
7,서울특별시교육청,북부교육지원청,0c4bc461-9f36-4d28-94e3-3dfb9c6cd4e3,서울상계초등학교병설유치원,공립(병설),윤대희,윤대희,20170301,20170302,서울특별시 노원구 상계로9길 39,02-933-6888,http://www.sanggye.es.kr,07시00분~20시00분,,1,1,0,,,5,6,0,,20211,127.066574924769,37.6592430588312,정좌표
8,서울특별시교육청,강남서초교육지원청,16f86a3d-1aa1-471d-bcd4-a563853f8658,서울신구유치원,공립(단설),김미숙,김미숙,20170901,20170901,서울특별시 강남구 압구정로18길 28,02-3446-7480,http://서울신구유치원.kr/,07시30분~19시30분,2,1,2,0,1,30,18,38,0,3,20211,127.023992962892,37.523361189634,정좌표
9,서울특별시교육청,강남서초교육지원청,18f5dfe2-27c7-47f3-af41-5a4a944a77fe,서울세명유치원,공립(단설),김순혜,김순혜,20180104,20180301,서울특별시 강남구 자곡로 55,02-3411-0890,http://www.서울세명유치원.kr,07시00분~19시30분,1,2,2,0,1,11,31,42,0,4,20211,127.091075676352,37.4688570649397,정좌표
10,서울특별시교육청,강남서초교육지원청,196f00e6-793a-4f41-bcef-99bef725d1f3,한신유치원,사립(법인),강용규,김은미,20170301,20170301,서울특별시 서초구 잠원로3길 31,02-593-3100,,09시00분~17시00분,2,2,2,0,,46,47,46,0,,20211,127.004778697519,37.5090610506933,정좌표
11,서울특별시교육청,강서양천교육지원청,1dfcc6e7-c6ff-4843-b970-cfba072320b4,서울강월초등학교병설유치원,공립(병설),류록희,류록희,20161229,20170309,서울특별시 양천구 신월로 97,02-2605-1702,http://gangwol.es.kr/,07시30분~19시30분,1,1,1,0,,12,16,17,0,,20211,126.833429200589,37.5163372744599,정좌표
12,서울특별시교육청,강남서초교육지원청,1ecec08c-ed13-b044-e053-0a32095ab044,강남유치원,사립(사인),최병락,박춘옥,19850201,19850201,서울특별시 강남구 선릉로129길 31,02-546-1673,http://www.knk.or.kr,08시40분~17시40분,,1,2,0,,,21,55,0,,20202,127.039030614928,37.5154944946399,정좌표
13,서울특별시교육청,서부교육지원청,1ecec08c-ed16-b044-e053-0a32095ab044,서울연광초등학교병설유치원,공립(병설),이춘림,이춘림,20040428,20040428,서울특별시 은평구 연서로35길 37,02-353-5977,http://www.yeonkwang.es.kr,07시30분~20시00분,1,1,1,0,,5,12,13,0,,20211,126.924211781063,37.6241343462804,정좌표
14,서울특별시교육청,강남서초교육지원청,1ecec08c-ed17-b044-e053-0a32095ab044,서울원명초등학교병설유치원,공립(병설),유정원,유정원,20050415,20050504,서울특별시 서초구 고무래로 90-6,02-593-4490,http://www.wonmyong.es.kr/index/index.do,07시30분~19시30분,1,1,1,0,,16,22,25,0,,20211,127.016708333979,37.5007785849304,정좌표
15,서울특별시교육청,서부교육지원청,1ecec08c-ed18-b044-e053-0a32095ab044,홍익대학교사범대학부속유치원,사립(법인),학교법인홍익학원,안병규,19851109,19860301,서울특별시 마포구 성미산로 111,02-3140-1107,http://www.hiuk.kg.kr,09시00분~17시00분,2,2,2,0,,40,52,59,0,,20211,126.919238127974,37.562311906821,정좌표
16,서울특별시교육청,성동광진교육지원청,1ecec08c-ed19-b044-e053-0a32095ab044,서울마장초등학교병설유치원,공립(병설),장언경,장언경,20050301,20050301,서울특별시 성동구 마장로35나길 31,02-2282-2831,http://www.majang.es.kr,09시00분~19시30분,1,1,1,0,,4,13,24,0,,20211,127.042127914117,37.5683101311955,정좌표
17,서울특별시교육청,강남서초교육지원청,1ecec08c-ed1c-b044-e053-0a32095ab044,서울우솔초등학교병설유치원,공립(병설),이재관,이재관,20130109,20130301,서울특별시 서초구 양재대로2길 74,3463-9073,http://www.woosol.es.kr,07시30분~19시30분,1,2,2,0,1,9,17,26,0,3,20211,127.019273632743,37.4570876179069,정좌표
18,서울특별시교육청,강남서초교육지원청,1ecec08c-ed1d-b044-e053-0a32095ab044,서울언주초등학교병설유치원,공립(병설),김호산,김호산,20130301,20130314,서울특별시 강남구 남부순환로363길 19,02-3462-5280,http://www.eonju.es.kr,07시00분~19시30분,1,1,1,0,,16,22,23,0,,20211,127.036754579672,37.4867920043575,정좌표
19,서울특별시교육청,강남서초교육지원청,1ecec08c-ed1e-b044-e053-0a32095ab044,서울개원초등학교병설유치원,공립(병설),박승란,박승란,20121227,20130301,서울특별시 강남구 선릉로 29,02-574-1231,http://www.gaewon.es.kr,09시00분~20시00분,1,1,1,0,,8,5,4,0,,20182,127.058737604396,37.4816200419355,정좌표
20,서울특별시교육청,동작관악교육지원청,1ecec08c-ed2b-b044-e053-0a32095ab044,한별유치원,사립(사인),조항욱,조항욱,19830608,19830608,서울특별시 관악구 남부순환로144길 65,02-855-6659,http://www.hanbyeol.co.kr,09시00분~18시00분,1,2,2,0,,24,47,52,0,,20211,126.913477316832,37.4784182831013,정좌표
21,서울특별시교육청,남부교육지원청,1ecec08c-ed2e-b044-e053-0a32095ab044,서울백산초등학교병설유치원,공립(병설),류인철,류인철,20001125,20010301,서울특별시 금천구 시흥대로38길 78,02-803-5883,http://backsan.sen.es.kr/112708/subMenu.do,07시00분~20시00분,1,1,1,0,,6,16,17,0,,20211,126.905549105561,37.446531369962,정좌표
22,서울특별시교육청,남부교육지원청,1ecec08c-ed2f-b044-e053-0a32095ab044,서울아람유치원,사립(사인),조임숙,조임숙,20030317,20030317,서울특별시 구로구 고척로25길 62,02-2612-3269,,09시00분~18시30분,1,1,1,0,,13,12,26,0,,20192,126.846126822752,37.5045904762542,정좌표
23,서울특별시교육청,남부교육지원청,1ecec08c-ed30-b044-e053-0a32095ab044,성모유치원,사립(법인),유명순,유명순,19560309,19560309,서울특별시 영등포구 가마산로89길 7,02-842-2903,http://cafe.daum.net/ntdsm,09시00분~18시00분,1,2,2,0,,23,48,54,0,,20211,126.920839714276,37.5052147756825,정좌표
24,서울특별시교육청,강서양천교육지원청,1ecec08c-ed7f-b044-e053-0a32095ab044,새서울유치원,사립(사인),이상옥,이상옥,19871101,19871101,서울특별시 양천구 목동서로 340,02-2646-1100,http://www.새서울유치원.com,07시30분~19시30분,2,2,2,0,,34,38,36,0,,20211,126.862969430761,37.5184494634276,정좌표
25,서울특별시교육청,강서양천교육지원청,1ecec08c-ed80-b044-e053-0a32095ab044,샘터유치원,사립(사인),유재웅 ,김두임 ,19880517,19880517,서울특별시 양천구 신월로 99,02-2691-1424,http://www.isaemter.co.kr,08시20분~19시00분,1,1,2,0,,30,36,43,0,,20211,126.832748193065,37.517204311713,정좌표
26,서울특별시교육청,강서양천교육지원청,1ecec08c-ed81-b044-e053-0a32095ab044,서울경인유치원,공립(단설),최지영,최지영,20050930,20050930,서울특별시 양천구 안양천로 1009,02-2646-4906,http://www.서울경인유치원.com,07시00분~20시00분,1,2,2,0,1,16,34,41,0,4,20211,126.886565547082,37.5330557227639,정좌표
27,서울특별시교육청,강서양천교육지원청,1ecec08c-ed82-b044-e053-0a32095ab044,서울공항초등학교병설유치원,공립(병설),천종만,천종만,19920120,19920120,서울특별시 강서구 마곡서1로 68,02-2661-4560,http://www.konghang.es.kr,07시30분~20시00분,1,1,2,0,1,16,20,46,0,3,20211,126.821646156402,37.5630905100033,정좌표
28,서울특별시교육청,동부교육지원청,1ecec08c-ed83-b044-e053-0a32095ab044,새일문유치원,사립(사인),민영재,심옥자,19841103,19841104,서울특별시 동대문구 장한로 165,02-2212-6229,http://cafe.naver.com/saeilmoon,09시00분~18시30분,,,1,1,,,,24,24,,20211,127.071666343665,37.5751438914361,정좌표
29,서울특별시교육청,동부교육지원청,1ecec08c-ed85-b044-e053-0a32095ab044,서울중곡초등학교병설유치원,공립(병설),이정순,이정순,19920206,19920905,서울특별시 중랑구 면목로23길 20,02-2209-1281,http://cg.sen.es.kr/167553/subMenu.do,09시00분~20시00분,1,1,2,0,,12,18,42,0,,20211,127.084040493932,37.5741752957478,정좌표
30,서울특별시교육청,북부교육지원청,1ecec08c-ed86-b044-e053-0a32095ab044,한울유치원,사립(사인),김우신,김우신,20000110,20000224,서울특별시 노원구 덕릉로122길 12-6,02-935-3345,http:// www.hanulkid.co.kr,08시00분~17시00분,1,1,1,0,,7,7,15,0,,20211,127.080811658638,37.6685061586774,정좌표
31,서울특별시교육청,북부교육지원청,1ecec08c-ed87-b044-e053-0a32095ab044,햇살유치원,사립(사인),김명희,최연희,19910213,19910213,서울특별시 도봉구 우이천로32길 38,02-904-6248,,09시00분~17시00분,1,2,2,0,,15,47,36,0,,20211,127.025239772767,37.6492245006133,정좌표
32,서울특별시교육청,북부교육지원청,1ecec08c-ed88-b044-e053-0a32095ab044,효천유치원,사립(사인),강영철,허지영,19800301,19800301,서울특별시 노원구 중계로18길 14,02-930-8891,http://hyochunkids.com/,09시00분~17시00분,1,1,2,0,,24,29,54,0,,20211,127.078210686067,37.651364743394,정좌표
33,서울특별시교육청,서부교육지원청,1ecec08c-ed89-b044-e053-0a32095ab044,궁전유치원,사립(사인),백금옥,백금옥,19970214,19970214,서울특별시 은평구 갈현로33길 24,02-383-1667,http://kj16667.happyihome.com,09시00분~17시00분,1,1,1,0,,9,8,19,0,,20182,126.914408274573,37.6226631613574,정좌표
34,서울특별시교육청,강동송파교육지원청,1ecec08c-ed94-b044-e053-0a32095ab044,꿀벌유치원,사립(사인),이영자,조윤희,19980304,20091013,서울특별시 송파구 양산로8길 8,02-3401-1752,,07시30분~19시30분,1,,,1,,7,,,12,,20211,127.143925582071,37.4907600543462,정좌표
35,서울특별시교육청,강동송파교육지원청,1ecec08c-ed95-b044-e053-0a32095ab044,송원유치원,사립(사인),심용섭,김정원,19810117,19810311,서울특별시 강동구 성안로 64,02-476-8938,,09시00분~18시00분,2,1,2,0,,40,24,46,0,,20182,127.131724260627,37.5291679195817,정좌표
36,서울특별시교육청,북부교육지원청,1ecec08c-ee11-b044-e053-0a32095ab044,행복한유치원,사립(사인),이계화,이계화,20040429,20040429,서울특별시 도봉구 시루봉로6길 86,02-900-8001,,07시30분~19시30분,1,1,2,0,,13,17,30,0,,20211,127.032209238049,37.6591691952414,정좌표
37,서울특별시교육청,서부교육지원청,1ecec08c-ee12-b044-e053-0a32095ab044,성아유치원,사립(사인),김영미,김영미,20060816,20060816,서울특별시 은평구 응암로14길 21,02-303-6004,http://sungakids.moapp.kr,09시00분~20시00분,1,2,1,0,,28,29,33,0,,20211,126.91968861286,37.5898940477956,정좌표
38,서울특별시교육청,서부교육지원청,1ecec08c-ee13-b044-e053-0a32095ab044,성균관유치원,사립(사인),이경숙,이정혜,20070301,20070301,서울특별시 은평구 연서로27길 23,02-356-5373,http://www.skkokok.com,07시00분~20시00분,2,2,3,0,,19,39,62,0,,20211,126.916949490929,37.6183054366401,정좌표
39,서울특별시교육청,동부교육지원청,1ecec08c-ee33-b044-e053-0a32095ab044,백주유치원,사립(사인),김재영,이명숙,19660127,19660127,서울특별시 동대문구 서울시립대로18길 19,02-2249-5170,http://cafe.daum.net/baekjukids,08시00분~19시00분,1,1,1,0,,6,24,12,0,,20202,127.052798337208,37.5806284770507,정좌표
40,서울특별시교육청,서부교육지원청,1ecec08c-ee3d-b044-e053-0a32095ab044,동산유치원,사립(법인),임남희,임남희,19830301,19831101,서울특별시 은평구 증산서길 53-9,02-372-3030,http://dongsankid.kidis.co.kr,07시00분~22시00분,1,2,1,0,,17,24,14,0,,20211,126.904411692352,37.5817757341013,정좌표
41,서울특별시교육청,중부교육지원청,1ecec08c-ee46-b044-e053-0a32095ab044,강변유치원,사립(법인),장병일,이수영,19790309,19790309,서울특별시 용산구 이촌로84길 9-7,02-792-2652,,09시00분~17시00분,1,1,1,0,,21,25,16,0,,20211,126.977415814121,37.5183352785817,정좌표
42,서울특별시교육청,성북강북교육지원청,1ecec08c-ee4e-b044-e053-0a32095ab044,개동유치원,사립(법인),재단법인예수교대한성결교회유지재단,안경선,19991228,19991228,서울특별시 성북구 보국문로 143,02-915-5721,https://cafe.naver.com/kaedongyuchiwon20,09시00분~17시00분,1,1,1,0,,13,11,22,0,,20211,127.004931600747,37.6157678213628,정좌표
43,서울특별시교육청,성북강북교육지원청,1ecec08c-ee4f-b044-e053-0a32095ab044,영광유치원,사립(사인),왕기은,정은영,19990119,19990119,서울특별시 성북구 북악산로 913,02-923-5900,http://cafe.daum.net/ykkindergarten,08시00분~18시30분,2,2,2,0,,38,43,41,0,,20211,127.023456140464,37.5955773988332,정좌표
44,서울특별시교육청,성북강북교육지원청,1ecec08c-ee50-b044-e053-0a32095ab044,은영유치원,사립(법인),재)대한불교보문원,김현주,19871230,19871230,서울특별시 성북구 보문사길 18,02-926-9278,http://cafe.daum.net/dmsdud9278,09시00분~18시00분,1,2,2,0,,18,49,45,0,,20211,127.016682135257,37.5846233038017,정좌표
45,서울특별시교육청,강서양천교육지원청,1ecec08c-eec5-b044-e053-0a32095ab044,솔샘유치원,사립(사인),김성진,차영자,19880823,19880823,서울특별시 양천구 목동서로 130,02-2646-2343,,09시30분~20시00분,2,2,1,0,,30,34,22,0,,20182,126.880160342497,37.5455783919398,정좌표
46,서울특별시교육청,강서양천교육지원청,1ecec08c-eec6-b044-e053-0a32095ab044,한나유치원,사립(사인),정애선 임진열,호승희,19950104,19950104,서울특별시 강서구 금낭화로 287-19,02-2666-1004,,09시30분~20시00분,1,2,1,0,,18,45,27,0,,20211,126.809600564172,37.5769170768732,정좌표
47,서울특별시교육청,강서양천교육지원청,1ecec08c-eec7-b044-e053-0a32095ab044,화곡유치원,사립(법인),학교법인한국그리스도의교회학원,허영,19990120,19990120,서울특별시 강서구 까치산로 60,02-2697-3104,,08시00분~19시00분,,1,1,0,,,5,22,0,,20211,126.846674780815,37.5437739209759,정좌표
48,서울특별시교육청,남부교육지원청,1ecec08c-eecb-b044-e053-0a32095ab044,정훈유치원,사립(사인),허태근,허지영,19990601,19990601,서울특별시 구로구 경인로 382,02-2683-6833,,07시00분~19시00분,1,2,2,0,,32,42,42,0,,20211,126.863082063914,37.4963726500996,정좌표
49,서울특별시교육청,남부교육지원청,1ecec08c-eecc-b044-e053-0a32095ab044,큰나무유치원,사립(사인),구영옥,차윤정,19980203,19980203,서울특별시 영등포구 도신로 31,02-832-3904,http://bigtreekid.co.kr,09시00분~18시00분,1,2,1,0,,13,36,29,0,,20211,126.895224399715,37.5063741682293,정좌표
50,서울특별시교육청,남부교육지원청,1ecec08c-eecd-b044-e053-0a32095ab044,평강유치원,사립(사인),김태숙,김태숙,19881201,19881201,서울특별시 영등포구 신길로 27,02-848-0502,,07시30분~19시30분,1,2,2,0,,24,48,52,0,,20211,126.908153622247,37.4949305387922,정좌표
51,서울특별시교육청,북부교육지원청,1ecec08c-eecf-b044-e053-0a32095ab044,선희유치원,사립(사인),정소영,정희라,19900221,19900221,서울특별시 도봉구 해등로 241,02-906-1614,,08시00분~18시30분,1,1,1,0,,14,18,14,0,,20211,127.029883759571,37.6575759445843,정좌표
52,서울특별시교육청,북부교육지원청,1ecec08c-eed0-b044-e053-0a32095ab044,슬기유치원,사립(사인),김신영,이명희,20000529,20000529,서울특별시 도봉구 도봉로180나길 33-29,02-954-7771,http://www.seulgi.co.kr,07시00분~22시00분,2,3,3,0,,49,82,79,0,,20211,127.048203282385,37.6840070262813,정좌표
53,서울특별시교육청,북부교육지원청,1ecec08c-eed1-b044-e053-0a32095ab044,영은유치원,사립(사인),문동식,이헤경,20030403,19880314,서울특별시 노원구 동일로213길 78,02-932-1001,,07시00분~20시00분,1,1,1,0,,18,20,28,0,,20202,127.057596412161,37.6481199556865,정좌표
54,서울특별시교육청,서부교육지원청,1ecec08c-eed5-b044-e053-0a32095ab044,서울마포초등학교병설유치원,공립(병설),이봉숙,이봉숙,20001125,20001125,서울특별시 마포구 도화2길 64,02-712-1170,http://mapo.sen.es.kr/140251/subMenu.do,07시30분~19시30분,2,1,1,0,,20,21,24,0,,20211,126.949150684816,37.53847705835,정좌표
55,서울특별시교육청,서부교육지원청,1ecec08c-eed6-b044-e053-0a32095ab044,서울상암초등학교병설유치원,공립(병설),주기용,주기용,19960312,19960710,서울특별시 마포구 월드컵북로 353,02-376-4110,http://www.sangam.es.kr,07시00분~20시00분,1,1,1,0,,14,16,18,0,,20211,126.892343778669,37.5763377248223,정좌표
56,서울특별시교육청,서부교육지원청,1ecec08c-eed7-b044-e053-0a32095ab044,서울신도초등학교병설유치원,공립(병설),진경자,진경자,19940624,19940910,서울특별시 은평구 진관1로 77-23,02-352-3693,http://www.sindo.es.kr,09시00분~19시00분,,1,1,0,1,,12,22,0,4,20211,126.929198588004,37.6329375831849,정좌표
57,서울특별시교육청,서부교육지원청,1ecec08c-eed8-b044-e053-0a32095ab044,서일유치원,사립(사인),김기덕,조경화,19931231,19931231,서울특별시 마포구 새터산16길 14,02-308-2114,http://www.seoilkids.com,09시00분~20시00분,2,2,2,0,,22,44,52,0,,20211,126.908195944565,37.5674589101959,정좌표
58,서울특별시교육청,성동광진교육지원청,1ecec08c-eee1-b044-e053-0a32095ab044,선경유치원,사립(법인),성현정,성현정,19680308,19680308,서울특별시 광진구 뚝섬로66길 14,02-447-0852,http://www.sk-kinder.net,09시00분~18시00분,2,2,2,0,,44,39,44,0,,20211,127.089951881419,37.5335077561337,정좌표
59,서울특별시교육청,성동광진교육지원청,1ecec08c-eee2-b044-e053-0a32095ab044,성산유치원,사립(법인),대한예수교장로회총회(고신)유지재단,조은영,19840310,19840310,서울특별시 광진구 뚝섬로59길 18,02-455-0581,,07시30분~19시30분,1,1,1,0,,11,22,22,0,,20211,127.084177135613,37.5329073613324,정좌표
60,서울특별시교육청,성동광진교육지원청,1ecec08c-eee3-b044-e053-0a32095ab044,자양유치원,사립(사인),이윤예,이연정,19830314,19830314,서울특별시 광진구 자양로5길 36,02-446-4345,http://www.jayangkids.com/,09시00분~20시00분,,,1,1,,,,19,14,,20202,127.083768721047,37.5311684695494,정좌표
61,서울특별시교육청,성동광진교육지원청,1ecec08c-eee4-b044-e053-0a32095ab044,프라임유치원,사립(사인),최을재,이정미,19970305,19970305,서울특별시 광진구 광나루로56길 5,02-453-0671,http://www.primekid.co.kr,08시00분~19시00분,2,2,3,0,,33,47,62,0,,20211,127.098358684282,37.5387825353727,정좌표
62,서울특별시교육청,강동송파교육지원청,1ecec08c-eee8-b044-e053-0a32095ab044,서울신천초등학교병설유치원,공립(병설),김미영,김미영,19860301,19860301,서울특별시 송파구 올림픽로 215,02-412-5488,http://www.서울신천병설유치원.com/,07시00분~19시00분,1,2,2,0,,16,32,40,0,,20211,127.095780506296,37.5136529238856,정좌표
63,서울특별시교육청,강동송파교육지원청,1ecec08c-eeec-b044-e053-0a32095ab044,장미유치원,사립(법인),박영호,김미정,19931222,19931222,서울특별시 송파구 올림픽로35길 118,02-424-0090,http://www.jangmikid.kr,09시00분~17시30분,1,1,1,0,,21,23,28,0,,20211,127.100826357068,37.5179278315198,정좌표
64,서울특별시교육청,서부교육지원청,1ecec08c-ef03-b044-e053-0a32095ab044,연유치원,사립(사인),정숙희,정숙희,20060301,20060301,서울특별시 서대문구 명지대길 39-4,02-307-4091,http://cafe.daum.net/yeunkids,08시00분~19시00분,1,2,2,0,,17,29,29,0,,20211,126.92408425126,37.5818913825337,정좌표
65,서울특별시교육청,강남서초교육지원청,1ecec08c-ef04-b044-e053-0a32095ab044,도곡렉슬유치원,사립(사인),전영순,정연희,20060221,20060306,서울특별시 강남구 선릉로 221,02-579-7736,,08시30분~18시00분,,,,8,,,,,185,,20211,127.053663930932,37.4936465976225,정좌표
66,서울특별시교육청,성북강북교육지원청,1ecec08c-ef05-b044-e053-0a32095ab044,두산효자유치원,사립(사인),석성환,이효자,20030308,20030308,서울특별시 성북구 화랑로48길 16,02-963-8334,http://dshyoja.kidswon.com,07시30분~19시30분,1,2,1,0,,22,34,26,0,,20211,127.067425887565,37.6130648951597,정좌표
67,서울특별시교육청,동작관악교육지원청,1ecec08c-ef06-b044-e053-0a32095ab044,동원유치원,사립(사인),차정희,하영남,19930224,19930224,서울특별시 관악구 행운1길 96,02-875-3456,,08시00분~20시00분,1,2,2,0,,15,35,20,0,,20211,126.956727766664,37.4828186401787,정좌표
68,서울특별시교육청,동작관악교육지원청,1ecec08c-ef08-b044-e053-0a32095ab044,서울관악초등학교병설유치원,공립(병설),김영숙,김영숙,20000115,20000411,서울특별시 관악구 청룡4길 49,02-883-0932,http://seoul-kwanak.sen.es.kr,07시10분~19시20분,1,1,1,0,1,11,18,22,0,3,20211,126.942617685437,37.4808071540038,정좌표
69,서울특별시교육청,북부교육지원청,1ecec08c-ef26-b044-e053-0a32095ab044,키즈위즈유치원,사립(사인),민중기,김선정,20110113,20110113,서울특별시 노원구 덕릉로86길 65,02-930-5525,,08시30분~16시00분,2,2,2,0,,35,34,53,0,,20211,127.078884725751,37.6611095176455,정좌표
70,서울특별시교육청,성북강북교육지원청,1ecec08c-ef38-b044-e053-0a32095ab044,새싹유치원,사립(법인),학교법인 은실학원,유청옥,19641007,19641007,서울특별시 성북구 정릉로 282,02-914-6529,http://www.saessakid.co.kr,08시00분~19시00분,2,2,2,0,,27,37,50,0,,20211,127.01454163932,37.6031270430676,정좌표
71,서울특별시교육청,강동송파교육지원청,1ecec08c-ef39-b044-e053-0a32095ab044,한영중고등학교병설한영유치원,사립(법인),조윤정,김행기,19880206,19880301,서울특별시 강동구 동남로 832,02-426-1697,,09시00분~17시00분,3,3,3,0,,72,89,77,0,,20211,127.159046066618,37.5492420457327,정좌표
72,서울특별시교육청,강서양천교육지원청,1ecec08c-ef9b-b044-e053-0a32095ab044,서울월촌초등학교병설유치원,공립(병설),이상래,이상래,19860312,19860417,서울특별시 양천구 목동중앙로 132,02-2643-3477,http://www.swc.kg.kr,07시00분~20시00분,1,2,2,0,,16,25,38,0,,20211,126.876804610444,37.5403178765042,정좌표
73,서울특별시교육청,강서양천교육지원청,1ecec08c-ef9c-b044-e053-0a32095ab044,선미유치원,사립(법인),염수정,소은영,19730129,19730313,서울특별시 강서구 까치산로2길 43,02-2606-3341,https://cafe.naver.com/sunmikinder3341,09시00분~18시00분,1,2,2,0,,20,39,46,0,,20211,126.843641765832,37.5393326687587,정좌표
74,서울특별시교육청,강서양천교육지원청,1ecec08c-ef9d-b044-e053-0a32095ab044,솔밭유치원,사립(사인),기성환,기윤경,19841107,19841107,서울특별시 양천구 신월로10길 2-1,02-2693-0242,,09시00분~18시00분,,,1,2,,,,19,24,,20182,126.840109069213,37.5168953132527,정좌표
75,서울특별시교육청,남부교육지원청,1ecec08c-efa0-b044-e053-0a32095ab044,미림유치원,사립(사인),박성근,최경선,19820610,19820610,서울특별시 구로구 개봉로18길 37,02-2612-1006,http://www.미림유치원.kr/,07시20분~19시20분,,,1,1,,,,24,31,,20211,126.857962787721,37.4908680478866,정좌표
76,서울특별시교육청,동부교육지원청,1ecec08c-efaa-b044-e053-0a32095ab044,예일유치원,사립(사인),문순,전성,19930227,19930227,서울특별시 동대문구 사가정로 190,02-2215-0084,,09시00분~18시00분,2,2,2,0,,31,52,54,0,,20211,127.064384443133,37.5773424033649,정좌표
77,서울특별시교육청,남부교육지원청,1ecec08c-efb3-b044-e053-0a32095ab044,은하유치원,사립(법인),염수정,문은경,19950301,19950301,서울특별시 영등포구 당산로28길 11,02-2068-0109,,08시30분~18시00분,1,1,1,0,,28,30,32,0,,20211,126.898029149354,37.524924784511,정좌표
78,서울특별시교육청,동작관악교육지원청,1ecec08c-efbf-b044-e053-0a32095ab044,서울은로초등학교병설유치원,공립(병설),박영호,박영호,19850114,19850301,서울특별시 동작구 서달로 115,02-826-5787,http://eunlo.sen.es.kr/index.do,09시00분~19시00분,1,1,2,0,1,16,22,41,0,4,20211,126.960741123701,37.5037406727907,정좌표
79,서울특별시교육청,동작관악교육지원청,1ecec08c-efc0-b044-e053-0a32095ab044,서울은천초등학교병설유치원,공립(병설),이경희,이경희,19940805,19940901,서울특별시 관악구 은천로 69,02-883-6421,http://www.euncheon.kg.kr,09시00분~20시00분,1,2,2,0,1,13,30,42,0,4,20211,126.942471064088,37.4868398820292,정좌표
80,서울특별시교육청,동작관악교육지원청,1ecec08c-efc2-b044-e053-0a32095ab044,예림유치원,사립(사인),송숙현,송숙현,19890607,19890607,서울특별시 동작구 현충로 151,02-817-1455,http://www.enterkids.com/yerim/,07시00분~20시00분,1,1,1,0,,6,9,6,0,,20211,126.96988210864,37.506234818503,정좌표
81,서울특별시교육청,북부교육지원청,1ecec08c-efcc-b044-e053-0a32095ab044,보나유치원,사립(사인),최용기,최아람,19930308,19930501,서울특별시 도봉구 해등로 307,02-956-3197,,07시00분~20시00분,1,1,1,0,,18,20,29,0,,20211,127.022068191111,37.656904590097,정좌표
82,서울특별시교육청,북부교육지원청,1ecec08c-efcd-b044-e053-0a32095ab044,공릉 사라유치원,사립(사인),송동춘,강연미,19830303,19830303,서울특별시 노원구 동일로198가길 13,02-974-7766,http://cafe.naver.com/sarayouchwon,09시00분~19시00분,1,2,2,0,,22,47,49,0,,20211,127.072003822687,37.6301643539048,정좌표
83,서울특별시교육청,북부교육지원청,1ecec08c-efce-b044-e053-0a32095ab044,상원유치원,사립(사인),이우원,김종순,19890201,19910119,서울특별시 노원구 노원로19길 33,02-949-0217,,09시00분~19시00분,3,2,3,0,,46,47,67,0,,20211,127.068782858054,37.6445480931423,정좌표
84,서울특별시교육청,북부교육지원청,1ecec08c-efcf-b044-e053-0a32095ab044,서울수락초등학교병설유치원,공립(병설),김정란,김정란,20000115,20000301,서울특별시 노원구 동일로 1745,02-951-4146,http://www.surak.es.kr,07시00분~20시00분,1,1,1,0,1,5,15,8,0,3,20211,127.054491636878,37.6843091902557,정좌표
85,서울특별시교육청,북부교육지원청,1ecec08c-efd7-b044-e053-0a32095ab044,육사유치원,사립(사인),육군사관학교장,조희수,19900301,19950501,서울특별시 노원구 화랑로 574,02-972-0451,,07시30분~19시00분,1,1,1,0,,9,14,25,0,,20211,127.089720084579,37.6220881747136,인근좌표
86,서울특별시교육청,북부교육지원청,1ecec08c-efd8-b044-e053-0a32095ab044,이레유치원,사립(사인),유광선,황민경,19951207,19951207,서울특별시 노원구 월계로55길 16,02-979-8293~4,http://jireh.kidis.co.kr/,09시00분~20시00분,,,,5,,,,,73,,20192,127.061225434457,37.6326766372478,정좌표
87,서울특별시교육청,북부교육지원청,1ecec08c-efd9-b044-e053-0a32095ab044,정의유치원,사립(법인),윤남훈,김영희,19800119,19800119,서울특별시 도봉구 노해로49길 69,02-992-5108,http://www.jeongeui.kg.kr/main/main.html,09시00분~19시00분,2,2,3,0,,41,52,64,0,,20211,127.031305854781,37.6523932476748,정좌표
88,서울특별시교육청,북부교육지원청,1ecec08c-efda-b044-e053-0a32095ab044,청아유치원,사립(사인),이민숙,박행자,19931216,19931216,서울특별시 도봉구 노해로69가길 11,02-907-3811,https://cheonga.kidsnote.ac,07시20분~19시20분,1,2,1,0,,20,46,46,0,,20211,127.04908821677,37.6588902543685,정좌표
89,서울특별시교육청,서부교육지원청,1ecec08c-efe0-b044-e053-0a32095ab044,배영유치원,사립(사인),문세라,문세라,19610410,19610410,서울특별시 마포구 잔다리로6길 11,02-334-3405,http://www.bykkid.co.kr,09시00분~18시00분,1,1,1,0,,23,30,32,0,,20211,126.919912728663,37.552246017704,정좌표
90,서울특별시교육청,성북강북교육지원청,1ecec08c-efed-b044-e053-0a32095ab044,영암유치원,사립(법인),서울노회유지재단,이선미,19870228,19870228,서울특별시 성북구 안암로7길 66,02-922-4773,https://cafe.naver.com/youngahmkindergarten,09시00분~20시00분,1,1,1,0,,8,18,23,0,,20211,127.023478695796,37.5821564626146,정좌표
91,서울특별시교육청,성북강북교육지원청,1ecec08c-efee-b044-e053-0a32095ab044,성신유치원,사립(법인),권정윤,권정윤,19831116,19840428,서울특별시 성북구 보문로34다길 2,02-920-7384,http://www.sskid.or.kr,08시10분~18시00분,1,2,1,0,,11,39,29,0,,20211,127.021181417012,37.5932494848007,정좌표
92,서울특별시교육청,강남서초교육지원청,1ecec08c-efef-b044-e053-0a32095ab044,영동제일유치원,사립(사인),우종숙,고윤희,19780329,19780329,서울특별시 강남구 삼성로120길 28,02-544-3111,,09시00분~17시00분,2,2,2,0,,42,47,55,0,,20211,127.053424726511,37.5175452185838,정좌표
93,서울특별시교육청,강남서초교육지원청,1ecec08c-f00c-b044-e053-0a32095ab044,석문유치원,사립(법인),염수정,박미리,19880301,19880920,서울특별시 서초구 서초대로64길 73,02-585-5881,https://cafe.naver.com/smu5881,09시00분~18시00분,1,1,2,0,,22,26,53,0,,20211,127.02194849509,37.4923653504606,정좌표
94,서울특별시교육청,강남서초교육지원청,1ecec08c-f00d-b044-e053-0a32095ab044,여나유치원,사립(사인),이경희,이경희,19890123,19890308,서울특별시 서초구 서초중앙로 200,02-536-1116,,09시00분~16시10분,2,2,2,0,,38,46,38,0,,20211,127.014601718679,37.4982945472694,정좌표
95,서울특별시교육청,강남서초교육지원청,1ecec08c-f00e-b044-e053-0a32095ab044,영유유치원,사립(사인),이금자,이금자,19860301,19860303,서울특별시 서초구 효령로34길 72,02-586-7516,,09시00분~18시00분,1,2,2,0,,15,20,27,0,,20182,127.000751650813,37.4786400991644,정좌표
96,서울특별시교육청,중부교육지원청,1ecec08c-f023-b044-e053-0a32095ab044,서울충무초등학교병설유치원,공립(병설),김동택,김동택,19950110,19950310,서울특별시 중구 퇴계로50길 13,02-2265-4840,http://www.seoulchungmu.es.kr,07시30분~19시30분,1,1,1,0,,2,9,15,0,,20211,127.001553181385,37.5619005330383,정좌표
97,서울특별시교육청,중부교육지원청,1ecec08c-f024-b044-e053-0a32095ab044,서울한남초등학교병설유치원,공립(병설),조혜천,조혜천,20010503,20010503,서울특별시 용산구 한남대로 112,02-749-2393,http://hannam.sen.es.kr,09시00분~19시30분,1,1,1,0,,13,16,20,0,,20211,127.004357205844,37.5394270766709,정좌표
98,서울특별시교육청,중부교육지원청,1ecec08c-f025-b044-e053-0a32095ab044,영락유치원,사립(법인),심재수,임미자,19660410,19660410,서울특별시 중구 수표로 33,02-2277-5878,http://ynchild.net,07시00분~22시00분,1,1,1,0,,16,18,23,0,,20211,126.98893611463,37.5642847365921,정좌표
99,서울특별시교육청,중부교육지원청,1ecec08c-f026-b044-e053-0a32095ab044,옥인유치원,사립(사인),이은호,이원경,19930430,19930430,서울특별시 종로구 자하문로 69,02-735-3984,http://okin.kidis.co.kr,08시00분~20시00분,1,1,1,0,,7,20,27,0,,20211,126.970342570975,37.5822206800506,정좌표
100,서울특별시교육청,중부교육지원청,1ecec08c-f04b-b044-e053-0a32095ab044,충신유치원,사립(사인),이전호,송은영,19990309,19990319,서울특별시 용산구 이촌로71길 14,02-793-4266,http://kids.choongshin.or.kr/,09시00분~17시00분,2,2,3,1,,50,58,79,30,,20211,126.973141356616,37.5210203497565,정좌표
101,서울특별시교육청,강동송파교육지원청,1ecec08c-f04f-b044-e053-0a32095ab044,새움유치원,사립(사인),정애영,문경미,20130301,20131111,서울특별시 송파구 중대로27길 2,02-430-4399,,09시00분~19시00분,2,1,2,0,,36,15,38,0,,20182,127.128574838066,37.5035301602555,정좌표
102,서울특별시교육청,북부교육지원청,1ecec08c-f050-b044-e053-0a32095ab044,예랑유치원,사립(사인),김영란,한숙화,19910828,20130909,서울특별시 도봉구 해등로4길 9,02-991-0652,http://www.yerangkid.com,09시00분~19시00분,1,1,1,0,,8,17,22,0,,20211,127.044060810296,37.6485686608774,정좌표
103,서울특별시교육청,성북강북교육지원청,1ecec08c-f051-b044-e053-0a32095ab044,서울장곡초등학교병설유치원,공립(병설),진희정,진희정,20140301,20140306,서울특별시 성북구 장월로23길 16,02-919-9128,http://www.janggokcho.es.kr,09시00분~19시30분,1,2,1,0,,16,40,24,0,,20211,127.047727200163,37.6165558500443,정좌표
104,서울특별시교육청,남부교육지원청,1ecec08c-f052-b044-e053-0a32095ab044,서울세곡초등학교병설유치원,공립(병설),심향순,심향순,20131226,20140618,서울특별시 구로구 고척로33길 34,02-2060-2686,http://www.segok.es.kr,07시30분~19시30분,1,1,2,0,,6,13,20,0,,20211,126.849694446815,37.5048140566677,정좌표
105,서울특별시교육청,동부교육지원청,1ecec08c-f053-b044-e053-0a32095ab044,서울면동초등학교병설유치원,공립(병설),한미라,한미라,20140301,20140307,서울특별시 중랑구 면목로57길 32,02-496-7922,http://www.myeondong.es.kr,07시30분~19시30분,1,1,1,0,,15,20,22,0,,20211,127.086591863759,37.5853507929908,정좌표
106,서울특별시교육청,동부교육지원청,1ecec08c-f054-b044-e053-0a32095ab044,삼성유치원,사립(사인),심성훈,권수경,20131125,20131125,서울특별시 동대문구 사가정로 65,02-2213-0080,http://www.sskinder.com,09시30분~18시30분,3,3,2,0,,55,69,58,0,,20211,127.050065914985,37.5752381304531,정좌표
107,서울특별시교육청,남부교육지원청,1ecec08c-f081-b044-e053-0a32095ab044,참사랑유치원,사립(사인),이영숙,이현주,20120314,20120314,서울특별시 금천구 벚꽃로 73,02-896-5881,http://cafe.daum.net/H-truelove/,09시00분~18시00분,2,3,2,0,,28,62,62,0,,20211,126.890421914854,37.4629053111239,정좌표
108,서울특별시교육청,북부교육지원청,1ecec08c-f082-b044-e053-0a32095ab044,온누리유치원,사립(사인),최종세,최종세,20120401,20120401,서울특별시 노원구 동일로227길 47,02-933-2083,http://cafe.daum.net/onnuri2018,07시50분~19시20분,2,2,2,0,,29,55,44,0,,20211,127.054315002589,37.666913971168,정좌표
109,서울특별시교육청,성동광진교육지원청,1ecec08c-f0da-b044-e053-0a32095ab044,서울자양초등학교병설유치원,공립(병설),황은숙,황은숙,19870302,19870302,서울특별시 광진구 아차산로44길 26,02-455-8051,http://www.chayang.es.kr,07시00분~20시00분,1,1,2,0,,16,22,31,0,,20211,127.07959299293,37.5371004590354,정좌표
110,서울특별시교육청,성북강북교육지원청,1ecec08c-f0f4-b044-e053-0a32095ab044,금성유치원,사립(사인),양혜숙,곽용택,19940723,19940723,서울특별시 강북구 한천로123길 9,02-905-6638,,09시00분~19시30분,,,,1,,,,,31,,20192,127.031474649861,37.6362386269104,정좌표
111,서울특별시교육청,성북강북교육지원청,1ecec08c-f0f5-b044-e053-0a32095ab044,동명유치원,사립(사인),이정순,윤지영,19750115,19750115,서울특별시 강북구 오패산로 130,02-989-5723,http://cyworld.com/dongmyoungkid,09시00분~17시00분,1,1,1,0,,9,16,20,0,,20192,127.034361285782,37.6136432785729,정좌표
112,서울특별시교육청,성북강북교육지원청,1ecec08c-f0f6-b044-e053-0a32095ab044,신극동유치원,사립(사인),소현애,송미라,19911223,19911223,서울특별시 강북구 인수봉로 260,02-904-3733,http://cafe.naver.com/sinkukdong,08시00분~22시00분,1,1,1,0,,7,21,19,0,,20202,127.011096879335,37.6419571292943,정좌표
113,서울특별시교육청,강동송파교육지원청,1ecec08c-f123-b044-e053-0a32095ab044,준현유치원,사립(법인),유익형,권민수,19991204,19991204,서울특별시 강동구 성내로3가길 61,02-477-0287,,09시00분~19시00분,2,2,2,0,,25,56,56,0,,20211,127.126626761464,37.5304904290919,정좌표
114,서울특별시교육청,동작관악교육지원청,1ecec08c-f124-b044-e053-0a32095ab044,서울신성초등학교병설유치원,공립(병설),노덕균,노덕균,20030106,20030301,서울특별시 관악구 신림로 114,070-8622-8144,http://www.sss.es.kr,07시30분~20시00분,1,2,2,0,1,6,20,33,0,1,20211,126.937874374386,37.4717462150735,정좌표
115,서울특별시교육청,북부교육지원청,1ecec08c-f12b-b044-e053-0a32095ab044,꽃동산유치원,사립(법인),김종준,서인숙,20060214,20060214,서울특별시 노원구 공릉로 257,02-948-9483,http://www.flowergardenkids.com,09시00분~18시00분,1,1,1,0,,5,6,10,0,,20211,127.075009183784,37.6304207423783,정좌표
116,서울특별시교육청,강동송파교육지원청,1ecec08c-f12c-b044-e053-0a32095ab044,고덕유치원,사립(법인),백은희,김진숙,20070507,20070507,서울특별시 강동구 구천면로 645,02-440-5302,,09시00분~18시00분,1,1,2,0,,19,24,56,0,,20211,127.169212259685,37.5506736521689,정좌표
117,서울특별시교육청,서부교육지원청,1ecec08c-f13b-b044-e053-0a32095ab044,서울진관유치원,공립(단설),이혜정,이혜정,20120105,20120626,서울특별시 은평구 진관2로 111-16,02-352-9042,http://www.서울진관유치원.kr/,08시00분~20시00분,2,2,2,0,1,30,44,47,0,3,20211,126.930960858391,37.6347127118653,정좌표
118,서울특별시교육청,서부교육지원청,1ecec08c-f13c-b044-e053-0a32095ab044,서울은빛유치원,공립(단설),장애숙,장애숙,20120401,20120401,서울특별시 은평구 진관3로 73-11,02-353-2230,http://www.seouleunbit.kg.kr/,09시00분~19시30분,2,2,2,0,1,29,41,45,0,4,20211,126.920260466883,37.6428166055052,정좌표
119,서울특별시교육청,강서양천교육지원청,1ecec08c-f199-b044-e053-0a32095ab044,서울공진초등학교병설유치원,공립(병설),고관희,고관희,20040301,20040301,서울특별시 강서구 마곡서로 33,02-2223-2391,http://kongjin.sen.es.kr,07시00분~20시00분,1,1,1,0,,16,22,24,0,,20211,126.822610220691,37.557829960229,정좌표
120,서울특별시교육청,서부교육지원청,1ecec08c-f19a-b044-e053-0a32095ab044,선일유치원,사립(법인),박준옥,박준옥,19670410,19670410,서울특별시 은평구 갈현로29길 27,02-355-2049,http://www.sunilkids.co.kr,09시00분~18시00분,1,2,2,0,,16,45,50,0,,20211,126.912562923253,37.6189314711531,정좌표
121,서울특별시교육청,동작관악교육지원청,1ecec08c-f1a0-b044-e053-0a32095ab044,서울상도유치원,공립(단설),정혜손,정혜손,20140314,20140626,서울특별시 동작구 만양로3길 48,02-827-0037,http://www.서울상도유치원.kr,07시00분~20시00분,2,2,2,0,1,31,40,45,0,2,20211,126.943337223608,37.5082534228415,정좌표
122,서울특별시교육청,동작관악교육지원청,1ecec08c-f1ad-b044-e053-0a32095ab044,총신대부속유치원,사립(법인),학교법인 대한예수교장로회 총신대학교,신현정,19850316,19850316,서울특별시 동작구 사당로 143,02-3479-0550,http://www.csuk.kr/,08시00분~18시00분,2,2,2,0,,40,50,55,0,,20211,126.966622157433,37.4887428341367,정좌표
123,서울특별시교육청,동작관악교육지원청,1ecec08c-f1ae-b044-e053-0a32095ab044,큰솔유치원,사립(사인),안성실,안성실,20010706,20010706,서울특별시 관악구 관악로30길 12,02-889-8381,,09시00분~19시30분,3,2,2,0,,70,46,48,0,,20182,126.959532324808,37.4849496956845,정좌표
124,서울특별시교육청,동작관악교육지원청,1ecec08c-f1af-b044-e053-0a32095ab044,현대유치원,사립(사인),이재수,한주희,19930114,19930114,서울특별시 관악구 관악로40길 55,02-884-3809,http://hdkid.co.kr,09시00분~19시00분,2,2,2,0,,42,53,52,0,,20211,126.959349627344,37.4922510305999,정좌표
125,서울특별시교육청,남부교육지원청,1ecec08c-f1b3-b044-e053-0a32095ab044,서울개봉초등학교병설유치원,공립(병설),손창호,손창호,20000215,20000215,서울특별시 구로구 개봉로16길 30-11,02-2616-8755,http://gaebong.sen.es.kr,09시00분~20시00분,1,2,1,0,1,16,26,20,0,4,20211,126.858499765662,37.4900822807798,정좌표
126,서울특별시교육청,남부교육지원청,1ecec08c-f1b4-b044-e053-0a32095ab044,서울영서초등학교병설유치원,공립(병설),안이섭,안이섭,19920306,19920306,서울특별시 구로구 도림로20길 57,02-861-6971,http://www.youngseo.es.kr,07시00분~19시00분,1,1,1,0,1,9,14,18,0,3,20211,126.894916540294,37.4877404331709,정좌표
127,서울특별시교육청,남부교육지원청,1ecec08c-f1b5-b044-e053-0a32095ab044,서울윤중초등학교병설유치원,공립(병설),오문환,오문환,19871230,19880310,서울특별시 영등포구 여의나루로2길 14,02-783-0407,http://www.yunjung.es.kr,07시30분~19시30분,1,1,1,0,,15,20,24,0,,20211,126.922591172306,37.5196426517762,정좌표
128,서울특별시교육청,성동광진교육지원청,1ecec08c-f1c6-b044-e053-0a32095ab044,광남유치원,사립(사인),목원균,조미선,19910209,19910209,서울특별시 광진구 아차산로70길 40,02-455-6774,http://kwangnam.kidswon.com,09시00분~18시30분,2,2,2,0,,31,50,58,0,,20211,127.10069792729,37.5416264010933,정좌표
129,서울특별시교육청,강서양천교육지원청,1ecec08c-f1fa-b044-e053-0a32095ab044,보라유치원,사립(사인),위성순,위성순,19950727,19950727,서울특별시 강서구 공항대로39길 100,02-2658-1154,http://www.borakid.com,09시00분~20시00분,2,2,2,0,,13,41,31,0,,20211,126.84757291403,37.5631352346412,정좌표
130,서울특별시교육청,강서양천교육지원청,1ecec08c-f1fb-b044-e053-0a32095ab044,서강유치원,사립(사인),김재영,최필승,19820405,19830404,서울특별시 강서구 금낭화로 35,02-2664-7428,http://cafe.naver.com/seokangkids,09시00분~18시30분,1,2,2,0,,22,42,38,0,,20191,126.811539284599,37.5686102155937,정좌표
131,서울특별시교육청,동부교육지원청,1ecec08c-f1fc-b044-e053-0a32095ab044,서울전동초등학교병설유치원,공립(병설),고순희,고순희,20000125,20000412,서울특별시 동대문구 전농로16길 61,02-2214-1528,http://www.jeon-dong.kg.kr,09시00분~20시00분,1,1,1,0,1,16,20,22,0,4,20211,127.061211993525,37.5786714988878,정좌표
132,서울특별시교육청,동부교육지원청,1ecec08c-f1fd-b044-e053-0a32095ab044,자람유치원,사립(사인),정웅태,최영애,20001117,20001117,서울특별시 동대문구 고산자로 534,02-3295-3469,,09시00분~20시00분,1,1,1,0,,11,14,9,0,,20192,127.038038802485,37.5875289495912,정좌표
133,서울특별시교육청,동부교육지원청,1ecec08c-f1fe-b044-e053-0a32095ab044,신일유치원,사립(사인),한신화,한신재,19830131,19830131,서울특별시 중랑구 면목로44길 55,02-493-7962,http://cafe.naver.com/sinil7962,09시00분~17시00분,1,1,1,0,,7,22,20,0,,20211,127.091655481442,37.5810656537891,정좌표
134,서울특별시교육청,동부교육지원청,1ecec08c-f1ff-b044-e053-0a32095ab044,아랑유치원,사립(사인),정숙예,김희정,19950105,19950105,서울특별시 중랑구 중랑역로 47,02-433-4976,,09시00분~20시00분,1,1,1,0,,14,29,18,0,,20192,127.076963145324,37.5978465628052,인근좌표
135,서울특별시교육청,북부교육지원청,1ecec08c-f200-b044-e053-0a32095ab044,학여울유치원,사립(사인),김숙자,김은희,19980313,19980313,서울특별시 노원구 동일로207길 186,02-975-6611,http://cafe.daum.net/hnukids,08시30분~19시30분,2,2,2,0,,44,43,55,0,,20211,127.063134562336,37.6345889729379,정좌표
136,서울특별시교육청,북부교육지원청,1ecec08c-f201-b044-e053-0a32095ab044,효자유치원,사립(사인),석성환,석성환,19880719,19880905,서울특별시 노원구 마들로 111,02-977-8333,http://hyojak.kidswon.com,07시30분~19시00분,2,2,2,0,,35,47,49,0,,20211,127.063415071844,37.6252667299526,정좌표
137,서울특별시교육청,강동송파교육지원청,1ecec08c-f209-b044-e053-0a32095ab044,우일유치원,사립(사인),유영권 이유경,박미영,19891228,19891228,서울특별시 송파구 토성로 38-6,02-475-2011,http://www.wooilkids.net,07시40분~19시00분,4,4,3,0,,93,97,89,0,,20211,127.113403929264,37.5286777996045,정좌표
138,서울특별시교육청,강동송파교육지원청,1ecec08c-f20a-b044-e053-0a32095ab044,석촌유치원,사립(사인),정원우,엄세나,19841105,19850401,서울특별시 송파구 백제고분로40길 20,02-414-6692,https://uacyber.modoo.at/,08시40분~18시00분,3,4,3,0,,79,95,98,0,,20211,127.10668929398,37.5028767691999,정좌표
139,서울특별시교육청,서부교육지원청,1ecec08c-f27b-b044-e053-0a32095ab044,서울상지초등학교병설유치원,공립(병설),신서균,신서균,20070309,20070605,서울특별시 마포구 월드컵로42길 30,02-303-8434,http://www.seoulsangji.es.kr/custom/custom.do?dcpNo=43815,07시30분~19시30분,1,1,1,0,1,6,16,20,0,5,20211,126.882074343054,37.5797523248392,정좌표
140,서울특별시교육청,서부교육지원청,1ecec08c-f27c-b044-e053-0a32095ab044,대진유치원,사립(법인),최은순,최은순,20070425,20070425,서울특별시 마포구 성미산로11길 36,02-334-3533,http://daejin.kidis.co.kr,07시00분~20시00분,6,,,0,,127,,,0,,20211,126.916420349456,37.5621999457331,정좌표
141,서울특별시교육청,강동송파교육지원청,1ecec08c-f289-b044-e053-0a32095ab044,예슬유치원,사립(사인),김미례,김미례,20000901,20010404,서울특별시 강동구 상암로 11,02-3013-7878,http://www.yaeseul.com,08시00분~18시00분,3,3,3,0,,50,73,71,0,,20211,127.126339835423,37.5532588376334,정좌표
142,서울특별시교육청,강동송파교육지원청,1ecec08c-f28a-b044-e053-0a32095ab044,샛별유치원,사립(사인),최유정,배영규,19970819,19970901,서울특별시 송파구 중대로9길 53-27,02-408-1073,,09시00분~19시00분,1,1,1,0,,18,20,23,0,,20182,127.118758086739,37.4986157609293,정좌표
143,서울특별시교육청,강동송파교육지원청,1ecec08c-f28b-b044-e053-0a32095ab044,동삼유치원,사립(사인),김해화,정유경,19871219,19880302,서울특별시 송파구 마천로41길 14,02-400-1262,,09시00분~18시30분,,,,2,,,,,14,,20202,127.149082970437,37.4969971453574,정좌표
144,서울특별시교육청,동부교육지원청,1ecec08c-f29a-b044-e053-0a32095ab044,로뎅유치원,사립(사인),김미숙,이민희,19911101,19911101,서울특별시 중랑구 봉화산로 90,02-491-2114,https://rodin.happyihome.com/,07시00분~22시00분,,,1,1,,,,10,22,,20211,127.084546268293,37.6019948105359,정좌표
145,서울특별시교육청,강서양천교육지원청,1ecec08c-f320-b044-e053-0a32095ab044,원일유치원,사립(법인),이원표,이원표,19880318,19880318,서울특별시 양천구 목동동로 350,02-2646-4265,http://wonil.yoochiwon.kr,07시00분~20시00분,2,2,2,0,,30,44,48,0,,20211,126.881374559503,37.5339276482675,정좌표
146,서울특별시교육청,남부교육지원청,1ecec08c-f321-b044-e053-0a32095ab044,나비유치원,사립(사인),조영숙,이시은,19760526,19820526,서울특별시 구로구 고척로 30,02-2612-6237,,09시20분~17시30분,1,1,2,0,,6,14,44,0,,20211,126.839757477667,37.4973160273679,정좌표
147,서울특별시교육청,남부교육지원청,1ecec08c-f329-b044-e053-0a32095ab044,조형유치원,사립(사인),최추자,최추자,19820618,19820618,서울특별시 금천구 독산로1길 3,02-803-5199,,09시30분~17시30분,1,1,1,0,,0,18,19,0,,20192,126.903509450115,37.448904023637,정좌표
148,서울특별시교육청,남부교육지원청,1ecec08c-f32a-b044-e053-0a32095ab044,준희유치원,사립(사인),김성연,김성연,19870122,19870122,서울특별시 구로구 경인로19길 8,02-2614-4845,http://www.junheekids.com,09시00분~20시00분,,,,1,,,,,20,,20192,126.84283002336,37.4960600009284,정좌표
149,서울특별시교육청,성동광진교육지원청,1ecec08c-f331-b044-e053-0a32095ab044,어린이회관유치원,사립(법인),조수연,장은희,19820305,19820305,서울특별시 광진구 광나루로 441,02-2204-6001,http://www.어린이회관유치원.com,09시00분~19시00분,4,4,4,0,,62,91,71,0,,20211,127.079510477966,37.5461260537291,정좌표
150,서울특별시교육청,성동광진교육지원청,1ecec08c-f332-b044-e053-0a32095ab044,영화유치원,사립(사인),성일원,김영희,19850726,19850726,서울특별시 광진구 영화사로 105,02-453-5149,,07시30분~19시30분,,2,1,0,,,31,31,0,,20211,127.097717042319,37.5540504563595,정좌표
151,서울특별시교육청,강남서초교육지원청,1ecec08c-f336-b044-e053-0a32095ab044,육영유치원,사립(사인),홍현옥,홍현옥,19870228,19930105,서울특별시 서초구 방배로6길 18,02-583-8893,,09시00분~20시00분,,,1,1,,,,28,28,,20182,127.000491325671,37.4791990144279,정좌표
152,서울특별시교육청,강동송파교육지원청,1ecec08c-f337-b044-e053-0a32095ab044,서울고명초등학교병설유치원,공립(병설),장은녕,장은녕,19941010,19950309,서울특별시 강동구 고덕로46길 53,02-3426-4133,http://www.gomyung.es.kr/index/index.do,09시00분~20시00분,1,1,1,0,,15,21,24,0,,20211,127.147438035426,37.5529756180302,정좌표
153,서울특별시교육청,강동송파교육지원청,1ecec08c-f338-b044-e053-0a32095ab044,서울명일유치원,공립(단설),백해옥,백해옥,19990707,19990707,서울특별시 강동구 암사19길 53,02-428-9077,http://www.서울명일유치원.com/,07시00분~19시30분,1,2,3,0,1,16,41,71,0,4,20211,127.141945008888,37.5534210322688,정좌표
154,서울특별시교육청,강서양천교육지원청,1ecec08c-f33b-b044-e053-0a32095ab044,신세기유치원,사립(사인),이연정,이연정,20011102,20011102,서울특별시 강서구 허준로 47,02-2659-1257,,09시00분~19시30분,2,2,2,0,,32,39,54,0,,20211,126.847383998166,37.571161806001,정좌표
155,서울특별시교육청,강동송파교육지원청,1ecec08c-f33c-b044-e053-0a32095ab044,성보나유치원,사립(법인),염수정,곽정옥,19870311,19870311,서울특별시 강동구 고덕로83길 68,02-427-1123,http://cafe.naver.com/stbona,09시00분~18시00분,1,1,1,0,,22,23,26,0,,20211,127.169014238172,37.5597722690964,정좌표
156,서울특별시교육청,북부교육지원청,1ecec08c-f34f-b044-e053-0a32095ab044,보고유치원,사립(사인),서유리,서유리,20010410,20010410,서울특별시 노원구 석계로13길 23-14,02-912-0570,,09시00분~19시30분,2,1,1,0,,15,17,23,0,,20211,127.061394363179,37.619602238723,정좌표
157,서울특별시교육청,성북강북교육지원청,1ecec08c-f350-b044-e053-0a32095ab044,빛나라유치원,사립(사인),이은숙,이은숙,20060103,20060103,서울특별시 성북구 종암로9길 78,02-928-2004,,09시00분~20시00분,1,1,1,0,,11,12,17,0,,20182,127.032680413226,37.5975228785423,인근좌표
158,서울특별시교육청,강동송파교육지원청,1ecec08c-f366-b044-e053-0a32095ab044,생명나무유치원,사립(사인),이구영,송혜연,20090421,20090421,서울특별시 송파구 송파대로8길 17,02-408-2443,https://lifetreekids.modoo.at/,09시00분~18시00분,2,3,2,0,,40,51,34,0,,20211,127.127940748795,37.4776883371619,정좌표
159,서울특별시교육청,성북강북교육지원청,1ecec08c-f372-b044-e053-0a32095ab044,선한유치원,사립(법인),염수정,김명숙,19870131,19870302,서울특별시 성북구 길음로9길 73,02-919-2226,http://cafe.daum.net/seonhan1987,07시00분~20시00분,1,1,1,0,,19,28,26,0,,20211,127.020503846133,37.6038487863439,정좌표
160,서울특별시교육청,강서양천교육지원청,1ecec08c-f3d6-b044-e053-0a32095ab044,서울영도초등학교병설유치원,공립(병설),이희숙,이희숙,19870127,19870127,서울특별시 양천구 목동중앙로 70,02-2643-5978,http://www.영도병설유치원.kr,07시00분~20시00분,1,2,2,0,,12,29,46,0,,20211,126.871942084964,37.5359487945751,정좌표
161,서울특별시교육청,강서양천교육지원청,1ecec08c-f3d7-b044-e053-0a32095ab044,서울정곡초등학교병설유치원,공립(병설),한숙경,한숙경,19940901,19940901,서울특별시 강서구 방화대로50길 22,02-2666-3130,http://www.jk.es.kr,07시00분~19시00분,1,1,1,0,,16,17,22,0,,20211,126.819234060931,37.5770451340993,정좌표
162,서울특별시교육청,강서양천교육지원청,1ecec08c-f3d8-b044-e053-0a32095ab044,신영유치원,사립(사인),이정란,김화미,19830801,19830801,서울특별시 강서구 곰달래로25길 4,02-2692-2729,,07시00분~20시00분,2,2,2,0,,28,42,43,0,,20211,126.849221897609,37.5309776089151,정좌표
163,서울특별시교육청,남부교육지원청,1ecec08c-f3e4-b044-e053-0a32095ab044,새두산유치원,사립(사인),정인숙,정인숙,19981219,19990310,서울특별시 구로구 도림로 59,02-854-4133,http://www.sdskinder.kr,07시30분~19시30분,1,1,1,0,,21,13,25,0,,20211,126.889365740596,37.489787333385,정좌표
164,서울특별시교육청,동부교육지원청,1ecec08c-f3e9-b044-e053-0a32095ab044,영은유치원,사립(사인),김영자,김영자,19960616,19960616,서울특별시 중랑구 신내로19길 42,02-3421-7557,,07시50분~19시30분,2,3,3,0,,36,60,58,0,,20211,127.090214779846,37.6158322330749,정좌표
165,서울특별시교육청,동작관악교육지원청,1ecec08c-f3eb-b044-e053-0a32095ab044,동그라미유치원,사립(사인),진순옥,김정옥,19941214,19941214,서울특별시 동작구 사당로28길 34,02-587-5599,http://www.donggrami.com,08시00분~19시00분,3,4,3,0,,74,113,86,0,,20211,126.979366576569,37.481652987648,정좌표
166,서울특별시교육청,남부교육지원청,1ecec08c-f3f7-b044-e053-0a32095ab044,세희유치원,사립(사인),박현선,박현선,19891118,19891118,서울특별시 구로구 도림로 107,02-854-3309,,09시00분~20시00분,1,1,1,0,,9,28,21,0,,20211,126.893920656186,37.4918241452162,정좌표
167,서울특별시교육청,동작관악교육지원청,1ecec08c-f3fa-b044-e053-0a32095ab044,예닮유치원,사립(사인),이재성,송민선,19780215,19780215,서울특별시 관악구 신원로3길 59-9,02-859-3677,,09시00분~18시30분,1,1,1,0,,7,6,12,0,,20192,126.925309447505,37.4824323058294,정좌표
168,서울특별시교육청,동작관악교육지원청,1ecec08c-f3fb-b044-e053-0a32095ab044,은혜유치원,사립(사인),이수자,이수자,19830228,19830228,서울특별시 동작구 성대로6길 29,02-822-3450,http://grace.kidis.co.kr,09시00분~19시00분,1,1,1,0,,0,0,0,0,,20211,126.931613679127,37.4985812200853,정좌표
169,서울특별시교육청,북부교육지원청,1ecec08c-f404-b044-e053-0a32095ab044,다솜유치원,사립(사인),홍성미,홍성미,19890317,19890317,서울특별시 도봉구 해등로 195,02-900-5977,,09시00분~19시30분,1,3,3,0,,45,79,81,0,,20182,127.033914976136,37.6568787152778,정좌표
170,서울특별시교육청,북부교육지원청,1ecec08c-f405-b044-e053-0a32095ab044,대원유치원,사립(사인),강정구,강정구,19890830,19890901,서울특별시 노원구 동일로228길 29,02-938-4868,http://www.deawon.co.kr,08시30분~18시30분,,1,1,0,,,4,8,0,,20211,127.058745348919,37.6677924841406,정좌표
171,서울특별시교육청,북부교육지원청,1ecec08c-f406-b044-e053-0a32095ab044,보배유치원,사립(사인),장현운,송영자,19951115,19951115,서울특별시 노원구 마들로3길 37,02-977-2727,http://www.ibobae.co.kr,07시30분~19시30분,1,2,1,0,,16,30,27,0,,20211,127.062011907396,37.6287801827429,정좌표
172,서울특별시교육청,북부교육지원청,1ecec08c-f412-b044-e053-0a32095ab044,우리유치원,사립(사인),김태훈,이정임,19940720,19940720,서울특별시 노원구 한글비석로 281,02-951-8383,,08시00분~14시30분,2,3,2,0,,27,56,62,0,,20211,127.077716866945,37.6528637030144,정좌표
173,서울특별시교육청,북부교육지원청,1ecec08c-f413-b044-e053-0a32095ab044,초안유치원,사립(사인),김은숙,김은숙,19980301,19980301,서울특별시 노원구 우이천로 102,02-996-2101,,07시30분~19시30분,2,2,2,0,,22,32,47,0,,20211,127.042988649794,37.6311404788092,정좌표
174,서울특별시교육청,서부교육지원청,1ecec08c-f41c-b044-e053-0a32095ab044,벧엘유치원,사립(사인),어금주,어금주,19800121,19800121,서울특별시 서대문구 연희로10길 17-6,02-333-9941,http://happybethel.co.kr,08시00분~19시00분,2,2,2,0,,23,34,39,0,,20211,126.9323100785,37.5661587932596,정좌표
175,서울특별시교육청,서부교육지원청,1ecec08c-f41d-b044-e053-0a32095ab044,예그린유치원,사립(사인),배영인,조희경,19890107,20020301,서울특별시 서대문구 홍제내길 84,02-391-0291,,09시00분~20시00분,1,1,1,0,,16,19,26,0,,20192,126.935825282336,37.5861393256341,정좌표
176,서울특별시교육청,서부교육지원청,1ecec08c-f41e-b044-e053-0a32095ab044,색동유치원,사립(사인),박인기,박인기,19861210,19861210,서울특별시 은평구 갈현로 212-1,02-353-5671,,07시00분~20시00분,2,2,2,0,,25,35,40,0,,20211,126.914251252333,37.6160477454258,정좌표
177,서울특별시교육청,성동광진교육지원청,1ecec08c-f424-b044-e053-0a32095ab044,아이들세상유치원,사립(사인),최영자,최영자,20001212,20001212,서울특별시 성동구 독서당로 272,02-2299-8955,http://www.kids-world.or.kr,09시00분~18시00분,2,2,1,0,,33,38,26,0,,20211,127.019598148444,37.5453544394758,정좌표
178,서울특별시교육청,성북강북교육지원청,1ecec08c-f425-b044-e053-0a32095ab044,사랑유치원,사립(사인),송종석,김말례,19721204,19721204,서울특별시 성북구 월곡로7길 72,02-913-4114,,07시30분~19시00분,1,2,2,0,,52,64,65,0,,20211,127.036311928253,37.5998964694825,정좌표
179,서울특별시교육청,강동송파교육지원청,1ecec08c-f426-b044-e053-0a32095ab044,오송유치원,사립(사인),오연호,오연호,19880203,19880208,서울특별시 강동구 구천면로39길 26,02-484-8535~7,,08시30분~18시00분,2,2,2,0,,28,26,44,0,,20211,127.131920965156,37.5458492089591,정좌표
180,서울특별시교육청,강남서초교육지원청,1ecec08c-f42d-b044-e053-0a32095ab044,서울수서초등학교병설유치원,공립(병설),조성숙,조성숙,20050427,20050427,서울특별시 강남구 광평로51길 46,02-459-5926,http://suseo.sen.es.kr,07시00분~20시00분,2,1,2,0,,8,10,14,0,,20211,127.101582572969,37.4911521425978,정좌표
181,서울특별시교육청,서부교육지원청,1ecec08c-f42e-b044-e053-0a32095ab044,서울인왕초등학교병설유치원,공립(병설),이애희,이애희,20060301,20060301,서울특별시 서대문구 세무서길 33-9,02-391-9520,http://www.inwang.es.kr ,07시30분~19시30분,1,1,1,0,,8,13,23,0,,20211,126.94480579593,37.5902210029987,정좌표
182,서울특별시교육청,강남서초교육지원청,1ecec08c-f43c-b044-e053-0a32095ab044,선경유치원,사립(사인),박광희,박상현,19920228,19920228,서울특별시 강남구 삼성로 151,02-567-3131,,09시00분~18시00분,1,,,2,,14,,,26,,20211,127.063832936668,37.4914886839937,정좌표
183,서울특별시교육청,강남서초교육지원청,1ecec08c-f43d-b044-e053-0a32095ab044,신아유치원,사립(사인),최경숙,최경숙,19880301,19880301,서울특별시 강남구 개포로110길 15,02-3411-5091,,08시00분~19시00분,1,1,2,0,,24,30,60,0,,20211,127.077591196265,37.4927611041666,정좌표
184,서울특별시교육청,강남서초교육지원청,1ecec08c-f43e-b044-e053-0a32095ab044,신양유치원,사립(사인),유해권,오은희,19871210,19871210,서울특별시 강남구 선릉로10길 18-6,02-574-2719,http://sinyangkids.moapp.kr,09시00분~19시30분,1,1,2,0,,19,17,31,0,,20202,127.061688815469,37.4834619646079,정좌표
185,서울특별시교육청,강남서초교육지원청,1ecec08c-f43f-b044-e053-0a32095ab044,우정유치원,사립(사인),이경주,최재원,19870901,19870901,서울특별시 서초구 서초대로70길 32,02-580-8347,,09시40분~18시00분,2,2,2,0,,49,48,47,0,,20211,127.023309342483,37.4931685526022,정좌표
186,서울특별시교육청,강서양천교육지원청,1ecec08c-f446-b044-e053-0a32095ab044,강서유치원,사립(사인),박향순,한아름,19821006,19821006,서울특별시 강서구 까치산로 116,02-2602-5225,,07시50분~19시30분,,2,2,0,,,35,37,0,,20211,126.850062545414,37.5482227250631,정좌표
187,서울특별시교육청,강서양천교육지원청,1ecec08c-f447-b044-e053-0a32095ab044,대유유치원,사립(법인),김동균,김은희,19870227,19870227,서울특별시 강서구 곰달래로57길 39,02-2644-0393,http://www.daeyoo1.com,09시30분~20시00분,1,1,2,0,,16,22,44,0,,20211,126.861599143705,37.5340095177541,정좌표
188,서울특별시교육청,강서양천교육지원청,1ecec08c-f448-b044-e053-0a32095ab044,대한유치원,사립(사인),원방희,권미자,19840504,19840504,서울특별시 양천구 오목로13길 31,02-2692-7788,,08시00분~18시40분,1,1,1,0,,5,16,14,0,,20202,126.844807756943,37.525735484072,정좌표
189,서울특별시교육청,강서양천교육지원청,1ecec08c-f449-b044-e053-0a32095ab044,동연유치원,사립(사인),박영희,박영희,19830221,19830221,서울특별시 양천구 목동중앙북로7길 22,02-2642-4842,,09시00분~20시00분,1,1,2,0,,24,26,49,0,,20211,126.867707956749,37.5488740334258,정좌표
190,서울특별시교육청,강서양천교육지원청,1ecec08c-f44a-b044-e053-0a32095ab044,목성유치원,사립(사인),박미경,박미경,19890825,19890825,서울특별시 양천구 목동동로 50,02-2642-7970,http://cafe.daum.net/moksung123,09시00분~18시00분,2,2,2,0,,45,54,55,0,,20211,126.86212720644,37.5129511913768,정좌표
191,서울특별시교육청,강서양천교육지원청,1ecec08c-f44b-b044-e053-0a32095ab044,문성유치원,사립(사인),최완영,최완영,19800310,19800310,서울특별시 강서구 우현로 8,02-2604-5543,http://www.mschild.net,09시00분~17시00분,1,2,3,0,,13,32,44,0,,20192,126.844561651579,37.5470678908954,정좌표
192,서울특별시교육청,중부교육지원청,1ecec08c-f465-b044-e053-0a32095ab044,숭의여자대학교부설유치원,사립(법인),구건서,김정화,19740210,19740210,서울특별시 중구 소파로2길 10,02-3708-9078,https://kindergarten.sewc.ac.kr/user/indexMain.do?siteId=kindergarten,09시00분~18시00분,1,1,1,0,,15,14,18,0,,20211,126.987228995317,37.5567701867597,정좌표
193,서울특별시교육청,중부교육지원청,1ecec08c-f48f-b044-e053-0a32095ab044,일민유치원,사립(사인),이선자,윤인수,19810114,19810114,서울특별시 용산구 효창원로 17,02-704-0915,,09시00분~19시00분,2,2,2,0,,35,51,50,0,,20211,126.949091397663,37.5349964883458,정좌표
194,서울특별시교육청,중부교육지원청,1ecec08c-f490-b044-e053-0a32095ab044,한아름유치원,사립(사인),정명호,김수진,19930113,19930113,서울특별시 종로구 혜화로6길 80,02-747-2449,http://hanarum.kidis.co.kr,08시30분~19시00분,,,,2,,,,,29,,20211,127.001122042239,37.5902528096574,정좌표
195,서울특별시교육청,동부교육지원청,1ecec08c-f491-b044-e053-0a32095ab044,서울휘경유치원,공립(단설),김미경,김미경,19990901,19991118,서울특별시 동대문구 망우로6길 48,02-2242-0354,http://www.hwykyung.kg.kr/,07시00분~19시00분,2,2,2,0,1,20,39,42,0,4,20211,127.057048267582,37.5863624659005,정좌표
196,서울특별시교육청,강남서초교육지원청,1ecec08c-f495-b044-e053-0a32095ab044,서울도곡초등학교병설유치원,공립(병설),윤미희,윤미희,20131226,20140611,서울특별시 강남구 선릉로64길 33,02-2052-1007,http://www.dogok.es.kr,07시00분~19시00분,1,2,1,0,,12,18,23,0,,20211,127.055212632229,37.499434663656,정좌표
197,서울특별시교육청,서부교육지원청,1ecec08c-f496-b044-e053-0a32095ab044,하늘유치원,사립(사인),심은정,심은정,20131209,20140305,서울특별시 은평구 진관1로 77-15,02-382-5006,,09시00분~19시00분,2,2,2,0,,31,45,48,0,,20192,126.928797755277,37.6321842004299,정좌표
198,서울특별시교육청,남부교육지원청,1ecec08c-f497-b044-e053-0a32095ab044,무지개영재유치원,사립(법인),박현주,한명남,20140221,20140301,서울특별시 영등포구 양산로17길 8,02-2675-0324,http://www.rainbowi.com,09시00분~17시00분,3,4,3,0,,69,96,89,0,,20211,126.89374272419,37.525107915552,정좌표
199,서울특별시교육청,동작관악교육지원청,1ecec08c-f4c6-b044-e053-0a32095ab044,예일유치원,사립(사인),박연미,김연선,20120401,20120401,서울특별시 관악구 낙성대역14길 6,02-875-7556,,09시00분~19시00분,1,1,1,0,,16,13,22,0,,20182,126.964266348933,37.4739115761287,정좌표
200,서울특별시교육청,강동송파교육지원청,1ecec08c-f4c7-b044-e053-0a32095ab044,반석유치원,사립(사인),강수명,강수명,20121204,20130301,서울특별시 강동구 양재대로124길 89-18,02-485-8540,,07시50분~18시30분,2,1,1,0,,31,24,25,0,,20211,127.147335262167,37.5428012675799,정좌표
201,서울특별시교육청,강남서초교육지원청,1ecec08c-f4c8-b044-e053-0a32095ab044,청담몬테소리유치원,사립(사인),나장균,이은자,20121116,20130301,서울특별시 강남구 학동로67길 15,02-546-3369,http://www.cheongdamkids.com,09시00분~18시00분,2,1,2,0,,34,23,35,0,,20211,127.046538620516,37.5193476537196,정좌표
202,서울특별시교육청,성동광진교육지원청,1ecec08c-f504-b044-e053-0a32095ab044,동인유치원,사립(사인),이기영,조영옥,19920227,19920227,서울특별시 광진구 자양로30길 6,02-457-0774,http://www.dongwon.org,09시00분~19시00분,,,,1,,,,,19,,20182,127.085140241018,37.5438272350816,정좌표
203,서울특별시교육청,성동광진교육지원청,1ecec08c-f507-b044-e053-0a32095ab044,경동유치원,사립(사인),김경신,김경신,20001201,20001201,서울특별시 성동구 금호로 100,02-2298-2277,http://www.kdchild.com,09시10분~17시30분,,3,3,0,,,78,83,0,,20211,127.025609654255,37.5534323157408,정좌표
204,서울특별시교육청,성동광진교육지원청,1ecec08c-f526-b044-e053-0a32095ab044,송곡유치원,사립(법인),이문재,김정모,19870205,19870205,서울특별시 성동구 무학로6길 41,02-2295-2111,http://songkok.co.kr,09시00분~17시00분,,1,1,0,,,30,31,0,,20202,127.0346372681,37.5651261209576,정좌표
205,서울특별시교육청,북부교육지원청,1ecec08c-f54e-b044-e053-0a32095ab044,현대유치원,사립(사인),원윤근,임천숙,19840113,19840113,서울특별시 도봉구 삼양로 574-38,02-991-9483,http://:www.hyundaikids.com,09시00분~17시00분,,,1,1,,,,14,14,,20182,127.013974147821,37.6541911297428,정좌표
206,서울특별시교육청,남부교육지원청,1ecec08c-f54f-b044-e053-0a32095ab044,백상유치원,사립(사인),이삼님,이삼님,19881213,19881213,서울특별시 금천구 탑골로3길 50,02-803-5485,,09시00분~18시00분,,1,1,0,,,12,11,0,,20211,126.914145691903,37.4531925459439,정좌표
207,서울특별시교육청,중부교육지원청,1ecec08c-f550-b044-e053-0a32095ab044,서울혜화초등학교병설유치원,공립(병설),한경자,한경자,20030301,20030301,서울특별시 종로구 혜화로 32,02-763-0124,http://hyehwa.sen.es.kr/,09시00분~19시00분,,1,1,0,,,13,22,0,,20211,127.000215916429,37.5891887252742,정좌표
208,서울특별시교육청,서부교육지원청,1ecec08c-f559-b044-e053-0a32095ab044,서울구현초등학교병설유치원,공립(병설),지선득,지선득,20090427,20090427,서울특별시 은평구 갈현로15길 51,02-357-6215,http://www.guhyun.es.kr/,07시30분~19시30분,1,1,1,0,,11,16,24,0,,20211,126.905808658966,37.609153031368,정좌표
209,서울특별시교육청,성북강북교육지원청,1ecec08c-f561-b044-e053-0a32095ab044,아랑유치원,사립(사인),정혜숙,정혜숙,20051011,20051011,서울특별시 성북구 북악산로 844,02-927-1636,http://www.arang.kg.kr,07시30분~19시30분,2,2,3,0,,46,68,74,0,,20211,127.017057197045,37.597458902521,정좌표
210,서울특별시교육청,성동광진교육지원청,1ecec08c-f562-b044-e053-0a32095ab044,예일유치원,사립(사인),방영숙,방영숙,20021227,20030301,서울특별시 광진구 천호대로111길 41,02-452-5544,http://www.yeilkid.co.kr,09시00분~20시00분,,,2,1,,,,48,20,,20192,127.082806908304,37.5582969913596,정좌표
211,서울특별시교육청,강서양천교육지원청,1ecec08c-f563-b044-e053-0a32095ab044,우람유치원,사립(사인),권미경,황현정,20090817,20090817,서울특별시 강서구 방화대로45길 32,02-2667-0645,,07시00분~22시00분,2,3,3,0,,54,59,73,0,,20211,126.814592417954,37.574248911906,정좌표
212,서울특별시교육청,동부교육지원청,1ecec08c-f56b-b044-e053-0a32095ab044,서울면목초등학교병설유치원,공립(병설),이미경,이미경,20120301,20120402,서울특별시 중랑구 면목로 434,02-2209-4341,http://www.myeonmok.es.kr,07시00분~20시00분,1,2,2,0,,9,13,23,0,,20211,127.087627983221,37.5914238183182,정좌표
213,서울특별시교육청,동작관악교육지원청,1ecec08c-f56c-b044-e053-0a32095ab044,서울문창초등학교병설유치원,공립(병설),김광옥,김광옥,20120301,20120301,서울특별시 동작구 신대방2길 14,02-836-9535,,07시30분~19시30분,2,1,1,0,1,15,19,21,0,3,20211,126.91356388698,37.4888688633213,정좌표
214,서울특별시교육청,강동송파교육지원청,1ecec08c-f56d-b044-e053-0a32095ab044,잠실럭키유치원,사립(사인),민청식,이수지,20111202,20120307,서울특별시 송파구 올림픽로 135,02-424-5665,,09시00분~17시00분,2,3,1,0,,40,55,21,0,,20211,127.085469811997,37.5154739863984,정좌표
215,서울특별시교육청,강남서초교육지원청,1ecec08c-f5d1-b044-e053-0a32095ab044,구룡유치원,사립(사인),이정근 ,이경남 ,19940301,19940301,서울특별시 서초구 논현로5길 31-11,02-577-1986,https://guryung.kidsnote.ac/,08시00분~19시00분,1,1,2,0,,17,30,36,0,,20211,127.048843514411,37.4712925360457,정좌표
216,서울특별시교육청,강남서초교육지원청,1ecec08c-f5d3-b044-e053-0a32095ab044,남부유치원,사립(사인),김윤기,조미경,19860327,19860327,서울특별시 강남구 언주로 123,02-572-2371,,09시00분~17시00분,,,,2,,,,,80,,20211,127.048792262138,37.4861659048427,정좌표
217,서울특별시교육청,북부교육지원청,1ecec08c-f5d4-b044-e053-0a32095ab044,서울도봉초등학교병설유치원,공립(병설),박지희,박지희,20040421,20040421,서울특별시 도봉구 도봉로173길 96,02-954-6672,http://www.dobong.es.kr/,07시00분~19시00분,1,1,1,0,,3,13,16,0,,20211,127.038288420697,37.6799622079842,정좌표
218,서울특별시교육청,북부교육지원청,1ecec08c-f5d5-b044-e053-0a32095ab044,서울수암초등학교병설유치원,공립(병설),유기선,유기선,20031230,20040302,서울특별시 노원구 중계로12길 9,02-3392-0354,http://www.suam.es.kr,07시00분~19시00분,1,1,2,0,,16,21,43,0,,20211,127.08147117968,37.6482306880128,정좌표
219,서울특별시교육청,남부교육지원청,1ecec08c-f5d6-b044-e053-0a32095ab044,서울매봉초등학교병설유치원,공립(병설),박정애,박정애,20040301,20040301,서울특별시 구로구 고척로21길 55,070-8622-4871,http://www.maebong.es.kr,07시00분~20시00분,1,1,1,0,,9,15,24,0,,20211,126.84484410802,37.5037000451361,정좌표
220,서울특별시교육청,강서양천교육지원청,1ecec08c-f5de-b044-e053-0a32095ab044,서울서정초등학교병설유치원,공립(병설),허혜정,허혜정,20130301,20130301,서울특별시 양천구 목동로8길 19,02-2643-7004,http://www.sj.es.kr,07시00분~19시00분,1,1,1,0,,16,21,24,0,,20211,126.867504913261,37.524248151727,정좌표
221,서울특별시교육청,동작관악교육지원청,1ecec08c-f5f1-b044-e053-0a32095ab044,종인유치원,사립(사인),최미숙,김희정,19981216,19990301,서울특별시 관악구 솔밭로 20,02-878-1332,,09시00분~20시00분,1,,,1,,12,,,16,,20202,126.963455460047,37.4790738607475,정좌표
222,서울특별시교육청,동작관악교육지원청,1ecec08c-f5f2-b044-e053-0a32095ab044,하늘유치원,사립(법인),성결교회유지재단,김경숙,19940114,19940114,서울특별시 관악구 양산길 18,02-871-8508,https://skykid.kidsnote.ac,07시30분~19시30분,2,1,1,0,,24,22,26,0,,20211,126.932256069696,37.4740572988801,정좌표
223,서울특별시교육청,북부교육지원청,1ecec08c-f5f3-b044-e053-0a32095ab044,고운유치원,사립(사인),김은희,김은희,19921203,19921203,서울특별시 노원구 동일로208길 34,02-948-6700,,07시00분~20시00분,3,3,3,0,,48,51,77,0,,20211,127.066928953496,37.644037634571,정좌표
224,서울특별시교육청,북부교육지원청,1ecec08c-f5f4-b044-e053-0a32095ab044,까치유치원,사립(사인),김영,정혜은,19890203,19890203,서울특별시 노원구 덕릉로79길 23,02-937-0331,,07시00분~22시00분,2,2,3,0,,15,31,52,0,,20211,127.073395225004,37.6566303421946,정좌표
225,서울특별시교육청,남부교육지원청,1ecec08c-f5fd-b044-e053-0a32095ab044,서울고척초등학교병설유치원,공립(병설),김대준,김대준,19940504,19940901,서울특별시 구로구 경서로 31,02-2612-8307,http://www.gocheok.kg.kr,07시30분~19시30분,1,2,2,0,,15,33,40,0,,20211,126.856979877942,37.5009500076933,정좌표
226,서울특별시교육청,남부교육지원청,1ecec08c-f5fe-b044-e053-0a32095ab044,서울남유치원,사립(사인),강송중,박미진,19810303,19810303,서울특별시 구로구 구로동로17길 37-4,02-865-0137,,07시30분~19시30분,2,1,2,0,,37,31,39,0,,20211,126.881809716475,37.4880421326959,정좌표
227,서울특별시교육청,남부교육지원청,1ecec08c-f5ff-b044-e053-0a32095ab044,서울탑동유치원,공립(단설),김미현,김미현,20050907,20050907,서울특별시 금천구 탑골로 47-3,02-894-6056,http://www.topdong.kg.kr/,07시30분~19시30분,2,2,2,0,,9,30,29,0,,20211,126.91535871114,37.4525022512396,정좌표
228,서울특별시교육청,남부교육지원청,1ecec08c-f600-b044-e053-0a32095ab044,살레시오성미유치원,사립(법인),재단법인 한국천주교 살레시오수녀회,장종수,19701116,19701116,서울특별시 영등포구 신길로 93,02-845-7306,http://www.smi.or.kr,08시00분~17시00분,3,3,3,0,,65,76,81,0,,20211,126.908558606918,37.5013141562053,정좌표
229,서울특별시교육청,서부교육지원청,1ecec08c-f60c-b044-e053-0a32095ab044,피노키오유치원,사립(사인),신설주,신설주,19880201,19880201,서울특별시 은평구 증산로15길 35-8,02-373-1253,http://pino.yoochiwon.kr,09시00분~20시00분,,,1,2,,,,30,50,,20182,126.908968062558,37.5900256271664,정좌표
230,서울특별시교육청,서부교육지원청,1ecec08c-f60d-b044-e053-0a32095ab044,한양제일유치원,사립(법인),박태규,이인옥,19930215,19930215,서울특별시 서대문구 통일로25길 30,02-737-5182,http://www.hyjikid.net,07시00분~19시00분,1,1,1,0,,14,22,21,0,,20211,126.947978832489,37.5830240632313,정좌표
231,서울특별시교육청,강서양천교육지원청,1ecec08c-f649-b044-e053-0a32095ab044,서울신원초등학교병설유치원,공립(병설),최은희,최은희,19840121,19851012,서울특별시 양천구 남부순환로58길 32,02-2608-4679,https://shinwon.es.kr,07시30분~19시30분,1,1,1,0,,7,18,20,0,,20211,126.830947443687,37.5292553206505,정좌표
232,서울특별시교육청,북부교육지원청,1ecec08c-f64a-b044-e053-0a32095ab044,한별유치원,사립(사인),김현덕,김현덕,19951228,19951228,서울특별시 도봉구 덕릉로59아길 17,02-907-4782,http://club.cyworld.com/clubV1/Home.cy/54802175,07시00분~20시00분,1,1,2,0,,19,28,44,0,,20211,127.038008268905,37.6419146084661,정좌표
233,서울특별시교육청,서부교육지원청,1ecec08c-f64b-b044-e053-0a32095ab044,경복유치원,사립(사인),김덕옥 ,지정은 ,19960422,19960422,서울특별시 서대문구 세검정로1길 95,02-396-8384,http://www.kyung-bok.co.kr,09시00분~20시00분,2,2,2,0,,40,48,52,0,,20211,126.945656001021,37.5951868845596,정좌표
234,서울특별시교육청,서부교육지원청,1ecec08c-f64c-b044-e053-0a32095ab044,성산아트유치원,사립(사인),박현중,김성옥,19980416,19980416,서울특별시 마포구 새터산2길 34,02-373-9190,https://sungsanart.moapp.kr/,09시00분~19시00분,2,2,2,0,,33,40,37,0,,20211,126.909040678076,37.5653449831744,정좌표
235,서울특별시교육청,강동송파교육지원청,1ecec08c-f657-b044-e053-0a32095ab044,제일무궁화유치원,사립(사인),이영,박영옥,19880203,19880203,서울특별시 송파구 동남로16길 3,02-402-9436,,08시00분~18시00분,2,3,3,0,,53,73,73,0,,20211,127.130995422223,37.4947416259212,정좌표
236,서울특별시교육청,북부교육지원청,1ecec08c-f658-b044-e053-0a32095ab044,동화나라유치원,사립(사인),신영은,신영은,20020204,20020204,서울특별시 노원구 덕릉로 780,02-939-6715,http://동화나라.kr,09시00분~18시30분,2,1,2,0,,17,10,33,0,,20211,127.080491016402,37.6675552822398,정좌표
237,서울특별시교육청,강동송파교육지원청,1ecec08c-f6f0-b044-e053-0a32095ab044,서울송전초등학교병설유치원,공립(병설),고남숙,고남숙,20070301,20070301,서울특별시 송파구 석촌호수로 159,02-420-6343,http://songjeon.kg.kr/,08시50분~20시00분,,1,2,0,,,22,32,0,,20211,127.094895388474,37.5082282164106,정좌표
238,서울특별시교육청,동작관악교육지원청,1ecec08c-f6f1-b044-e053-0a32095ab044,행복유치원,사립(법인),김인수,이다겸,20071023,20080301,서울특별시 동작구 양녕로23길 25,02-3280-1188,http://www.sokahappy.co.kr,08시30분~18시00분,2,2,3,0,,36,48,66,0,,20211,126.94113337469,37.4956815503996,정좌표
239,서울특별시교육청,강동송파교육지원청,1ecec08c-f704-b044-e053-0a32095ab044,명덕유치원,사립(사인),김재근,김신애,19880222,19880401,서울특별시 강동구 동남로83길 66,02-426-1196,,08시00분~17시30분,2,2,3,0,,40,52,84,0,,20211,127.153174365685,37.5598676828113,정좌표
240,서울특별시교육청,강동송파교육지원청,1ecec08c-f705-b044-e053-0a32095ab044,올림픽유치원,사립(사인),진성하,한선아,19890208,19890301,서울특별시 송파구 양재대로 1218,02-400-2440,,09시30분~17시30분,2,3,2,0,,33,42,33,0,,20211,127.134783810532,37.5143252848681,정좌표
241,서울특별시교육청,강동송파교육지원청,1ecec08c-f706-b044-e053-0a32095ab044,예은유치원,사립(사인),김생기,김혜자,19850206,19850206,서울특별시 송파구 오금로32길 13,02-424-6768,,09시00분~18시00분,2,2,2,0,,46,50,47,0,,20211,127.120412090358,37.5047323164537,정좌표
242,서울특별시교육청,남부교육지원청,1ecec08c-f707-b044-e053-0a32095ab044,목원유치원,사립(사인),조병순,고미정,20011029,20011029,서울특별시 구로구 개봉로20길 6,02-2066-6060,,09시30분~19시00분,3,3,2,0,,54,65,48,0,,20211,126.857062908857,37.4919255788746,정좌표
243,서울특별시교육청,동부교육지원청,1ecec08c-f720-b044-e053-0a32095ab044,동국유치원,사립(사인),김기환,김경본,19920413,19920901,서울특별시 중랑구 용마산로 250,02-436-1035,http://www.donggukschool.co.kr/,07시30분~19시30분,1,1,1,0,,10,17,18,0,,20211,127.088972475492,37.5749282522229,정좌표
244,서울특별시교육청,동부교육지원청,1ecec08c-f721-b044-e053-0a32095ab044,봄내유치원,사립(사인),김준태,박완순,19950109,19950109,서울특별시 중랑구 면목로61길 50,02-438-9711,http://bomnae.or.kr,07시50분~20시00분,2,2,4,0,,39,52,89,0,,20211,127.085553443755,37.5859780947642,정좌표
245,서울특별시교육청,서부교육지원청,1ecec08c-f728-b044-e053-0a32095ab044,유정유치원,사립(사인),정금숙,정금숙,19840315,19840315,서울특별시 은평구 진흥로12길 23,02-354-2411,http://yujung.platfarm.co.kr,07시30분~19시30분,2,2,2,0,,39,51,58,0,,20211,126.926760332587,37.6066676599311,정좌표
246,서울특별시교육청,서부교육지원청,1ecec08c-f729-b044-e053-0a32095ab044,와우랩유치원,사립(사인),백남익,정성욱,19640306,19640306,서울특별시 은평구 응암로28길 34,02-359-6966,http://www.wowlab.co.kr,09시00분~19시00분,2,4,3,0,,55,83,89,0,,20211,126.921568001575,37.5940325853092,정좌표
247,서울특별시교육청,서부교육지원청,1ecec08c-f72b-b044-e053-0a32095ab044,정님유치원,사립(사인),박원규,박원규,19850216,19850216,서울특별시 마포구 숭문6길 19,02-713-8053,http://cafe.daum.net/2001jungnim,07시00분~19시00분,2,2,2,0,,48,46,52,0,,20211,126.946923814901,37.5499453289351,정좌표
248,서울특별시교육청,성북강북교육지원청,1ecec08c-f733-b044-e053-0a32095ab044,서울청덕초등학교병설유치원,공립(병설),신주현,신주현,19860210,19860310,서울특별시 성북구 정릉로9라길 11,02-919-8685,http://cheongdeok.es.kr/,07시30분~19시30분,1,1,1,0,,3,6,7,0,,20211,127.000334295697,37.6120337503463,정좌표
249,서울특별시교육청,중부교육지원청,1ecec08c-f734-b044-e053-0a32095ab044,가명유치원,사립(법인),(재)천주교서울대교구유지재단,김윤경,19560415,19560415,서울특별시 중구 청파로 447-1,02-362-7593,,09시00분~18시00분,1,1,1,0,,22,27,25,0,,20211,126.967460218661,37.5591512866691,정좌표
250,서울특별시교육청,중부교육지원청,1ecec08c-f735-b044-e053-0a32095ab044,근화유치원,사립(법인),도영숙,도영숙,19540405,19540405,서울특별시 중구 동호로20길 24,02-2237-1684,http://guenhwa.com,09시00분~17시00분,1,,,3,,22,,,63,,20211,127.008962679747,37.559068718447,정좌표
251,서울특별시교육청,중부교육지원청,1ecec08c-f736-b044-e053-0a32095ab044,배화여자대학교 부속 배화유치원,사립(법인),학교법인 배화학원,이예숙,19170401,19170401,서울특별시 종로구 필운대로1길 34,02-737-1433,http://www.baewha.ac.kr/mbs/child ,09시00분~17시00분,1,1,1,0,,22,26,24,0,,20211,126.965263353561,37.5792954516551,정좌표
252,서울특별시교육청,성북강북교육지원청,1ecec08c-f73f-b044-e053-0a32095ab044,탑주유치원,사립(법인),재단법인 대한불교진각종유지재단,신은순,19830502,19830502,서울특별시 성북구 화랑로13길 17,02-913-5548,http://cafe.naver.com/tapju,08시00분~18시00분,3,2,2,0,,62,58,55,0,,20211,127.040625705007,37.604773833745,정좌표
253,서울특별시교육청,성북강북교육지원청,1ecec08c-f740-b044-e053-0a32095ab044,성실유치원,사립(사인),김형수,김제면,19820713,19820713,서울특별시 강북구 삼각산로 143-1,02-905-8700,http://www.성실유치원.kr,07시00분~22시00분,1,1,2,0,,14,22,42,0,,20211,127.018561336578,37.6430953888862,정좌표
254,서울특별시교육청,강서양천교육지원청,1ecec08c-f7b7-b044-e053-0a32095ab044,우일유치원,사립(사인),이충우,이근호,19870811,19870811,서울특별시 강서구 곰달래로47길 88,02-2602-4026,,09시00분~18시00분,2,2,2,0,,21,29,41,0,,20211,126.855324343283,37.535176383494,정좌표
255,서울특별시교육청,남부교육지원청,1ecec08c-f7c4-b044-e053-0a32095ab044,한영유치원,사립(사인),신정우,김상수,19830301,19830301,서울특별시 영등포구 영중로41길 5,02-2677-5422,,09시30분~19시00분,1,1,2,0,,24,26,42,0,,20211,126.904789577664,37.5284991011837,정좌표
256,서울특별시교육청,성동광진교육지원청,1ecec08c-f7d7-b044-e053-0a32095ab044,슬기유치원,사립(사인),이명희,김영신,19850301,19850301,서울특별시 광진구 자양로 296,02-446-0581,http://슬기유치원.com/,07시00분~22시00분,,,2,1,,,,36,21,,20211,127.092571650103,37.5520509192149,정좌표
257,서울특별시교육청,성동광진교육지원청,1ecec08c-f7d8-b044-e053-0a32095ab044,윤진유치원,사립(사인),김도선,박수진,19820623,19820623,서울특별시 광진구 아차산로21길 15,02-464-8174,,09시00분~20시00분,,,,1,,,,,17,,20182,127.065045768229,37.54273414499,정좌표
258,서울특별시교육청,성동광진교육지원청,1ecec08c-f7d9-b044-e053-0a32095ab044,자양하나유치원,사립(사인),최완형,고영주,19930303,19930303,서울특별시 광진구 아차산로41길 22-5,02-456-1799,http://www.hanayoochiwon.com,07시30분~19시30분,1,1,1,0,,16,23,20,0,,20211,127.078667592473,37.5387466397289,정좌표
259,서울특별시교육청,강동송파교육지원청,1ecec08c-f7df-b044-e053-0a32095ab044,서울가락초등학교병설유치원,공립(병설),김하련,김하련,19960115,19960115,서울특별시 송파구 송파대로37길 45-0(가락동 가락초등학교),02-3402-1154,http://www.seoulgarak.es.kr,09시00분~19시00분,1,2,2,0,1,15,31,38,0,4,20211,127.107605102533,37.5000214191036,정좌표
260,서울특별시교육청,강동송파교육지원청,1ecec08c-f7e0-b044-e053-0a32095ab044,서울길동초등학교병설유치원,공립(병설),김미영,김미영,19940805,19940907,서울특별시 강동구 양재대로116길 69,02-474-3956,http://www.gildong.es.kr,07시30분~19시30분,1,1,2,0,,15,17,30,0,,20211,127.145241749632,37.5380301584653,정좌표
261,서울특별시교육청,강동송파교육지원청,1ecec08c-f7e3-b044-e053-0a32095ab044,예원유치원,사립(사인),대한예수교장로회 예원교회 김석만,정미화,19871223,19971205,서울특별시 송파구 마천로 30,02-2203-9131,,09시00분~20시00분,,1,1,0,,,17,26,0,,20192,127.124041238298,37.5092169243308,정좌표
262,서울특별시교육청,강동송파교육지원청,1ecec08c-f7e4-b044-e053-0a32095ab044,햇빛유치원,사립(사인),이영자,김경미,19860512,20090311,서울특별시 송파구 올림픽로 419,02-421-2234,,09시00분~18시00분,4,3,3,0,,82,78,86,0,,20211,127.114124460407,37.5204913224008,정좌표
263,서울특별시교육청,강서양천교육지원청,1ecec08c-f7f5-b044-e053-0a32095ab044,계상유치원,사립(법인),성낙배,송은희,20021011,20021011,서울특별시 양천구 남부순환로86길 22,02-2625-5608,http://www.kyesangkids.com,09시00분~20시00분,2,3,2,0,,34,75,43,0,,20211,126.839850668973,37.5125088072917,정좌표
264,서울특별시교육청,서부교육지원청,1ecec08c-f7f6-b044-e053-0a32095ab044,나사렛유치원,사립(법인),대한기독교나사렛성결유지재단 ,우숙경,20051228,20051228,서울특별시 마포구 매봉산로 24-1,02-303-6721,,09시30분~19시00분,2,2,2,0,,34,52,46,0,,20211,126.890393515338,37.574371757454,정좌표
265,서울특별시교육청,강서양천교육지원청,1ecec08c-f7f7-b044-e053-0a32095ab044,우리곰유치원,사립(사인),최계숙,최계숙,19930311,20080110,서울특별시 강서구 허준로 23,02-2659-3323,,08시00분~18시30분,1,1,1,0,,19,25,22,0,,20211,126.845917164034,37.5715277441379,정좌표
266,서울특별시교육청,북부교육지원청,1ecec08c-f80d-b044-e053-0a32095ab044,희산유치원,사립(사인),이소영,정혜은,20100101,20100101,서울특별시 노원구 덕릉로 459-18,02-933-2367,http://hskidschool.itrocks.kr,09시00분~20시00분,1,1,1,0,,10,15,24,0,,20182,127.060985996713,37.6467659205617,정좌표
267,서울특별시교육청,성북강북교육지원청,1ecec08c-f81e-b044-e053-0a32095ab044,동선유치원,사립(법인),재단법인 한국기독교장로회총회유지재단,이정림,19850304,19850304,서울특별시 성북구 보문로 98,02-926-3704,http://dongsun.kidis.co.kr,07시40분~20시00분,,,1,1,,,,9,11,,20211,127.020378269248,37.5840310534145,정좌표
268,서울특별시교육청,성북강북교육지원청,1ecec08c-f81f-b044-e053-0a32095ab044,명덕유치원,사립(사인),전현옥,전현옥,19770509,19560303,서울특별시 성북구 삼양로 74,02-989-0175,,09시00분~18시00분,,1,1,0,,,4,7,0,,20182,127.022903302391,37.6098637035655,정좌표
269,서울특별시교육청,강동송파교육지원청,1ecec08c-f821-b044-e053-0a32095ab044,녹원유치원,사립(사인),최진경,방영은,19860301,19860307,서울특별시 강동구 상암로63길 39-10,02-481-3141,,09시00분~18시00분,3,1,,0,,75,31,,0,,20211,127.153569441975,37.5485117810081,정좌표
270,서울특별시교육청,강서양천교육지원청,1ecec08c-f883-b044-e053-0a32095ab044,서울양목초등학교병설유치원,공립(병설),김현숙,김현숙,19960301,19960417,서울특별시 양천구 목동로11길 30,02-2604-8297,http://www.yangmok.es.kr,07시30분~19시30분,1,1,2,0,1,15,21,32,0,5,20211,126.861471538007,37.5239182407792,정좌표
271,서울특별시교육청,강서양천교육지원청,1ecec08c-f884-b044-e053-0a32095ab044,세진유치원,사립(사인),원종수,김미선,19960201,19960201,서울특별시 양천구 월정로46길 9,02-2608-0303,,09시00분~18시00분,1,1,1,0,,14,19,25,0,,20192,126.832750753675,37.5408973856106,정좌표
272,서울특별시교육청,강서양천교육지원청,1ecec08c-f885-b044-e053-0a32095ab044,신정유치원,사립(사인),최영숙,최영숙,19790226,19790226,서울특별시 양천구 신정로7길 81-4,02-2696-0136,https://blog.naver.com/sj_0136,09시00분~19시00분,4,4,3,0,,66,82,74,0,,20191,126.833372460598,37.5135720678106,정좌표
273,서울특별시교육청,남부교육지원청,1ecec08c-f88d-b044-e053-0a32095ab044,동천유치원,사립(사인),이재성,고유미,19960508,19960508,서울특별시 영등포구 신길로40길 10,02-842-8972,,09시00분~18시00분,1,1,1,0,,15,18,24,0,,20211,126.912123191932,37.5063501461676,정좌표
274,서울특별시교육청,남부교육지원청,1ecec08c-f88e-b044-e053-0a32095ab044,명신유치원,사립(법인),이신현,이신미,19911001,19911001,서울특별시 영등포구 신길로41라길 13-9,02-832-5543,http://www.myoungshin.co.kr,09시30분~17시30분,1,2,2,0,,16,44,47,0,,20211,126.908231762845,37.5074270306405,정좌표
275,서울특별시교육청,동부교육지원청,1ecec08c-f894-b044-e053-0a32095ab044,윤경유치원,사립(사인),김주경,김주경,19961011,19961105,서울특별시 중랑구 숙선옹주로 91,02-3421-7184,,09시30분~20시00분,2,2,2,0,,36,54,46,0,,20211,127.085264934056,37.6171692980793,정좌표
276,서울특별시교육청,동부교육지원청,1ecec08c-f895-b044-e053-0a32095ab044,한양유치원,사립(사인),석미정,석미정,19890305,20041114,서울특별시 동대문구 답십리로 184,02-2249-6001,http://cafe.naver.com/hanyangkg,09시30분~19시00분,1,2,2,0,,8,30,29,0,,20192,127.060231002464,37.5710773235695,정좌표
277,서울특별시교육청,남부교육지원청,1ecec08c-f89e-b044-e053-0a32095ab044,양지유치원,사립(사인),김양일,김양일,19960205,19960205,서울특별시 금천구 독산로108길 37,02-839-4769,http://www.yangjikids.co.kr/,09시00분~22시00분,,1,1,0,,,22,17,0,,20192,126.905993370554,37.4796957946633,정좌표
278,서울특별시교육청,남부교육지원청,1ecec08c-f89f-b044-e053-0a32095ab044,우성유치원,사립(사인),이대응,김신영,19880301,19880301,서울특별시 영등포구 도신로 68-1,02-847-2525,,07시40분~19시40분,2,1,1,0,,28,21,18,0,,20211,126.900624931254,37.5057448793817,정좌표
279,서울특별시교육청,동작관악교육지원청,1ecec08c-f8ab-b044-e053-0a32095ab044,서울청룡초등학교병설유치원,공립(병설),성준현,성준현,19970115,19970301,서울특별시 관악구 관악로5길 61,02-871-2429,http://www.chungryong.es.kr/,07시30분~19시30분,1,1,1,0,,7,14,16,0,,20211,126.951577502331,37.4754149686351,정좌표
280,서울특별시교육청,동작관악교육지원청,1ecec08c-f8ac-b044-e053-0a32095ab044,양문유치원,사립(사인),이영신,표이정,19830217,19830217,서울특별시 동작구 시흥대로 644-1,02-834-6864,,09시00분~19시00분,1,2,1,0,,11,34,28,0,,20211,126.907390811571,37.489194095179,정좌표
281,서울특별시교육청,서부교육지원청,1ecec08c-f8c9-b044-e053-0a32095ab044,보람유치원,사립(법인),신조광,서정림,19841227,19841227,서울특별시 은평구 갈현로4길 42,02-352-7615,,09시00분~18시30분,,,1,1,,,,19,19,,20211,126.914222680344,37.600097256156,정좌표
282,서울특별시교육청,성동광진교육지원청,1ecec08c-f8d0-b044-e053-0a32095ab044,성심유치원,사립(법인),(재)_천주교서울대교구유지재단,정미영,19661116,19661116,서울특별시 성동구 무학로10길 21,02-2293-0621,,09시00분~18시00분,1,2,1,0,,17,33,24,0,,20211,127.033721009338,37.5659989773971,정좌표
283,서울특별시교육청,강동송파교육지원청,1ecec08c-f8d2-b044-e053-0a32095ab044,화랑유치원,사립(사인),김승휘,김승휘,19881116,19881015,서울특별시 강동구 천중로35길 37-1,02-472-1777,,09시00분~18시00분,1,,,1,,2,,,12,,20202,127.137770742603,37.5429277992191,정좌표
284,서울특별시교육청,강남서초교육지원청,1ecec08c-f8db-b044-e053-0a32095ab044,서울역삼초등학교병설유치원,공립(병설),이정옥,이정옥,20050301,20050301,서울특별시 강남구 강남대로66길 21,02-569-2731,http://yeoksam.sen.es.kr,07시30분~19시30분,,1,1,0,1,,13,21,0,4,20211,127.033162489387,37.4929296498223,정좌표
285,서울특별시교육청,동부교육지원청,1ecec08c-f8dc-b044-e053-0a32095ab044,세하유치원,사립(사인),이은숙,권인양,20040501,20040501,서울특별시 동대문구 장안벚꽃로 107,02-2213-1382,https://blog.naver.com/sehakids,09시00분~18시00분,2,2,2,0,,38,34,51,0,,20211,127.073588524083,37.5689698482997,정좌표
286,서울특별시교육청,성북강북교육지원청,1ecec08c-f8dd-b044-e053-0a32095ab044,서울돈암초등학교병설유치원,공립(병설),류지현,류지현,20060301,20060306,서울특별시 성북구 동소문로13길 38,02-926-2357,http://www.donam.es.kr,07시30분~20시00분,1,1,1,0,,16,19,24,0,,20211,127.013103101208,37.5937459758926,정좌표
287,서울특별시교육청,성북강북교육지원청,1ecec08c-f8de-b044-e053-0a32095ab044,서울수유초등학교병설유치원,공립(병설),류선미,류선미,20051229,20060309,서울특별시 강북구 삼양로74길 39,02-988-4612,http://suyu.sen.es.kr,07시30분~19시30분,1,1,1,0,1,3,9,16,0,5,20211,127.020293832845,37.6312520204695,정좌표
288,서울특별시교육청,강서양천교육지원청,1ecec08c-f8f5-b044-e053-0a32095ab044,공항제일유치원,사립(사인),고승현,오진주,19970501,19970501,서울특별시 강서구 개화동로23길 100,02-2662-3744,,07시00분~20시00분,,,,2,,,,,49,,20211,126.810670891575,37.565231794787,정좌표
289,서울특별시교육청,강서양천교육지원청,1ecec08c-f8f6-b044-e053-0a32095ab044,목동다솜유치원,사립(사인),정매실박재형,박갑원,19861030,19861030,서울특별시 양천구 월정로9길 23-4,02-2692-8975,https://cafe.naver.com/mokdongdasom,07시00분~22시00분,2,2,2,0,,14,31,26,0,,20211,126.83877115865,37.5242473359846,정좌표
290,서울특별시교육청,강서양천교육지원청,1ecec08c-f8f7-b044-e053-0a32095ab044,등현유치원,사립(사인),권영숙,권영숙,19960208,19960208,서울특별시 강서구 화곡로63가길 63,02-3662-2205,,08시00분~19시00분,3,2,2,0,,55,48,50,0,,20211,126.848519473099,37.561463965622,정좌표
291,서울특별시교육청,중부교육지원청,1ecec08c-f910-b044-e053-0a32095ab044,상명사대부속유치원,사립(법인),학교법인 상명학원,전승준,19660228,19660228,서울특별시 종로구 홍지문2길 1,02-396-1602,http://www.smu-kindergarten.com,08시40분~17시30분,2,2,2,0,,44,52,53,0,,20211,126.95668870335,37.6007116719408,정좌표
292,서울특별시교육청,중부교육지원청,1ecec08c-f911-b044-e053-0a32095ab044,서울덕수초등학교병설유치원,공립(병설),최병혜,최병혜,19870126,19870126,서울특별시 중구 덕수궁길 140,02-720-7275,http://deoksoo.sen.es.kr,07시00분~20시00분,1,2,1,0,,12,32,24,0,,20211,126.974230991157,37.5682086235573,정좌표
293,서울특별시교육청,중부교육지원청,1ecec08c-f912-b044-e053-0a32095ab044,서울재동초등학교병설유치원,공립(병설),박광수,박광수,19860217,19860217,서울특별시 종로구 북촌로4길 7,02-764-2830,http://www.jaedong.es.kr/,09시00분~19시40분,1,1,1,0,,8,13,19,0,,20211,126.985747411234,37.5799069939424,정좌표
294,서울특별시교육청,중부교육지원청,1ecec08c-f913-b044-e053-0a32095ab044,원유치원,사립(사인),원은자,송공주,19850305,19850305,서울특별시 용산구 이촌로81길 14,02-797-0038,,08시00분~19시00분,3,2,2,0,,66,54,53,0,,20211,126.976817484489,37.5196497782633,정좌표
295,서울특별시교육청,중부교육지원청,1ecec08c-f932-b044-e053-0a32095ab044,유성유치원,사립(사인),곽일천,김옥수,19650927,19650927,서울특별시 용산구 회나무로13가길 16,02-792-8691,http://www.yusungkids.org/,08시40분~18시00분,3,2,2,0,,30,22,44,0,,20182,126.990471309324,37.5406614164392,정좌표
296,서울특별시교육청,중부교육지원청,1ecec08c-f933-b044-e053-0a32095ab044,청룡유치원,사립(사인),소순자,임영희,19971030,19971030,서울특별시 종로구 동망산길 62,02-742-7782,,09시00분~18시30분,,,,1,,,,,10,,20211,127.016653547402,37.579409982762,정좌표
297,서울특별시교육청,성북강북교육지원청,1ecec08c-f934-b044-e053-0a32095ab044,희망찬유치원,사립(법인),하지연,하지연,19790416,19790416,서울특별시 성북구 동소문로34길 24,02-926-6888,http://cafe.daum.net/hmcps,09시00분~20시00분,1,2,2,0,,17,24,34,0,,20211,127.023531618182,37.5983966562394,정좌표
298,서울특별시교육청,강동송파교육지원청,1ecec08c-f93e-b044-e053-0a32095ab044,서울방이초등학교병설유치원,공립(병설),김종환,김종환,20131226,20140519,서울특별시 송파구 위례성대로10길 4,02-421-0776,http://www.bangi.es.kr,07시30분~19시30분,1,1,2,0,1,9,16,37,0,4,20211,127.120644849803,37.5128160115031,정좌표
299,서울특별시교육청,강동송파교육지원청,1ecec08c-f93f-b044-e053-0a32095ab044,서울신명초등학교병설유치원,공립(병설),김영도,김영도,20140301,20140306,서울특별시 강동구 명일로24길 33,02-489-5580,,07시00분~19시00분,,1,1,0,,,7,16,0,,20211,127.149367301127,37.5406587568067,정좌표
300,서울특별시교육청,동작관악교육지원청,1ecec08c-f940-b044-e053-0a32095ab044,샛별유치원,사립(법인),김혜윤,김인순,20131204,20140305,서울특별시 동작구 상도로50길 36-1,02-3280-8993,http://cafe.daum.net/Stellar1004,09시00분~17시00분,3,2,3,0,,51,49,74,0,,20211,126.950279348874,37.4980431130193,정좌표
301,서울특별시교육청,강동송파교육지원청,1ecec08c-f973-b044-e053-0a32095ab044,강동유정유치원,사립(사인),김지은,진혜영,20121109,20130301,서울특별시 강동구 상일로10길 41,428-4466,,09시00분~18시00분,6,5,5,0,,130,145,134,0,,20211,127.174951834566,37.5505600671949,정좌표
302,서울특별시교육청,성동광진교육지원청,1ecec08c-f9b0-b044-e053-0a32095ab044,보성유치원,사립(사인),김문자,박도영,19970409,19970409,서울특별시 광진구 아차산로 552,02-453-9712,http://www.bosungkid.co.kr,08시00분~18시30분,2,1,1,0,,31,31,30,0,,20211,127.10501897239,37.5435494616893,정좌표
303,서울특별시교육청,성북강북교육지원청,1ecec08c-f9b8-b044-e053-0a32095ab044,아름유치원,사립(사인),박해정,박해정,19860522,19860522,서울특별시 강북구 도봉로 88,02-981-3465,http://cafe.daum.net/areum41,09시00분~20시00분,1,1,1,0,,2,5,12,0,,20182,127.030374678415,37.6169669499252,정좌표
304,서울특별시교육청,성북강북교육지원청,1ecec08c-f9b9-b044-e053-0a32095ab044,은하유치원,사립(사인),이태숙,홍미라 ,19820621,19820621,서울특별시 성북구 돌곶이로 64,02-962-7647,,09시00분~20시00분,,,1,1,,,,42,33,,20211,127.058677964784,37.6094812138254,정좌표
305,서울특별시교육청,성북강북교육지원청,1ecec08c-f9d0-b044-e053-0a32095ab044,한마음유치원,사립(사인),고범석,박신형,20001120,20001120,서울특별시 성북구 월계로 124,02-942-5353,,08시30분~19시00분,2,2,2,0,,32,53,58,0,,20211,127.041187900867,37.6161892677904,정좌표
306,서울특별시교육청,성북강북교육지원청,1ecec08c-f9d1-b044-e053-0a32095ab044,신암유치원,사립(사인),옥재호,인소영,19650210,19640601,서울특별시 성북구 보문로27길 15,02-928-6004,http://www.shinam.net,07시00분~20시00분,1,1,1,0,,16,28,19,0,,20211,127.017500922557,37.5866332284758,정좌표
307,서울특별시교육청,남부교육지원청,1ecec08c-f9f5-b044-e053-0a32095ab044,서울미래초등학교병설유치원,공립(병설),김연숙,김연숙,20030301,20030301,서울특별시 구로구 새말로 73,02-858-1965,http://www.mirae.es.kr,07시00분~20시00분,1,1,1,0,,16,22,24,0,,20211,126.888080574681,37.5051070301999,정좌표
308,서울특별시교육청,남부교육지원청,1ecec08c-f9f6-b044-e053-0a32095ab044,성락유치원,사립(법인),기독교베뢰아아카데미진흥재단 김성현,조미경,20020528,20020528,서울특별시 영등포구 가마산로51길 9,02-835-3947,,09시00분~20시00분,1,1,1,0,,11,9,20,0,,20211,126.901150440975,37.5039616939237,정좌표
309,서울특별시교육청,성북강북교육지원청,1ecec08c-fa08-b044-e053-0a32095ab044,솔샘유치원,사립(사인),이경미,조자영,20021023,20021023,서울특별시 강북구 솔샘로 159,02-984-1616,,09시00분~20시00분,3,4,2,0,,42,74,52,0,,20211,127.011873353544,37.6208352315323,정좌표
310,서울특별시교육청,강서양천교육지원청,1ecec08c-fa09-b044-e053-0a32095ab044,유니유치원,사립(사인),최경호,김숙희,19940113,19940113,서울특별시 강서구 허준로 175,02-2659-5216,,07시00분~20시00분,2,2,2,0,,39,52,41,0,,20211,126.858752265056,37.5633632338316,정좌표
311,서울특별시교육청,남부교육지원청,1ecec08c-fa13-b044-e053-0a32095ab044,서울영동초등학교병설유치원,공립(병설),김광숙,김광숙,20130301,20130301,서울특별시 영등포구 국회대로53길 20,02-2635-0584,,07시30분~19시30분,1,1,1,0,1,11,15,21,0,2,20211,126.907709230658,37.5270164577044,정좌표
312,서울특별시교육청,서부교육지원청,1ecec08c-fa14-b044-e053-0a32095ab044,서울연은초등학교병설유치원,공립(병설),최미경,최미경,20121227,20130313,서울특별시 은평구 백련산로2길 35,02-302-4593,http://www.yeoneun.es.kr,09시30분~19시30분,,1,1,0,1,,21,21,0,3,20211,126.925112995867,37.5905132244138,정좌표
313,서울특별시교육청,동부교육지원청,1ecec08c-fa6b-b044-e053-0a32095ab044,서울묵현초등학교병설유치원,공립(병설),신선희,신선희,20050301,20051029,서울특별시 중랑구 동일로157길 75,02-977-9105,http://www.mh.es.kr,07시00분~20시00분,,1,1,0,1,,21,21,0,4,20211,127.073691026123,37.6090812238065,정좌표
314,서울특별시교육청,강동송파교육지원청,1ecec08c-fa72-b044-e053-0a32095ab044,서울남천초등학교병설유치원,공립(병설),강신호,강신호,20130301,20130522,서울특별시 송파구 성내천로 207,02-3401-0687,http://s-namcheon.es.kr,07시20분~19시40분,,1,1,0,,,7,4,0,,20211,127.150507143569,37.5010620050289,정좌표
315,서울특별시교육청,성북강북교육지원청,1ecec08c-fa73-b044-e053-0a32095ab044,창문유치원,사립(법인),곽정윤,곽정윤,20120305,20120305,서울특별시 강북구 월계로 61,02-943-7780,http://changmunkids.kr,07시00분~20시00분,2,2,3,0,,47,52,70,0,,20211,127.035830775821,37.6134057055578,정좌표
316,서울특별시교육청,동작관악교육지원청,1ecec08c-fa84-b044-e053-0a32095ab044,은아유치원,사립(사인),양원숙,양원숙,19770214,19770214,서울특별시 관악구 남부순환로246길 25,02-882-0018,http://www.euna.co.kr,07시30분~19시00분,2,4,3,0,,44,83,75,0,,20211,126.964429931508,37.4754548154422,정좌표
317,서울특별시교육청,북부교육지원청,1ecec08c-fa85-b044-e053-0a32095ab044,공능유치원,사립(사인),이도형,권명희,19590505,19810223,서울특별시 노원구 동일로186길 27,02-972-0481,http://kongneungkidis.co.kr,09시00분~18시30분,1,1,1,0,,10,13,14,0,,20182,127.074045558469,37.6251388360648,정좌표
318,서울특별시교육청,남부교육지원청,1ecec08c-fa8a-b044-e053-0a32095ab044,서울국악유치원,사립(법인),김진희,김진희,19990305,19990305,서울특별시 금천구 시흥대로38길 62,02-896-2093,http://www.seoulkugak.com,09시00분~19시00분,2,2,2,0,,40,50,50,0,,20211,126.906719918414,37.4467096836227,정좌표
319,서울특별시교육청,남부교육지원청,1ecec08c-fa8b-b044-e053-0a32095ab044,서울영등포초등학교병설유치원,공립(병설),허혜련,허혜련,19980422,19980422,서울특별시 영등포구 경인로 756,02-2632-9781,http://www.ydp.es.kr,07시00분~20시00분,1,1,1,0,,9,15,19,0,,20211,126.898260418465,37.5129492641941,정좌표
320,서울특별시교육청,남부교육지원청,1ecec08c-fa8c-b044-e053-0a32095ab044,성심유치원,사립(사인),전성환,이시행,19850211,19850211,서울특별시 영등포구 도림로 339,02-843-2220,,09시00분~17시00분,1,1,2,0,,17,23,57,0,,20182,126.900566792644,37.507443634345,정좌표
321,서울특별시교육청,서부교육지원청,1ecec08c-faa4-b044-e053-0a32095ab044,조은유치원,사립(사인),조기조,이주연,20001223,20001223,서울특별시 서대문구 증가로 191,02-309-4415,http://www.joeun.kg.kr,08시00분~18시30분,1,2,2,0,,22,46,54,0,,20211,126.916066781311,37.5775751235842,정좌표
322,서울특별시교육청,서부교육지원청,1ecec08c-faa5-b044-e053-0a32095ab044,충암유치원,사립(법인),학교법인 충암학원,이희정,19651109,19730307,서울특별시 은평구 가좌로5길 5,02-372-8678,http://www.choongam.kg.kr,08시00분~19시00분,2,2,2,0,,39,56,52,0,,20211,126.921012221362,37.5849882374163,정좌표
323,서울특별시교육청,서부교육지원청,1ecec08c-faa6-b044-e053-0a32095ab044,현대홍익유치원,사립(사인),한병근한영희,박화순,19991006,20000301,서울특별시 서대문구 모래내로 432,02-720-3004,http://www.hdhongik.go.kr,09시00분~19시30분,1,1,2,0,,20,23,42,0,,20211,126.943239194791,37.58403492191,정좌표
324,서울특별시교육청,강서양천교육지원청,1ecec08c-fad9-b044-e053-0a32095ab044,방화이화유치원,사립(사인),나병삼,최중희,19830401,19830401,서울특별시 강서구 양천로17길 4-55,02-2662-2017,,07시00분~22시00분,1,1,,2,,26,19,,51,,20211,126.813526567934,37.5740872375996,정좌표
325,서울특별시교육청,강서양천교육지원청,1ecec08c-fada-b044-e053-0a32095ab044,사슴유치원,사립(사인),이주용,이주용,19880331,19880331,서울특별시 양천구 곰달래로9길 12,02-2605-1357,,09시00분~20시00분,1,1,2,0,,19,16,41,0,,20182,126.83585110819,37.5309009164195,정좌표
326,서울특별시교육청,동부교육지원청,1ecec08c-fadc-b044-e053-0a32095ab044,서울유치원,사립(사인),박진희,박진희,20010122,20010307,서울특별시 동대문구 한천로58길 47,02-959-9411,http://www.seoulkid.com,09시00분~18시00분,1,1,2,0,,23,20,50,0,,20202,127.067842749201,37.6012352052978,정좌표
327,서울특별시교육청,서부교육지원청,1ecec08c-fadd-b044-e053-0a32095ab044,녹번유치원,사립(사인),김기홍,조희숙,19660301,19660301,서울특별시 은평구 은평로16길 11,02-355-0476,http://www.eungam.or.kr,09시00분~18시00분,2,1,1,0,,16,24,26,0,,20211,126.929888637355,37.5999002353019,정좌표
328,서울특별시교육청,서부교육지원청,1ecec08c-fade-b044-e053-0a32095ab044,라라유치원,사립(사인),김영선,천은미,19871013,19871013,서울특별시 은평구 갈현로 170-1,02-355-0105,http://cafe.daum.net/rarakide20,09시00분~18시00분,,,1,1,,,,18,8,,20202,126.911962375995,37.6131746169337,정좌표
329,서울특별시교육청,강서양천교육지원청,1ecec08c-fae5-b044-e053-0a32095ab044,신예유치원,사립(사인),추대식,유은주,20020202,20020202,서울특별시 양천구 신정로 290,02-2065-7466,http://sinye.kidswon.com,07시00분~20시00분,1,1,2,0,,9,16,36,0,,20211,126.853453135266,37.5123214862249,정좌표
330,서울특별시교육청,강동송파교육지원청,1ecec08c-fae7-b044-e053-0a32095ab044,기린유치원,사립(사인),이명숙,배하연,19850228,19850315,서울특별시 송파구 백제고분로41길 20,02-418-1750,,07시00분~20시00분,,,,1,,,,,20,,20202,127.107580842486,37.5077629440255,정좌표
331,서울특별시교육청,남부교육지원청,1ecec08c-fb57-b044-e053-0a32095ab044,파란나라유치원,사립(사인),신예순,신예순,20070420,20070420,서울특별시 영등포구 도신로8길 17,02-844-7115,,09시00분~19시00분,3,4,3,0,,61,83,61,0,,20211,126.897383822806,37.5031436691311,정좌표
332,서울특별시교육청,강동송파교육지원청,1ecec08c-fb63-b044-e053-0a32095ab044,그림유치원,사립(사인),장세자,장세자,19880125,20050228,서울특별시 송파구 동남로23나길 6,02-403-0687,,09시00분~19시00분,2,3,3,0,,48,60,63,0,,20182,127.133007760546,37.5023790058316,정좌표
333,서울특별시교육청,강동송파교육지원청,1ecec08c-fb64-b044-e053-0a32095ab044,아이코리아부속새세대유치원,사립(법인),김태련,이경미,19920120,19830302,서울특별시 송파구 충민로6길 17,02-2144-1150,,09시00분~14시00분,2,1,1,0,,45,30,23,0,,20211,127.13328077671,37.4825521212706,정좌표
334,서울특별시교육청,동부교육지원청,1ecec08c-fb77-b044-e053-0a32095ab044,나래유치원,사립(사인),지광윤,지아영,19820616,19820616,서울특별시 중랑구 봉우재로41길 12,02-432-5009,http://www.naraekinder.com/,09시00분~22시00분,1,3,2,0,,23,59,53,0,,20182,127.089625646641,37.5940368438917,정좌표
335,서울특별시교육청,동부교육지원청,1ecec08c-fb78-b044-e053-0a32095ab044,동일유치원,사립(법인),김휘현,신상숙,19810209,19810209,서울특별시 중랑구 면목로35길 21,02-432-2949,,08시00분~18시00분,2,2,2,0,,23,43,46,0,,20211,127.084655458233,37.5781444777429,정좌표
336,서울특별시교육청,동부교육지원청,1ecec08c-fb79-b044-e053-0a32095ab044,미광유치원,사립(사인),최경숙,최경숙,19900109,19900109,서울특별시 중랑구 용마산로115나길 7,02-493-4874,http://cafe.daum.net/chris625,07시30분~19시30분,1,1,2,0,,12,10,32,0,,20211,127.096610912984,37.5979039941047,정좌표
337,서울특별시교육청,동부교육지원청,1ecec08c-fb7a-b044-e053-0a32095ab044,사군자유치원,사립(사인),한은진,한은진,19850513,19850515,서울특별시 동대문구 장한로5길 51,02-2245-5801,,09시00분~20시00분,,,1,1,,,,13,23,,20211,127.06377649015,37.5651979056924,정좌표
338,서울특별시교육청,동부교육지원청,1ecec08c-fb7b-b044-e053-0a32095ab044,산정현유치원,사립(법인),대한예수교 서울노회유지재단 ,김학미 ,19980325,19980325,서울특별시 동대문구 회기로23가길 33,02-963-0371,,07시00분~19시00분,1,1,2,0,,20,22,37,0,,20211,127.054069940353,37.592680863256,정좌표
339,서울특별시교육청,동부교육지원청,1ecec08c-fb7c-b044-e053-0a32095ab044,새샛별유치원,사립(사인),허선자,허선자,19850114,19850114,서울특별시 중랑구 망우로 458,02-433-3668,http://cafe.daum.net/star433-3668,09시00분~20시00분,1,1,1,0,,19,23,28,0,,20192,127.102996113214,37.599971700231,정좌표
340,서울특별시교육청,서부교육지원청,1ecec08c-fb84-b044-e053-0a32095ab044,서울용강초등학교병설유치원,공립(병설),김은영,김은영,19990426,19990426,서울특별시 마포구 백범로17길 9,02-711-2578,http://www.yonggang.es.kr/notice/board.do?bcfNo=1441301,07시00분~20시00분,,1,1,0,4,,18,23,0,4,20211,126.944043956527,37.5491014823748,정좌표
341,서울특별시교육청,서부교육지원청,1ecec08c-fb86-b044-e053-0a32095ab044,이화여자대학교사범대학부속이화유치원,사립(법인),이화학당,엄정애,19140107,19140107,서울특별시 서대문구 이화여대길 52,02-362-6177,http://www.ewha-kids.com,09시00분~14시00분,2,2,2,0,,40,50,52,0,,20211,126.950728528732,37.5638968356377,정좌표
342,서울특별시교육청,서부교육지원청,1ecec08c-fb87-b044-e053-0a32095ab044,인왕유치원,사립(사인),김길자,임미희,19780301,19780301,서울특별시 서대문구 통일로32길 23,02-738-1486,,08시00분~20시00분,,,1,1,,,,15,6,,20211,126.949483405388,37.5854748111176,정좌표
343,서울특별시교육청,성북강북교육지원청,1ecec08c-fb95-b044-e053-0a32095ab044,영재유치원,사립(사인),송진영송나영이정민,김지은,19851210,19851210,서울특별시 성북구 종암로15길 1,02-925-4114,,07시00분~20시00분,1,1,2,0,,8,18,34,0,,20211,127.034767486675,37.597431976035,정좌표
344,서울특별시교육청,강서양천교육지원청,1ecec08c-fbfb-b044-e053-0a32095ab044,예지유치원,사립(사인),한연옥,송우경,19940205,19940205,서울특별시 강서구 남부순환로11가길 89,02-2661-5969,,09시30분~18시00분,1,1,1,0,,13,20,27,0,,20182,126.813211742116,37.5576528099506,정좌표
345,서울특별시교육청,강서양천교육지원청,1ecec08c-fbfc-b044-e053-0a32095ab044,진일유치원,사립(사인), 신창숙,정은숙,19931001,19931001,서울특별시 강서구 허준로 121,02-2659-4747,,09시00분~19시30분,,,2,0,,,,30,0,,20211,126.854317134467,37.5659980194388,정좌표
346,서울특별시교육청,남부교육지원청,1ecec08c-fbfd-b044-e053-0a32095ab044,개봉샛별유치원,사립(법인),권은희,권은희,19840611,19840611,서울특별시 구로구 개봉로18길 11,02-2615-8812,http://cafe.daum.net/gooddaddy,09시00분~18시00분,1,1,1,0,,14,17,27,0,,20211,126.856831080041,37.4916708564797,정좌표
347,서울특별시교육청,남부교육지원청,1ecec08c-fc05-b044-e053-0a32095ab044,파랑새유치원,사립(사인),박근용,김영화,19900209,19900209,서울특별시 영등포구 가마산로 384,02-834-3050,,07시00분~19시00분,1,1,1,0,,19,16,26,0,,20211,126.900260746806,37.5023876536549,정좌표
348,서울특별시교육청,남부교육지원청,1ecec08c-fc06-b044-e053-0a32095ab044,평화유치원,사립(사인),김정애원장님,김정애,19830301,19830301,서울특별시 영등포구 선유동2로 40,02-2635-0525,http://www.평화유치원.kr/,07시00분~19시00분,,,1,1,,,,23,31,,20211,126.89680273045,37.5323816990124,정좌표
349,서울특별시교육청,북부교육지원청,1ecec08c-fc08-b044-e053-0a32095ab044,선덕유치원,사립(사인),김민찬,조복주,19901208,19901208,서울특별시 노원구 섬밭로 190,02-973-1500,,08시00분~19시00분,2,2,2,0,,22,41,57,0,,20211,127.067120878215,37.6330612033774,정좌표
350,서울특별시교육청,북부교육지원청,1ecec08c-fc09-b044-e053-0a32095ab044,염광유치원,사립(법인),이용석,이용석,19780302,19780306,서울특별시 노원구 월계로45가길 9,02-902-5024,http://ykkids.com,08시00분~19시00분,,1,2,1,,,15,30,16,,20211,127.049583385101,37.6284065671831,정좌표
351,서울특별시교육청,서부교육지원청,1ecec08c-fc0b-b044-e053-0a32095ab044,서울북성유치원,공립(단설),이혜주,이혜주,19990115,19990310,서울특별시 서대문구 북아현로1나길 32,02-365-2061,http://www.서울북성유치원.com/,07시30분~19시30분,2,3,2,0,1,32,50,45,0,1,20211,126.951274016323,37.5594782676125,정좌표
352,서울특별시교육청,성동광진교육지원청,1ecec08c-fc13-b044-e053-0a32095ab044,성수아름유치원,사립(사인),조희정,조희정,19880420,19880420,서울특별시 광진구 뚝섬로 476-15,02-464-8397,http://sungsuhappy.kidsnote.ac/,09시00분~19시00분,,,,1,,,,,20,,20192,127.062390171098,37.5363821378065,정좌표
353,서울특별시교육청,성동광진교육지원청,1ecec08c-fc15-b044-e053-0a32095ab044,정신유치원,사립(사인),정창효,양경전,19840416,19840416,서울특별시 광진구 뚝섬로23길 27,02-466-7773,http://www.uriidle.com,07시00분~20시00분,1,1,1,0,,9,19,22,0,,20211,127.064648268677,37.5373594398864,정좌표
354,서울특별시교육청,강남서초교육지원청,1ecec08c-fc1a-b044-e053-0a32095ab044,푸른유치원,사립(사인),권영석,이윤정,19950301,19950301,서울특별시 강남구 일원로14길 25,02-2226-2697,,09시00분~17시00분,1,2,2,0,,25,54,60,0,,20211,127.081530566635,37.4837896246598,정좌표
355,서울특별시교육청,강남서초교육지원청,1ecec08c-fc1b-b044-e053-0a32095ab044,하나유치원,사립(사인),전순이,박점희,19920121,19931201,서울특별시 서초구 잠원로8길 13,02-595-6585,,08시00분~19시00분,2,2,2,0,,48,54,56,0,,20211,127.010273547052,37.5152120107189,정좌표
356,서울특별시교육청,강동송파교육지원청,1ecec08c-fc1d-b044-e053-0a32095ab044,서울강덕초등학교병설유치원,공립(병설),김옥자,김옥자,20001125,20010301,서울특별시 강동구 동남로82길 94-54,02-426-0878,http://www.gangdeok.es.kr/,07시00분~20시00분,1,1,2,0,1,16,21,40,0,4,20211,127.160956432384,37.5590903353389,정좌표
357,서울특별시교육청,강동송파교육지원청,1ecec08c-fc21-b044-e053-0a32095ab044,근화유치원,사립(사인),강아원,백미화,19860601,19860601,서울특별시 강동구 고덕로 240,02-481-1144,,09시00분~18시00분,,,1,1,,,,20,43,,20211,127.15147438772,37.552615792743,정좌표
358,서울특별시교육청,강동송파교육지원청,1ecec08c-fc23-b044-e053-0a32095ab044,별나라유치원,사립(사인),김명숙,김명숙,19890930,19890930,서울특별시 송파구 새말로8길 14,02-406-4915,,09시00분~19시30분,,,1,1,,,,10,19,,20202,127.126389507265,37.4814500654003,정좌표
359,서울특별시교육청,강동송파교육지원청,1ecec08c-fc24-b044-e053-0a32095ab044,둔촌유치원,사립(사인),유창석,김숙,19890810,19890901,서울특별시 강동구 풍성로63길 73,02-475-7913,http://doonchon.happyihome.com,08시20분~18시00분,1,1,1,0,,13,29,25,0,,20211,127.139704034081,37.5313749002784,정좌표
360,서울특별시교육청,성북강북교육지원청,1ecec08c-fc25-b044-e053-0a32095ab044,운산유치원,사립(사인), 최라희,권정선,19850315,19850315,서울특별시 강북구 수유로4길 58,02-982-4622,http://cafe.daum.net/han-kids,07시30분~19시30분,,,1,1,,,,13,18,,20211,127.021712274685,37.6320769153034,정좌표
361,서울특별시교육청,동작관악교육지원청,1ecec08c-fc36-b044-e053-0a32095ab044,사랑유치원,사립(사인),권미경,권미경,20020227,20020301,서울특별시 동작구 여의대방로24나길 6,02-822-0102,http://wwwsarangkid.co.kr,08시00분~19시00분,,2,1,0,,,26,17,0,,20202,126.921174460718,37.4984021774254,정좌표
362,서울특별시교육청,북부교육지원청,1ecec08c-fc37-b044-e053-0a32095ab044,산내들유치원,사립(사인),윤영임,안경옥,19960516,19960516,서울특별시 노원구 공릉로46길 32,02-978-8882,,07시00분~20시00분,,,1,1,,,,8,16,,20211,127.082948521521,37.6269158161395,정좌표
363,서울특별시교육청,성북강북교육지원청,1ecec08c-fc38-b044-e053-0a32095ab044,서울베네딕도유치원,사립(법인),이정숙,김희진,20060322,20060322,서울특별시 성북구 아리랑로16길 52,02-6922-5900,,09시00분~18시00분,2,3,3,0,,36,71,64,0,,20211,127.015803954581,37.5996563803138,정좌표
364,서울특별시교육청,동작관악교육지원청,1ecec08c-fc39-b044-e053-0a32095ab044,무지개유치원,사립(사인),전미영,장은희,19940908,19940908,서울특별시 동작구 상도로 407-5,02-817-9854,,09시00분~18시00분,2,1,1,0,,25,10,8,0,,20191,126.956970643171,37.4934084585354,정좌표
365,서울특별시교육청,동작관악교육지원청,1ecec08c-fc3a-b044-e053-0a32095ab044,벧엘유치원,사립(법인),박병주,임지연,19591216,20070301,서울특별시 동작구 장승배기로20길 46-3,02-814-1482,http://www.bethelkids.or.kr,09시00분~17시00분,2,2,2,0,,39,48,43,0,,20211,126.942907708838,37.5087651698105,정좌표
366,서울특별시교육청,동작관악교육지원청,1ecec08c-fc3b-b044-e053-0a32095ab044,서울유치원,사립(사인),김영춘,김영춘,19881115,19881115,서울특별시 관악구 관악로37길 20,02-878-3773,http://www.seoul-montessori.com,09시00분~17시00분,,,,4,,,,,43,,20211,126.956399621942,37.4877137597943,정좌표
367,서울특별시교육청,서부교육지원청,1ecec08c-fc56-b044-e053-0a32095ab044,월드유치원,사립(사인),송점준,장선희,20091208,20091208,서울특별시 마포구 월드컵로42길 38,02-302-8780,http://worldforkids.net,09시00분~17시00분,4,5,5,0,,95,125,125,0,,20211,126.881143078229,37.5804065967085,정좌표
368,서울특별시교육청,강동송파교육지원청,1ecec08c-fc57-b044-e053-0a32095ab044,송파유정유치원,사립(사인),김지은,정연이,20101027,20110301,서울특별시 송파구 충민로 177,02-408-3408,,09시00분~18시00분,5,5,4,0,,124,136,124,0,,20211,127.133063801119,37.4857230780204,정좌표
369,서울특별시교육청,강서양천교육지원청,1ecec08c-fc58-b044-e053-0a32095ab044,예은유치원,사립(사인),송숙현,송숙현,20110425,20110425,서울특별시 강서구 까치산로4길 101-5,02-2698-4096,http://yeaeun.kidis.co.kr/index.php,09시00분~18시00분,,,,0,,,,,0,,20192,126.847232693347,37.5389390365383,정좌표
370,서울특별시교육청,남부교육지원청,1ecec08c-fc59-b044-e053-0a32095ab044,서울천왕초등학교병설유치원,공립(병설),방대곤,방대곤,20110901,20110901,서울특별시 구로구 천왕로1길 11,02-6343-4382,http://www.cheonwang.es.kr,07시00분~20시00분,1,1,1,0,,9,14,18,0,,20211,126.837061673775,37.4814539807859,정좌표
371,서울특별시교육청,강서양천교육지원청,1ecec08c-fcd8-b044-e053-0a32095ab044,수미유치원,사립(사인),송영운,임용예정,19860901,19860901,서울특별시 강서구 강서로17길 130,02-2697-3355,,09시00분~17시00분,,,,1,,,,,5,,20182,126.838543465132,37.5321700702738,정좌표
372,서울특별시교육청,강서양천교육지원청,1ecec08c-fcd9-b044-e053-0a32095ab044,수영유치원,사립(사인),강수영,강수영,19880901,19880901,서울특별시 양천구 목동서로 38,02-2646-4056,https://blog.naver.com/sykid4050,07시00분~20시00분,2,2,2,0,,25,35,38,0,,20211,126.87846274057,37.5399119962254,정좌표
373,서울특별시교육청,남부교육지원청,1ecec08c-fce7-b044-e053-0a32095ab044,사랑유치원,사립(사인),조정녀,조정녀,19890215,19890215,서울특별시 구로구 신도림로11가길 36,02-2634-7918,,07시30분~19시30분,2,2,2,0,,40,57,59,0,,20211,126.876175528333,37.5071223735489,정좌표
374,서울특별시교육청,동부교육지원청,1ecec08c-fcf3-b044-e053-0a32095ab044,푸른솔유치원,사립(사인),권정민,권정민,20000206,20000320,서울특별시 동대문구 전농로10길 20,02-2243-3553,http://www.purunsol.kg.kr,08시00분~19시00분,1,2,2,0,,5,30,51,0,,20211,127.059665324527,37.5744744710992,정좌표
375,서울특별시교육청,동작관악교육지원청,1ecec08c-fcf4-b044-e053-0a32095ab044,나랑유치원,사립(법인),박수진,박수진,20001214,20001214,서울특별시 관악구 봉천로33길 57,02-3285-5555,http://www.narang.kg.kr,08시00분~20시00분,1,2,2,0,,21,51,36,0,,20211,126.943962489814,37.4857303990575,정좌표
376,서울특별시교육청,남부교육지원청,1ecec08c-fcfe-b044-e053-0a32095ab044,시내유치원,사립(사인),조명순,김양희,19980306,19980306,서울특별시 금천구 가산로 99,02-858-1436,,09시00분~18시00분,1,1,1,0,,13,21,25,0,,20211,126.891749534274,37.4746343145126,정좌표
377,서울특별시교육청,남부교육지원청,1ecec08c-fcff-b044-e053-0a32095ab044,여의유치원,사립(사인),송명화,송명화,19830301,19830301,서울특별시 영등포구 국제금융로7길 3,02-782-1492,,08시00분~19시00분,,,,2,,,,,36,,20211,126.931203334224,37.5225642605041,정좌표
378,서울특별시교육청,동작관악교육지원청,1ecec08c-fd08-b044-e053-0a32095ab044,성모유치원,사립(사인),윤옥희,윤옥희,19830214,19830214,서울특별시 동작구 장승배기로5길 16,02-823-6878,http://cafe.daum.net,09시00분~20시00분,1,1,2,0,,8,10,33,0,,20192,126.93996152661,37.5015877219263,정좌표
379,서울특별시교육청,북부교육지원청,1ecec08c-fd0e-b044-e053-0a32095ab044,덕성여자대학교부속유치원,사립(법인),김윤희,김선희,19840109,19840302,서울특별시 도봉구 삼양로144길 33,02-995-0611,http://dskinder.or.kr/,08시00분~18시30분,1,1,1,2,,17,24,20,43,,20211,127.01834095696,37.6508932089773,정좌표
380,서울특별시교육청,북부교육지원청,1ecec08c-fd0f-b044-e053-0a32095ab044,미광유치원,사립(사인),최경숙,추미경,19991215,19991215,서울특별시 노원구 공릉로34길 62,02-948-9677,,07시30분~19시30분,1,1,2,0,,6,12,25,0,,20211,127.085259542865,37.6236228890485,정좌표
381,서울특별시교육청,북부교육지원청,1ecec08c-fd16-b044-e053-0a32095ab044,청암유치원,사립(사인),추상욱,조선미,19860301,19861005,서울특별시 노원구 중계로 244,02-934-5119,http://cakids.co.kr/,08시00분~18시00분,,,2,0,,,,22,0,,20202,127.073858738987,37.651774984606,정좌표
382,서울특별시교육청,북부교육지원청,1ecec08c-fd17-b044-e053-0a32095ab044,풍천유치원,사립(사인),김두례,이윤경,19890305,19890117,서울특별시 노원구 노원로 522,02-937-1616,,08시00분~19시00분,2,2,2,0,,48,58,46,0,,20211,127.060996917431,37.6611591305626,정좌표
383,서울특별시교육청,북부교육지원청,1ecec08c-fd18-b044-e053-0a32095ab044,하늘유치원,사립(사인),최영복,심영선,19991224,19991224,서울특별시 노원구 초안산로 89,02-998-0285,,07시30분~20시00분,2,1,2,0,,26,25,48,0,,20211,127.051719009382,37.6348784757779,정좌표
384,서울특별시교육청,서부교육지원청,1ecec08c-fd1d-b044-e053-0a32095ab044,아이들이야기유치원,사립(사인),김진,김진,20030523,20030523,서울특별시 마포구 토정로31길 57-11,02-717-6472,,09시00분~16시00분,1,1,1,0,,26,27,13,0,,20182,126.943902789429,37.5436273785704,정좌표
385,서울특별시교육청,서부교육지원청,1ecec08c-fd1e-b044-e053-0a32095ab044,삼성유치원,사립(사인),윤장용,윤영근,19681001,19681001,서울특별시 서대문구 증가로20나길 12,02-372-2211,http://kindergarten.co.kr,09시00분~18시30분,2,2,2,0,,42,56,55,0,,20211,126.919410516515,37.5815845641073,정좌표
386,서울특별시교육청,서부교육지원청,1ecec08c-fd1f-b044-e053-0a32095ab044,새나유치원,사립(사인),김동애,김동애,19990101,19990114,서울특별시 서대문구 가재울로 45,02-304-3130,http://www.새나유치원.kr,09시00분~18시00분,2,2,2,0,,49,52,50,0,,20211,126.920843008368,37.5756720329012,정좌표
387,서울특별시교육청,강서양천교육지원청,1ecec08c-fd31-b044-e053-0a32095ab044,서울염경초등학교병설유치원,공립(병설),권용경,권용경,20060301,20060301,서울특별시 강서구 양천로69길 49,02-3662-1910,http://www.yeomkyoung.es.kr,07시00분~19시00분,1,1,1,0,,16,22,24,0,,20211,126.871204120597,37.5550003951269,정좌표
388,서울특별시교육청,강남서초교육지원청,1ecec08c-fd47-b044-e053-0a32095ab044,서울반포초등학교병설유치원,공립(병설),김유상,김유상,19880406,19880406,서울특별시 서초구 신반포로 55-4,02-591-5204,http://www.banpokid.co.kr,07시30분~19시30분,1,1,1,0,,6,16,19,0,,20211,126.990720171082,37.5023931583838,정좌표
389,서울특별시교육청,강남서초교육지원청,1ecec08c-fd48-b044-e053-0a32095ab044,신우주유치원,사립(사인),박신애,신윤정,20020107,20020107,서울특별시 강남구 일원로 120,02-2226-5170,,09시00분~17시00분,,,,2,,,,,34,,20192,127.083138322727,37.4841389978903,정좌표
390,서울특별시교육청,중부교육지원청,1ecec08c-fd64-b044-e053-0a32095ab044,서울장충유치원,공립(단설),이선미,이선미,19940825,19941006,서울특별시 중구 청구로17길 40,02-2234-6047,http://www.서울장충유치원.kr/,07시30분~19시30분,2,2,2,0,1,22,36,44,0,4,20211,127.011428276063,37.5591510550898,정좌표
391,서울특별시교육청,중부교육지원청,1ecec08c-fd65-b044-e053-0a32095ab044,운현유치원,사립(법인),학교법인 덕성학원,성기선,19641216,19651010,서울특별시 종로구 삼일대로 460,02-742-7790,http://www.unhyunms.co.kr,09시00분~17시00분,,,,3,,,,,74,,20211,126.988295254177,37.5761369220217,정좌표
392,서울특별시교육청,중부교육지원청,1ecec08c-fd8f-b044-e053-0a32095ab044,정우유치원,사립(법인),최인숙,송선화,19850827,19850827,서울특별시 용산구 원효로 179,02-712-2211,,09시00분~19시00분,1,,,1,,8,,,21,,20182,126.962507467539,37.5361860840256,정좌표
393,서울특별시교육청,중부교육지원청,1ecec08c-fd90-b044-e053-0a32095ab044,한가람유치원,사립(사인),최낙규,송수현,19950110,19950110,서울특별시 용산구 이촌로89길 50,02-796-8865,http://hangaram.kidis.co.kr,09시00분~17시00분,1,1,1,0,,13,31,17,0,,20211,126.981263565519,37.5195228291827,정좌표
394,서울특별시교육청,성동광진교육지원청,1ecec08c-fd95-b044-e053-0a32095ab044,대원유치원,사립(사인),백나혜,백나혜,20140211,20140211,서울특별시 광진구 뚝섬로41길 20,02-458-0820,,09시00분~17시00분,16,18,22,0,,16,18,22,0,,20211,127.075543879643,37.5341824404167,정좌표
395,서울특별시교육청,강남서초교육지원청,1ecec08c-fd96-b044-e053-0a32095ab044,서울자곡초등학교병설유치원,공립(병설),성낙일,성낙일,20140901,20141024,서울특별시 강남구 자곡로 150,02-3413-8780,http://www.jagok.es.kr,07시00분~19시00분,1,1,1,0,,5,5,10,0,,20211,127.099601630571,37.472190938454,정좌표
396,서울특별시교육청,남부교육지원청,1ecec08c-fd97-b044-e053-0a32095ab044,굿프랜드유치원,사립(사인),허숙희,허숙희,20140905,20150304,서울특별시 영등포구 대방천로 180,02-847-3490,https://cafe.naver.com/gfkindergarten,09시00분~17시00분,3,3,2,0,,46,78,56,0,,20211,126.910867498696,37.4984063877528,정좌표
397,서울특별시교육청,강서양천교육지원청,1ecec08c-fdb8-b044-e053-0a32095ab044,등촌이화유치원,사립(사인),김성우,유정,20110404,20110404,서울특별시 강서구 화곡로63가길 26,02-2658-3123,http://www.ewkinder.co.kr,09시00분~19시30분,1,1,1,0,,4,11,8,0,,20211,126.847957012686,37.5597438035254,정좌표
398,서울특별시교육청,서부교육지원청,1ecec08c-fdb9-b044-e053-0a32095ab044,하나유치원,사립(사인),박영태,김용희,20121024,20130301,서울특별시 은평구 진관4로 93,02-353-7004,http://hanakids.kr,09시30분~19시30분,1,4,3,0,,18,61,67,0,,20192,126.929828802008,37.6480729417845,정좌표
399,서울특별시교육청,강동송파교육지원청,1ecec08c-fdba-b044-e053-0a32095ab044,강일늘사랑유치원,사립(사인),이복임,이복임,20121204,20130304,서울특별시 강동구 아리수로98길 62,02-3426-8700,http://alwayslove.co.kr,08시00분~19시30분,3,3,3,0,,62,71,53,0,,20211,127.178323072963,37.5631465269083,정좌표
400,서울특별시교육청,성동광진교육지원청,1ecec08c-fe01-b044-e053-0a32095ab044,광장유치원,사립(법인),홍성란,홍성란,19830901,19830901,서울특별시 광진구 광장로7길 17,02-455-5016,,09시30분~18시30분,1,1,1,0,,14,25,27,0,,20211,127.105231099119,37.5485380841822,정좌표
401,서울특별시교육청,성동광진교육지원청,1ecec08c-fe02-b044-e053-0a32095ab044,서울양남초등학교병설유치원,공립(병설),최원일,최원일,19980106,19980313,서울특별시 광진구 뚝섬로64길 71,02-458-9361,http://www.s-yangnam.es.kr,07시00분~19시00분,1,2,1,0,1,9,16,15,0,3,20211,127.089239813288,37.5311324626657,정좌표
402,서울특별시교육청,북부교육지원청,1ecec08c-fe07-b044-e053-0a32095ab044,서울공릉초등학교병설유치원,공립(병설),김순현,김순현,20011231,20020301,서울특별시 노원구 동일로173길 12,02-973-3074,http://gongrung.es.kr,07시20분~19시20분,1,1,1,0,,15,20,16,0,,20211,127.074162795466,37.6184929463761,정좌표
403,서울특별시교육청,성북강북교육지원청,1ecec08c-fe08-b044-e053-0a32095ab044,유안유치원,사립(사인),국정훈,권미옥,19830329,19830329,서울특별시 강북구 인수봉로 297,02-904-4576,,07시00분~20시00분,,,1,2,,,,15,36,,20211,127.010484299521,37.6452715065247,정좌표
404,서울특별시교육청,성동광진교육지원청,1ecec08c-fe09-b044-e053-0a32095ab044,옥수삼성유치원,사립(사인),구자흡,민인자,20010706,20020302,서울특별시 성동구 독서당로 218,02-2293-5657,http://oksu-samsung.co.kr,08시00분~20시00분,1,1,2,0,,12,16,20,0,,20211,127.013887279515,37.5426022254538,정좌표
405,서울특별시교육청,성북강북교육지원청,1ecec08c-fe21-b044-e053-0a32095ab044,광운유치원,사립(법인),김미선,김미선,19670301,19670301,서울특별시 성북구 장월로42길 9,02-915-0903,http://www.kwangwoon.or.kr,09시00분~17시00분,1,1,1,0,,18,24,20,0,,20192,127.047670169761,37.6097189514694,정좌표
406,서울특별시교육청,서부교육지원청,1ecec08c-fe45-b044-e053-0a32095ab044,서울은명초등학교병설유치원,공립(병설),배동윤,배동윤,20090310,20090310,서울특별시 은평구 은평로4길 21-9,02-359-9510,,07시00분~19시00분,,1,1,0,,,22,24,0,,20211,126.91827587215,37.5976791805482,정좌표
407,서울특별시교육청,강서양천교육지원청,1ecec08c-fe4b-b044-e053-0a32095ab044,아란유치원,사립(사인),신화룡,최태은,20030211,20030211,서울특별시 양천구 목동서로 100,02-2646-5674,,09시00분~18시00분,2,2,1,0,,26,27,22,0,,20211,126.87277604275,37.5346090479435,정좌표
408,서울특별시교육청,북부교육지원청,1ecec08c-fe4c-b044-e053-0a32095ab044,아이디유치원,사립(사인),곽명식,김영란,19890329,19890329,서울특별시 노원구 동일로221길 32,02-937-0604,http://www.1004id.com,09시00분~19시30분,2,2,2,0,,24,46,45,0,,20211,127.057170884031,37.6591698232168,정좌표
409,서울특별시교육청,강남서초교육지원청,1ecec08c-fe50-b044-e053-0a32095ab044,서울우면초등학교병설유치원,공립(병설),박영주,박영주,20120301,20120612,서울특별시 서초구 태봉로 59,02-2057-1676,http://woomyeon.sen.es.kr/,07시30분~19시30분,1,1,1,0,1,7,19,22,0,1,20211,127.023769253637,37.464711082613,정좌표
410,서울특별시교육청,강남서초교육지원청,1ecec08c-fe51-b044-e053-0a32095ab044,서울대왕초등학교병설유치원,공립(병설),신미희,신미희,20120901,20121004,서울특별시 강남구 헌릉로618길 8,02-3412-0840,http://www.dwkids.kg.kr/,07시30분~19시30분,1,1,1,0,,9,6,12,0,,20211,127.105590770815,37.4646204086968,정좌표
411,서울특별시교육청,중부교육지원청,1ecec08c-fe52-b044-e053-0a32095ab044,서울창신초등학교병설유치원,공립(병설),진용희,진용희,20120301,20120312,서울특별시 종로구 지봉로 73,02-763-8812,http://www.chang-shin.es.kr,09시00분~19시00분,,,2,1,,,,22,7,,20211,127.014293872723,37.5762118744714,정좌표
412,서울특별시교육청,강남서초교육지원청,1ecec08c-fea2-b044-e053-0a32095ab044,하늘빛유치원,사립(사인),박희경,김양미,19930302,19930302,서울특별시 강남구 양재대로55길 12,02-451-7000,,09시00분~17시00분,1,1,1,0,,13,15,24,0,,20192,127.088453351481,37.4923363231876,정좌표
413,서울특별시교육청,강남서초교육지원청,1ecec08c-fea3-b044-e053-0a32095ab044,돌샘유치원,사립(사인),석종희,석현영,19831223,19840302,서울특별시 강남구 개포로 516,02-3411-0003,,09시00분~19시00분,2,2,2,0,,27,42,46,0,,20211,127.069770643237,37.4893471889718,정좌표
414,서울특별시교육청,강남서초교육지원청,1ecec08c-fea4-b044-e053-0a32095ab044,럭키유치원,사립(사인), 정외상,황유현,19971226,19971226,서울특별시 강남구 논현로 213,02-573-7048,http://www.luckids.org,09시00분~18시00분,1,2,2,0,,24,52,52,0,,20182,127.040843300549,37.4898523118553,정좌표
415,서울특별시교육청,강남서초교육지원청,1ecec08c-fea5-b044-e053-0a32095ab044,리라유치원,사립(사인),김점미,황세희,20120301,19941010,서울특별시 강남구 광평로19길 15,02-2226-8686,,09시00분~19시00분,1,1,2,0,,9,29,33,0,,20211,127.084797576889,37.4855296042409,정좌표
416,서울특별시교육청,강남서초교육지원청,1ecec08c-fea6-b044-e053-0a32095ab044,묘동유치원,사립(법인),이요한,김주연,19241113,19241113,서울특별시 강남구 도곡로78길 8,02-556-8737,http://md.kidis.co.kr,09시00분~18시00분,2,2,1,0,,45,44,31,0,,20211,127.058766340208,37.4974074920424,정좌표
417,서울특별시교육청,남부교육지원청,1ecec08c-fea7-b044-e053-0a32095ab044,동산유치원,사립(사인),김양일,김하은,19860131,19860131,서울특별시 금천구 시흥대로152길 35,02-866-6571,,07시00분~20시00분,1,2,2,0,,28,36,46,0,,20211,126.900964189232,37.4769065720486,정좌표
418,서울특별시교육청,서부교육지원청,1ecec08c-fea8-b044-e053-0a32095ab044,은혜유치원,사립(법인),김은경,정원도,19660214,19740308,서울특별시 은평구 통일로78가길 20,02-355-3913,http://www.eunhye.kg.kr,09시30분~14시30분,1,2,2,0,,0,0,0,0,,20211,126.927727468109,37.6175875560359,정좌표
419,서울특별시교육청,남부교육지원청,1ecec08c-feac-b044-e053-0a32095ab044,서울구로남초등학교병설유치원,공립(병설),홍은자,홍은자,20130222,20130516,서울특별시 구로구 디지털로27길 76,02-853-5025,,07시30분~19시30분,1,1,1,0,,11,14,15,0,,20211,126.890442556267,37.4855147920805,정좌표
420,서울특별시교육청,강서양천교육지원청,1ecec08c-fead-b044-e053-0a32095ab044,서울양화초등학교병설유치원,공립(병설),안말례,안말례,20130901,20130901,서울특별시 양천구 목동중앙북로16길 57,02-2646-1090,http://www.yanghwa.es.kr/,07시30분~19시30분,1,1,1,0,,10,22,22,0,,20211,126.874856114001,37.5436403050811,정좌표
421,서울특별시교육청,강서양천교육지원청,1ecec08c-feae-b044-e053-0a32095ab044,서울월정초등학교병설유치원,공립(병설),박미란,박미란,20130725,20130905,서울특별시 강서구 월정로 176,02-2694-5013,http://www.woljung.kg.kr,07시30분~19시30분,1,1,2,0,1,14,21,43,0,4,20211,126.836162475701,37.5349564702246,정좌표
422,서울특별시교육청,강남서초교육지원청,1ecec08c-feb0-b044-e053-0a32095ab044,서울우암초등학교병설유치원,공립(병설),이순임,이순임,20121227,20130510,서울특별시 서초구 바우뫼로7길 38,02-529-3285,http://www.wooam.es.kr,09시00분~19시30분,,1,1,0,,,7,15,0,,20211,127.024124409388,37.4721228918215,정좌표
423,서울특별시교육청,동작관악교육지원청,1ecec08c-feb1-b044-e053-0a32095ab044,서울남성초등학교병설유치원,공립(병설),봉하창,봉하창,20130301,20130301,서울특별시 동작구 사당로23길 57-14,595-3991,,09시30분~19시00분,1,1,2,0,,14,20,34,0,,20211,126.976933074077,37.4841311630483,정좌표
424,서울특별시교육청,강동송파교육지원청,1ecec08c-feb2-b044-e053-0a32095ab044,티움유치원,사립(사인),전춘영,전은영,20120228,20120403,서울특별시 송파구 송파대로36길 32-6,02-417-3408,,07시00분~19시00분,1,2,1,0,,26,34,25,0,,20211,127.115263009554,37.5010977756323,정좌표
425,서울특별시교육청,북부교육지원청,1ecec08c-fec4-b044-e053-0a32095ab044,꿈밭유치원,사립(사인),양혜숙,원주연,19910301,19930801,서울특별시 도봉구 해등로 264,02-956-9380,,07시30분~20시00분,2,2,2,0,,36,52,54,0,,20211,127.025346720558,37.6578011358446,정좌표
426,서울특별시교육청,남부교육지원청,1ecec08c-fec8-b044-e053-0a32095ab044,서울도신초등학교병설유치원,공립(병설),정경화,정경화,19970418,19970418,서울특별시 영등포구 도림로53길 32-9,02-849-0803,http://www.doshin.es.kr,07시00분~20시00분,1,1,1,0,,6,15,15,0,,20211,126.900712791424,37.4992656758344,정좌표
427,서울특별시교육청,서부교육지원청,1ecec08c-fed8-b044-e053-0a32095ab044,태영유치원,사립(사인),최옥매,신미희,20011120,20011120,서울특별시 마포구 독막로 266,02-3275-7667,http://cafe.daum.net/taeyoungkindergarten,09시00분~18시30분,1,2,1,0,,24,50,46,0,,20211,126.94317577711,37.5456790277259,정좌표
428,서울특별시교육청,서부교육지원청,1ecec08c-fed9-b044-e053-0a32095ab044,효림유치원,사립(사인),김영자,김영자,20011004,20011004,서울특별시 은평구 은평터널로 65,02-308-5176,https://hyorim.kidsnote.ac,07시30분~20시00분,1,2,2,0,,11,24,33,0,,20211,126.900896128276,37.5876492882544,정좌표
429,서울특별시교육청,강서양천교육지원청,1ecec08c-ff1b-b044-e053-0a32095ab044,미래유치원,사립(사인),이희영 황의원,이희영,19940301,19940301,서울특별시 강서구 양천로6길 28,02-2662-1160,http://www.미래유치원.com,07시00분~19시00분,1,1,2,0,,15,15,28,0,,20211,126.806364518076,37.5696636938814,정좌표
430,서울특별시교육청,강서양천교육지원청,1ecec08c-ff1d-b044-e053-0a32095ab044,서울내발산초등학교병설유치원,공립(병설),오미향,오미향,19950411,19950411,서울특별시 강서구 강서로46길 23,02-3662-7670,http://www.nbs.es.kr,09시30분~19시30분,1,1,1,0,,16,22,24,0,,20211,126.8385695845,37.5516358357508,정좌표
431,서울특별시교육청,동부교육지원청,1ecec08c-ff1e-b044-e053-0a32095ab044,색동유치원,사립(사인),양승노,육정희,19821028,19830303,서울특별시 중랑구 동일로109길 31,02-435-2714,,07시30분~19시30분,1,1,1,0,,3,22,20,0,,20211,127.078399823774,37.5916763126163,정좌표
432,서울특별시교육청,동부교육지원청,1ecec08c-ff1f-b044-e053-0a32095ab044,신동아유치원,사립(사인),정연학,김승현,19930428,19930428,서울특별시 동대문구 무학로26길 30,02-921-3361,,09시00분~18시20분,2,3,2,0,,31,58,46,0,,20211,127.031898097381,37.5728724759207,정좌표
433,서울특별시교육청,동부교육지원청,1ecec08c-ff20-b044-e053-0a32095ab044,아이비유치원,사립(사인),정미경,노혜련,20020214,20020214,서울특별시 동대문구 한천로 246,02-2213-1508,http://cafe.naver.com/02ivykdg,09시20분~19시00분,2,2,2,0,,45,52,52,0,,20211,127.068737812905,37.5828160488881,정좌표
434,서울특별시교육청,북부교육지원청,1ecec08c-ff21-b044-e053-0a32095ab044,학림유치원,사립(사인),최남선,남기평,19951208,19951208,서울특별시 노원구 상계로7길 25,02-933-3533,,09시30분~20시00분,3,1,2,0,,39,17,32,0,,20182,127.064606331053,37.6578049385596,정좌표
435,서울특별시교육청,서부교육지원청,1ecec08c-ffa8-b044-e053-0a32095ab044,은평국제유치원,사립(사인),김금희,김금희,20060901,20060907,서울특별시 은평구 은평로3가길 32,02-302-7123,https://ep.kidis.co.kr,07시00분~22시00분,2,4,2,0,,26,87,53,0,,20211,126.911466084911,37.5989602029686,정좌표
436,서울특별시교육청,성북강북교육지원청,1ecec08c-ffa9-b044-e053-0a32095ab044,서울장월초등학교병설유치원,공립(병설),조명옥,조명옥,20070509,20071031,서울특별시 성북구 한천로101길 66,02-914-6122,http://www.jangwol.es.kr/,07시00분~19시00분,,2,2,0,,,44,48,0,,20211,127.047173316005,37.6219404111431,정좌표
437,서울특별시교육청,강동송파교육지원청,1ecec08c-ffbe-b044-e053-0a32095ab044,상아유치원,사립(사인),유순례,유순례,19880304,19880302,서울특별시 송파구 백제고분로32길 15,02-417-2972,,09시00분~20시00분,1,1,2,0,,24,28,56,0,,20182,127.095253707272,37.5009317630047,정좌표
438,서울특별시교육청,동부교육지원청,1ecec08c-ffcd-b044-e053-0a32095ab044,동성유치원,사립(사인),윤기섭,김춘희,19950810,19950904,서울특별시 중랑구 신내로 110,02-434-2690,,07시00분~19시00분,2,2,2,0,,30,34,53,0,,20211,127.096457681873,37.6084458731548,정좌표
